time,ins1000_lat,ins1000_lon,ins1000_alt,ins1000_roll,ins1000_pitch,ins1000_yaw,ins1000_ned_x,ins1000_ned_y,ins1000_ned_z,algo_pose_x,algo_pose_y,algo_pose_z,algo_roll,algo_pitch,algo_yaw,algo_vel_x,algo_vel_y,algo_vel_z,align_pose_x,align_pose_y,align_pose_z,align_roll,align_pitch,align_yaw,align_vel_x,align_vel_y,align_vel_z,algo_lat,algo_lon,algo_alt,loop_pose_x,loop_pose_y,loop_pose_z,loop_lat,loop_lon,loop_alt,loop_roll,loop_pitch,loop_yaw
1573523577,31.50769979,120.4017282,12.4939,-0.865723385,0.410972399,-1.733478667,0,0,0,0.37784,0.01044,0.00382,-1.489864729,1.168885417,-0.004884094,0.621970916,0.01687509,0.012063136,0.37784,0.01044,0.00382,-0.865723385,-0.410972399,9.735398423,0.616754713,-0.008070389,-0.026249439,31.50769979,120.4017282,12.49390001,,,,,,,,,
1573523577,31.50770038,120.4017282,12.4918,-0.866157962,0.43384435,-1.733826792,0.065418284,-0.000949947,0.0021,0.44446,0.01397,0.00483,-1.469295336,1.133266461,-0.012239875,0.70793307,0.025840981,0.016332487,0.442489094,0.020487334,0.00172,-0.866157962,-0.43384435,9.735746548,0.705726491,-0.006442904,-0.027745077,31.50770039,120.4017283,12.49491001,,,,,,,,,
1573523577,31.50770106,120.4017282,12.4895,-0.889334598,0.444778998,-1.756916993,0.140815631,-0.00284984,0.004400001,0.51887,0.01801,0.00626,-1.463557783,1.100032802,-0.011758698,0.795531613,0.034055941,0.021083057,0.51688785,0.032864512,-0.000580001,-0.889334598,-0.444778998,9.758836748,0.795820965,-0.001362342,-0.028603235,31.50770106,120.4017283,12.49634001,,,,,,,,,
1573523577,31.50770182,120.4017282,12.4871,-0.935387587,0.455442072,-1.768641534,0.225083253,-0.005699683,0.006800004,0.60524,0.02285,0.00776,-1.478457974,1.063347248,-0.012574477,0.884146252,0.047327049,0.026852291,0.599938277,0.04741719,-0.002980004,-0.935387587,-0.455442072,9.770561289,0.889937319,0.005582124,-0.033888467,31.50770184,120.4017284,12.49784001,,,,,,,,,
1573523577,31.50770267,120.4017281,12.4842,-1.015816349,0.465563126,-1.780509624,0.319329934,-0.009499472,0.009700008,0.69925,0.02839,0.00886,-1.530102829,1.035722346,-0.021853306,0.976634151,0.059913691,0.028847986,0.692738361,0.064299712,-0.005880008,-1.015816349,-0.465563126,9.78242938,0.990567575,1.60E-05,-0.039656134,31.50770268,120.4017285,12.49894001,,,,,,,,,
1573523577,31.50770361,120.4017281,12.4809,-1.08465327,0.46428195,-1.803694452,0.423555676,-0.012349312,0.013000014,0.80278,0.03414,0.0097,-1.592048576,0.989752833,-0.030942969,1.075402669,0.064899617,0.029744811,0.795552585,0.081630682,-0.009180014,-1.08465327,-0.46428195,9.805614207,1.091355057,-0.004538013,-0.043638576,31.50770361,120.4017286,12.49978002,,,,,,,,,
1573523577,31.50770464,120.4017281,12.4773,-1.142214016,0.474612726,-1.826947778,0.537760479,-0.014249208,0.016600023,0.91713,0.04148,0.01163,-1.634406838,0.939381569,-0.026006467,1.178498221,0.06247849,0.028117951,0.908380944,0.099410105,-0.012780023,-1.142214016,-0.474612726,9.828867534,1.197433391,-0.013098568,-0.044990473,31.50770465,120.4017287,12.50171003,,,,,,,,,
1573523577,31.50770649,120.4017287,12.478,-1.15231606,0.477573874,-1.517474143,0.74288561,0.047497358,0.015900044,1.03791,0.0478,0.01455,-1.643692211,0.855426473,-0.046653156,1.280184779,0.064002495,0.033695715,1.120104364,0.066819447,-0.012080044,-1.15231606,-0.477573874,9.519393899,1.297848545,-0.041721178,-0.02866354,31.50770573,120.4017288,12.50463004,,,,,,,,,
1573523578,31.50770771,120.4017287,12.4764,-1.186744927,0.465377481,-1.540562361,0.878157317,0.048447304,0.01750006,1.16642,0.05639,0.019,-1.651928943,0.804509612,-0.080362539,1.372636739,0.071444352,0.050348281,1.254191224,0.084709421,-0.01368006,-1.186744927,-0.465377481,9.542482117,1.395956834,-0.054070194,-0.028765289,31.50770689,120.4017289,12.50908005,,,,,,,,,
1573523578,31.50770901,120.4017287,12.4747,-1.278657083,0.475351866,-1.563965624,1.022299301,0.04939725,0.019200082,1.30177,0.06486,0.02492,-1.644954994,0.709430348,-0.077801738,1.463449805,0.082840274,0.062077984,1.397061994,0.103834195,-0.015380082,-1.278657083,-0.475351866,9.565885379,1.50025211,-0.032796382,-0.030287039,31.50770811,120.401729,12.51500007,,,,,,,,,
1573523578,31.50771042,120.4017287,12.4726,-1.427813468,0.484640984,-1.576159359,1.178637914,0.047497357,0.021300109,1.44975,0.07466,0.03426,-1.7033183,0.558024657,-0.083934751,1.561691373,0.108899887,0.071221293,1.551613924,0.127478906,-0.017480109,-1.427813468,-0.484640984,9.578079114,1.613484424,-0.018681291,-0.040927271,31.50770944,120.4017291,12.5243401,,,,,,,,,
1573523578,31.50771192,120.4017287,12.4696,-1.599741331,0.470032345,-1.633978425,1.344955587,0.045597462,0.024300142,1.60889,0.08523,0.04429,-1.830390358,0.373387309,-0.086189177,1.676014078,0.123548008,0.069095108,1.716047752,0.152512767,-0.020480142,-1.599741331,-0.470032345,9.635898181,1.731215577,-0.043845579,-0.04524522,31.50771088,120.4017292,12.53437012,,,,,,,,,
1573523578,31.50771353,120.4017287,12.4672,-1.678663702,0.377068539,-1.644399308,1.52346989,0.046547408,0.026700183,1.78325,0.09571,0.05077,-1.966645048,0.344104031,-0.050603574,1.785150995,0.101342858,0.061886461,1.892956172,0.176422383,-0.022880183,-1.678663702,-0.377068539,9.646319063,1.825779748,-0.073048992,-0.031069388,31.50771245,120.4017294,12.54085016,1.78176,0.09415,0.05406,31.50771243,120.4017294,12.54414016,-0.03330289,0.003066254,-0.000851174
1573523578,31.50771521,120.4017288,12.466,-1.654817896,0.308323829,-1.666246196,1.709745684,0.050347196,0.02790023,1.96422,0.10256,0.05953,-1.960893061,0.253434418,-0.058203323,1.863628905,0.069108663,0.069709493,2.077947229,0.198590353,-0.02408023,-1.654817896,-0.308323829,9.668165951,1.890861233,-0.111172955,-0.024396112,31.50771407,120.4017296,12.5496102,1.96718,0.10389,0.06419,31.5077141,120.4017296,12.55427021,-0.033362857,0.002764936,-0.000926251
1573523578,31.50771678,120.4017288,12.4649,-1.586303492,0.320461549,-1.689147903,1.883824849,0.056046874,0.02900028,2.1548,0.10818,0.06857,-1.854243159,0.202189261,-0.041092092,1.92555358,0.049644477,0.078582984,2.251124886,0.217179083,-0.02518028,-1.586303492,-0.320461549,9.691067659,1.953939175,-0.101233715,-0.027041701,31.50771578,120.4017298,12.55865025,2.15885,0.10108,0.05528,31.50771581,120.4017299,12.54536026,-0.031381975,0.002530598,-0.00061978
1573523578,31.50771877,120.4017288,12.4628,-1.598162927,0.342888639,-1.712411701,2.104472962,0.058896715,0.031100349,2.3543,0.11432,0.07718,-1.746464565,0.127006833,-0.013396377,2.002546518,0.079277511,0.087856165,2.470021354,0.245072592,-0.027280349,-1.598162927,-0.342888639,9.714331457,2.056399746,-0.079751397,-0.042047827,31.50771757,120.40173,12.56726031,,,,,,,,,
1573523578,31.50772067,120.4017289,12.4598,-1.621313985,0.353681072,-1.73555137,2.315142014,0.061746555,0.034100421,2.56016,0.12294,0.08519,-1.718934815,0.06758441,-0.002159915,2.096829128,0.095100575,0.078051224,2.679035922,0.271576955,-0.030280421,-1.621313985,-0.353681072,9.737471125,2.150964808,-0.100930606,-0.046252627,31.50771942,120.4017302,12.57527038,2.56144,0.11575,0.07294,31.50771942,120.4017303,12.56302038,-0.029221149,0.000579352,-4.85E-05
1573523578,31.50772313,120.4017304,12.497,-1.516622378,0.385604653,-1.174013596,2.587903016,0.203288654,-0.003099471,2.77542,0.13162,0.09246,-1.690284449,0.03231874,0.015567829,2.194570631,0.076220224,0.075148847,2.96884471,0.16938304,0.006919471,-1.516622378,-0.385604653,9.175933351,2.225737217,-0.171004691,-0.014910689,31.50772136,120.4017305,12.58254046,,,,,,,,,
1573523579,31.50772519,120.4017305,12.4961,-1.458505527,0.293941243,-1.218487652,2.816312622,0.216587907,-0.002199372,2.99912,0.13926,0.09997,-1.650151831,0.060076698,0.03351573,2.28369147,0.081633615,0.077937666,3.196881724,0.188009328,0.006019372,-1.458505527,-0.293941243,9.220407407,2.330558268,-0.206847369,-0.04043472,31.50772336,120.4017307,12.59005055,3.0005,0.12879,0.07786,31.50772336,120.4017308,12.56794055,-0.028380717,0.000887007,0.000487462
1573523579,31.50772733,120.4017307,12.4932,-1.423915,0.271247255,-1.229575951,3.053592504,0.230837105,0.000700738,3.23292,0.14598,0.10397,-1.535494393,0.137257775,0.065775774,2.374557167,0.062888889,0.045440111,3.433834886,0.206929718,0.003119262,-1.423915,-0.271247255,9.231495706,2.393055309,-0.15290947,-0.049444554,31.50772546,120.401731,12.59405065,3.23535,0.1339,0.08151,31.50772547,120.4017311,12.57159065,-0.02673964,0.002234242,0.001050224
1573523579,31.50772951,120.4017307,12.49,-1.540206372,0.419087987,-1.220501775,3.295307523,0.239386623,0.003900859,3.47227,0.15587,0.11089,-1.57679509,0.093551009,0.052576047,2.418400569,0.12745236,0.097272736,3.67438657,0.232111692,-8.09E-05,-1.540206372,-0.419087987,9.222421531,2.45670419,-0.153528318,-0.048214516,31.50772761,120.4017312,12.60097076,,,,,,,,,
1573523579,31.50773178,120.4017309,12.4883,-1.599369037,0.566628972,-1.280078028,3.547001603,0.250785978,0.005600994,3.71751,0.16776,0.12153,-1.643343045,-0.102366253,0.054185498,2.500294038,0.116531407,0.101896839,3.925216869,0.255860725,-0.001780994,-1.599369037,-0.566628972,9.281997784,2.564372349,-0.180407683,-0.039412379,31.50772981,120.4017315,12.61161088,3.71753,0.15428,0.09292,31.5077298,120.4017316,12.58300088,-0.028482135,-0.002345526,0.001033505
1573523579,31.50773414,120.401731,12.4879,-1.621974995,0.543621345,-1.268404073,3.808674745,0.264085228,0.006001147,3.97278,0.17884,0.13387,-1.695084745,-0.224161887,0.10875193,2.607172783,0.10353187,0.09924651,4.186193544,0.279117509,-0.002181147,-1.621974995,-0.543621345,9.270323828,2.666227574,-0.18983774,-0.039187325,31.50773211,120.4017317,12.62395102,3.9746,0.15705,0.09092,31.5077321,120.401732,12.58100102,-0.029184931,-0.004254447,0.001782276
1573523579,31.50773659,120.4017311,12.486,-1.587600831,0.543999514,-1.268246263,4.080326947,0.277384477,0.007901317,4.23784,0.18744,0.14333,-1.633110439,-0.217934076,0.067283781,2.693291709,0.096203467,0.077659456,4.457052117,0.303763443,-0.004081317,-1.587600831,-0.543999514,9.270166018,2.74057218,-0.19912984,-0.056361079,31.50773449,120.401732,12.63341118,,,,,,,,,
1573523579,31.50773884,120.4017313,12.4848,-1.610966412,0.554242178,-1.337260979,4.329803459,0.28973378,0.009101483,4.51238,0.19898,0.15214,-1.590765438,-0.225660378,0.09023112,2.779678278,0.105168379,0.087726216,4.705818678,0.326263077,-0.005281483,-1.610966412,-0.554242178,9.339180735,2.801131954,-0.205318006,-0.031781785,31.50773695,120.4017323,12.64222135,4.51366,0.17482,0.10064,31.50773693,120.4017326,12.59072135,-0.026983403,-0.003862123,0.001352226
1573523579,31.50774166,120.4017314,12.4858,-1.65654409,0.518843293,-1.371349161,4.642480688,0.303033026,0.008101704,4.79168,0.21103,0.16294,-1.563339906,-0.205514787,0.14032754,2.827147444,0.122514511,0.115765559,5.017302834,0.356619954,-0.004281704,-1.65654409,-0.518843293,9.373268917,2.859865777,-0.187587668,-0.023830749,31.50773946,120.4017326,12.65302154,4.79186,0.18499,0.10816,31.50773943,120.4017329,12.59824154,-0.026444966,-0.003670591,0.002248734
1573523579,31.50774427,120.4017316,12.4853,-1.656269853,0.483976329,-1.405223223,4.931873442,0.317282219,0.008601922,5.07568,0.22475,0.1757,-1.564478172,-0.196315664,0.142496037,2.877919951,0.115767012,0.105119688,5.305861466,0.382794789,-0.004781922,-1.656269853,-0.483976329,9.407142978,2.924168777,-0.226021775,-0.046953944,31.50774202,120.4017329,12.66578175,,,,,,,,,
1573523579,31.50774725,120.4017336,12.5097,-1.480888227,0.41478496,-0.71589018,5.262291252,0.512971237,-0.0157978,5.36639,0.23629,0.18561,-1.522038526,-0.140928818,0.174920665,2.93847808,0.096738352,0.077399361,5.660303272,0.23500735,0.0196178,-1.480888227,-0.41478496,8.717809936,2.911885815,-0.314817616,-0.019122678,31.50774463,120.4017332,12.67569197,5.3669,0.20434,0.12047,31.50774459,120.4017335,12.61055197,-0.025746542,-0.00404438,0.002792313
1573523580,31.50774986,120.4017339,12.507,-1.377548213,0.381049537,-0.715110619,5.551684006,0.540519678,-0.013097552,5.65741,0.24686,0.19853,-1.358077688,-0.080205305,0.194623699,2.91693899,0.096956115,0.063022425,5.950713242,0.248012426,0.016917552,-1.377548213,-0.381049537,8.717030374,2.868776457,-0.295639349,-0.053102518,31.50774724,120.4017335,12.6886122,5.65938,0.20963,0.12276,31.50774721,120.4017339,12.6128422,-0.023126126,-0.003503692,0.003160731
1573523580,31.50775244,120.4017342,12.5072,-1.400230985,0.323057089,-0.760316685,5.83775041,0.564268329,-0.013297293,5.94539,0.25873,0.211,-1.242526977,-0.205436085,0.183293022,2.885527112,0.117965012,0.086392724,6.237300294,0.264317246,0.017117293,-1.400230985,-0.323057089,8.76223644,2.862386342,-0.26770726,0.01732458,31.50774983,120.4017338,12.70108245,,,,,,,,,
1573523580,31.50775502,120.4017344,12.5129,-1.411543817,0.276303092,-0.828531139,6.123816818,0.588966929,-0.018997021,6.23488,0.27457,0.22801,-1.296534889,-0.246210497,0.218232817,2.878030187,0.145844644,0.148682029,6.52401959,0.279681368,0.022817021,-1.411543817,-0.276303092,8.830450894,2.829436059,-0.292913716,0.039952538,31.50775243,120.401734,12.71809271,6.24264,0.23353,0.14454,31.50775245,120.4017345,12.63462272,-0.022090873,-0.00600274,0.003406537
1573523580,31.50775757,120.4017347,12.517,-1.401146957,0.390128831,-0.898655799,6.406556873,0.61461547,-0.023096741,6.52408,0.28918,0.25003,-1.271603092,-0.334081689,0.255826095,2.848251192,0.122319062,0.162639695,6.807577158,0.293641747,0.026916741,-1.401146957,-0.390128831,8.900575554,2.80412994,-0.326462481,-0.002176504,31.50775503,120.4017343,12.74011298,6.53377,0.24035,0.15038,31.50775506,120.4017348,12.64046299,-0.021774046,-0.006636496,0.004032527
1573523580,31.50776011,120.401735,12.518,-1.287620504,0.49350611,-0.956728741,6.688188142,0.644063799,-0.024096446,6.81434,0.30087,0.26943,-1.187288045,-0.4909553,0.285855476,2.848718442,0.091655148,0.110437083,7.090565689,0.303684986,0.027916446,-1.287620504,-0.49350611,8.958648496,2.826175012,-0.335815069,-0.031497462,31.50775764,120.4017346,12.75951327,,,,,,,,,
1573523580,31.50776269,120.4017353,12.5178,-1.229616303,0.390366041,-1.00121007,6.974254546,0.671612233,-0.023896136,7.1042,0.31049,0.2827,-1.061502732,-0.543704577,0.315597733,2.883449862,0.099160445,0.069620112,7.377681696,0.316227021,0.027716136,-1.229616303,-0.390366041,9.003129825,2.861071032,-0.310241365,-0.021955764,31.50776024,120.4017349,12.77278357,7.1134,0.25904,0.17458,31.50776026,120.4017355,12.66466358,-0.018167381,-0.010474029,0.005115437
1573523580,31.50776501,120.4017355,12.5183,-1.227742944,0.172415866,-1.021787293,7.231492553,0.694410933,-0.024395848,7.39724,0.32446,0.29538,-1.015384837,-0.446432662,0.314513809,2.895075984,0.132446215,0.080614705,7.635588803,0.329459448,0.028215848,-1.227742944,-0.172415866,9.023707049,2.859634682,-0.304119499,-0.009023574,31.50776288,120.4017352,12.78546389,7.40465,0.26469,0.16976,31.50776287,120.4017359,12.6598439,-0.017023044,-0.008736322,0.005174606
1573523580,31.50776785,120.4017358,12.5178,-1.275154918,0.319945879,-1.115174784,7.546387356,0.722909308,-0.023895476,7.69055,0.34037,0.30955,-0.985443506,-0.383420638,0.32187703,2.901204082,0.133738006,0.114554959,7.951384755,0.345073885,0.027715476,-1.275154918,-0.319945879,9.11709454,2.86737148,-0.307292578,-0.029157632,31.50776551,120.4017355,12.79963422,,,,,,,,,
1573523580,31.50777044,120.4017361,12.5184,-1.28935952,0.571277035,-1.175338106,7.833562546,0.748557842,-0.024495127,7.98615,0.35614,0.32723,-1.004752502,-0.615490378,0.380132449,2.915970261,0.136876993,0.138685648,8.239334274,0.35965167,0.028315127,-1.28935952,-0.571277035,9.177257862,2.889300737,-0.328108267,-0.009193174,31.50776817,120.4017358,12.81731457,7.99448,0.29247,0.1924,31.50776817,120.4017364,12.68248458,-0.017017437,-0.011405563,0.006457411
1573523580,31.50777343,120.4017374,12.5285,-1.209087037,0.677269074,-0.981248469,8.165089138,0.868251077,-0.034594694,8.28238,0.37114,0.34647,-0.941557348,-0.833157494,0.41367288,2.948167053,0.124544208,0.133669746,8.584294975,0.287274424,0.038414694,-1.209087037,-0.677269074,8.983168224,2.908871124,-0.383470763,0.000925496,31.50777084,120.401736,12.83655493,8.28783,0.29918,0.19746,31.5077708,120.4017368,12.68754494,-0.0160361,-0.015443279,0.007164294
1573523581,31.5077761,120.4017377,12.5322,-1.095074394,0.688939908,-1.060901962,8.46113461,0.902449123,-0.038294303,8.58085,0.38617,0.36704,-0.861169227,-0.938335758,0.486075447,3.018221934,0.110342184,0.116339567,8.882218555,0.294620739,0.042114303,-1.095074394,-0.688939908,9.062821717,2.988962557,-0.377518841,-0.013257032,31.50777352,120.4017363,12.85712531,,,,,,,,,
1573523581,31.50777884,120.4017381,12.5359,-1.14034814,0.596281065,-1.117548387,8.764941574,0.933797331,-0.041993885,8.88598,0.40174,0.38579,-0.762134208,-0.981929197,0.541707101,3.101223442,0.145433278,0.111104472,9.187431342,0.305869594,0.045813885,-1.14034814,-0.596281065,9.119468143,3.071031643,-0.372251029,0.005833655,31.50777627,120.4017366,12.87587571,8.88953,0.32616,0.21956,31.5077762,120.4017374,12.70964572,-0.013205932,-0.017717362,0.009617585
1573523581,31.50778165,120.4017384,12.5406,-1.129419283,0.607064726,-1.19781173,9.076510033,0.965145534,-0.046693442,9.20047,0.42185,0.40506,-0.809220891,-0.918326144,0.592084028,3.187875325,0.147888034,0.128695245,9.500330051,0.318198902,0.050513442,-1.129419283,-0.607064726,9.199731486,3.119819136,-0.373423855,0.008087219,31.5077791,120.4017369,12.89514614,,,,,,,,,
1573523581,31.50778449,120.4017387,12.5436,-1.178031126,0.823605919,-1.269049025,9.391404842,0.995543789,-0.049692982,9.52077,0.44443,0.43071,-0.804758605,-1.041642007,0.660532647,3.222486929,0.172751647,0.162126865,9.816390485,0.331931958,0.053512982,-1.178031126,-0.823605919,9.270968781,3.176624228,-0.402279383,-0.046845618,31.50778199,120.4017371,12.9207966,9.52413,0.3588,0.25111,31.50778191,120.401738,12.7411966,-0.014317201,-0.019817288,0.011722784
1573523581,31.50778742,120.4017391,12.5425,-1.079276176,1.144857315,-1.340252639,9.716278709,1.030691773,-0.048592488,9.84395,0.46701,0.45655,-0.809784873,-1.384997519,0.72033189,3.279578337,0.140352831,0.112338292,10.14299401,0.342350678,0.052412488,-1.079276176,-1.144857315,9.342172395,3.305318582,-0.435955469,-0.08888437,31.50778491,120.4017373,12.94663707,,,,,,,,,
1573523581,31.50779049,120.4017394,12.543,-1.068980137,1.155500432,-1.443386868,10.05667556,1.064889805,-0.049091951,10.1819,0.48579,0.47569,-0.699297181,-1.671729881,0.798698398,3.444766816,0.152360106,0.078623683,10.48483713,0.355870998,0.052911951,-1.068980137,-1.155500432,9.445306624,3.48537106,-0.406619079,-0.041485769,31.50778795,120.4017376,12.96577759,10.18728,0.39539,0.27683,31.50778788,120.4017386,12.76691759,-0.0141905,-0.02938179,0.0141905
1573523581,31.50779337,120.4017397,12.5485,-1.090453512,0.994143116,-1.510825182,10.37600551,1.093388161,-0.054591432,10.53773,0.512,0.49481,-0.836703283,-1.638062451,0.886418112,3.616432319,0.19953365,0.116944587,10.80502505,0.372102854,0.058411432,-1.090453512,-0.994143116,9.512744938,3.585772315,-0.402811731,0.004022769,31.50779116,120.4017379,12.98489815,10.543,0.40932,0.27588,31.50779108,120.401739,12.76596815,-0.01638839,-0.028934827,0.015619432
1573523581,31.50779698,120.4017401,12.5567,-1.090338854,0.936096546,-1.590487309,10.77627674,1.128536132,-0.06279076,10.90499,0.54052,0.51964,-0.982980377,-1.4989913,0.937731985,3.708438284,0.200292747,0.162113922,11.20629182,0.393017374,0.06661076,-1.090338854,-0.936096546,9.592407065,3.672532424,-0.458371226,-0.005621927,31.50779447,120.4017381,13.00972875,,,,,,,,,
1573523581,31.50780034,120.4017405,12.5593,-0.965872729,0.994367749,-1.68163461,11.14882835,1.165583993,-0.06539011,11.27671,0.56356,0.5424,-0.989290088,-1.453596759,1.011923222,3.791472124,0.149265644,0.133279551,11.58037334,0.408191756,0.06921011,-0.965872729,-0.994367749,9.683554365,3.771919198,-0.462209484,-0.081072293,31.50779782,120.4017384,13.03248938,11.28568,0.45012,0.29853,31.50779776,120.4017396,12.78861939,-0.018935894,-0.023752412,0.017987099
1573523581,31.50780432,120.4017405,12.5492,-0.988627393,1.017437439,-1.624735779,11.59012457,1.162734103,-0.055289322,11.66592,0.58653,0.55575,-0.989240112,-1.437868576,1.110342883,3.902587352,0.181530599,0.094709746,12.01697611,0.472445104,0.059109322,-0.988627393,-1.017437439,9.626655534,3.887919751,-0.429316671,-0.055759954,31.50780133,120.4017388,13.04584006,,,,,,,,,
1573523582,31.5078079,120.4017408,12.5545,-0.963662986,0.822112637,-1.726002494,11.98706944,1.194082284,-0.060588578,12.06144,0.61219,0.56232,-1.053242767,-1.231520011,1.174558821,4.040054294,0.193761695,0.10282137,12.41441996,0.496659367,0.064408578,-0.963662986,-0.822112637,9.727922249,4.014057336,-0.447774419,0.013479249,31.50780489,120.4017391,13.05241078,12.064,0.48781,0.30056,31.50780476,120.4017404,12.79065077,-0.019490114,-0.020060494,0.020717861
1573523582,31.50781155,120.4017412,12.5616,-0.834555191,0.582566022,-1.837918324,12.39177581,1.229230243,-0.067687796,12.46948,0.63842,0.57549,-1.141213608,-0.901806856,1.279927723,4.155329783,0.168963059,0.143911015,12.82007868,0.518191298,0.071507796,-0.834555191,-0.582566022,9.83983808,4.044839187,-0.485794822,0.00529951,31.50780857,120.4017394,13.06558154,,,,,,,,,
1573523582,31.50781523,120.4017415,12.564,-0.801415241,0.640008312,-1.895443628,12.79980852,1.261528361,-0.070086982,12.88416,0.66122,0.59172,-1.070412671,-0.672542945,1.370034994,4.165427212,0.16013302,0.150804933,13.22863464,0.54300837,0.073906982,-0.801415241,-0.640008312,9.897363384,4.089629693,-0.425808132,-0.038442759,31.5078123,120.4017398,13.08181235,12.889,0.52877,0.31751,31.50781218,120.4017412,12.80760235,-0.020143151,-0.011596602,0.024319008
1573523582,31.50781896,120.4017418,12.5671,-0.973501713,0.613294276,-2.010758957,13.21338516,1.289076746,-0.073186128,13.30238,0.68951,0.61033,-1.188334968,-0.736061402,1.409228598,4.21934584,0.234621538,0.170432943,13.64201936,0.573300678,0.077006128,-0.973501713,-0.613294276,10.01267871,4.168943015,-0.417388946,0.000385517,31.50781607,120.4017401,13.10042319,,,,,,,,,
1573523582,31.50782276,120.4017421,12.5731,-1.08770685,0.552708871,-2.148287133,13.6347233,1.317575074,-0.079185231,13.72721,0.72233,0.63234,-1.413525029,-0.727473199,1.511453856,4.305257166,0.240815757,0.202246314,14.06322225,0.603732742,0.083005231,-1.08770685,-0.552708871,10.15020689,4.200435002,-0.469003531,0.007679852,31.50781991,120.4017404,13.12243407,13.7325,0.58039,0.3393,31.50781978,120.4017418,12.82939407,-0.024225949,-0.012178294,0.026730744
1573523582,31.50782658,120.4017424,12.577,-1.020516079,0.610475163,-2.24013548,14.058279,1.35082313,-0.083084303,14.15902,0.75392,0.65386,-1.45689882,-0.665975656,1.616403368,4.33609808,0.187498911,0.177426802,14.4872823,0.629770022,0.086904303,-1.020516079,-0.610475163,10.24205524,4.232740948,-0.529764514,-0.037941128,31.5078238,120.4017407,13.143955,,,,,,,,,
1573523582,31.50783005,120.4017428,12.5772,-0.804251961,0.659918731,-2.330985612,14.44302724,1.384071187,-0.083283432,14.59401,0.78153,0.67147,-1.278722784,-0.675610452,1.696817722,4.391778911,0.127758623,0.107640142,14.87291274,0.65040506,0.087103432,-0.804251961,-0.659918731,10.33290537,4.275934938,-0.547612438,-0.058343686,31.50782772,120.401741,13.16156596,14.59799,0.63112,0.35857,31.50782757,120.4017426,12.84866595,-0.021203376,-0.010663046,0.030076203
1573523582,31.50783356,120.4017431,12.5775,-0.65725615,0.719516392,-2.445290606,14.83221062,1.41731924,-0.083582527,15.03388,0.80661,0.68247,-0.984270071,-0.635357051,1.819616913,4.433370734,0.140644729,0.11131814,15.26293513,0.6716575,0.087402527,-0.65725615,-0.719516392,10.44721036,4.303746732,-0.530126265,-0.036130572,31.50783168,120.4017414,13.17256696,,,,,,,,,
1573523582,31.50783826,120.4017435,12.5829,-0.681496596,0.752866435,-2.537298576,15.35333936,1.453417111,-0.088981282,15.47743,0.83515,0.6988,-0.814818201,-0.612126865,1.919344123,4.453980545,0.178673495,0.168673642,15.78401491,0.708455494,0.092801282,-0.681496596,-0.752866435,10.53921833,4.345524144,-0.452090794,-0.012377219,31.50783568,120.4017418,13.188898,15.48158,0.67773,0.36941,31.50783552,120.4017434,12.85950799,-0.014195709,-0.010159542,0.03413495
1573523582,31.50784288,120.4017435,12.5543,-0.990865265,0.75777711,-2.505002411,15.86559775,1.452467088,-0.060380023,15.92172,0.87272,0.72,-0.943737337,-0.625543752,1.977472414,4.468159717,0.248906029,0.217780405,16.29115339,0.780705851,0.064200023,-0.990865265,-0.75777711,10.50692217,4.378400612,-0.410852508,-0.014713487,31.5078397,120.401742,13.21009908,,,,,,,,,
1573523583,31.50784687,120.4017438,12.5588,-1.126064295,0.62786774,-2.596275157,16.30800279,1.479065509,-0.064878897,16.36592,0.91827,0.74966,-1.220589643,-0.706104784,2.038338447,4.526933899,0.261222626,0.187853092,16.73295358,0.81595197,0.068698897,-1.126064295,-0.62786774,10.59819491,4.41217907,-0.510649447,-0.016688316,31.50784372,120.4017422,13.23976019,16.36951,0.75358,0.4111,31.50784355,120.4017439,12.90120018,-0.020597315,-0.013949472,0.036288408
1573523583,31.50785087,120.4017441,12.5615,-1.009835531,0.538009546,-2.686498589,16.75151661,1.51326349,-0.067577735,16.81791,0.95903,0.77769,-1.253514969,-0.659900189,2.122867786,4.569793137,0.178225646,0.148452901,17.17690966,0.84382687,0.071397735,-1.009835531,-0.538009546,10.68841834,4.400518933,-0.585378619,-0.046545997,31.50784781,120.4017424,13.26779135,,,,,,,,,
1573523583,31.50785485,120.4017445,12.562,-0.794419675,0.622831141,-2.754812124,17.19281286,1.550311305,-0.068076548,17.26786,0.99275,0.8038,-0.988887833,-0.69721195,2.219035939,4.535886355,0.121895743,0.124427099,17.61906648,0.868570984,0.071896548,-0.794419675,-0.622831141,10.75673188,4.399595056,-0.538488685,-0.039196331,31.50785187,120.4017427,13.29390253,17.26915,0.81975,0.44687,31.50785166,120.4017445,12.93697251,-0.015337735,-0.013880219,0.039511203
1573523583,31.50785885,120.4017449,12.566,-0.829307993,0.633136978,-2.800899748,17.63632669,1.580709501,-0.072075324,17.71564,1.02849,0.83067,-0.721290718,-0.880804724,2.280456745,4.543026355,0.194121103,0.166829416,18.06249361,0.900208674,0.075895324,-0.829307993,-0.633136978,10.8028195,4.423530069,-0.497724018,0.009817735,31.50785591,120.401743,13.32077375,,,,,,,,,
1573523583,31.50786287,120.4017451,12.5741,-1.012997985,0.628099228,-2.859434465,18.0820581,1.607307912,-0.080174063,18.17012,1.06974,0.85844,-0.756293467,-0.898231353,2.3140905,4.569963674,0.245901378,0.228372496,18.50758778,0.935917852,0.083994063,-1.012997985,-0.628099228,10.86135422,4.443336074,-0.496261491,0.024823728,31.50786002,120.4017433,13.34854501,18.17061,0.88701,0.48267,31.5078598,120.4017452,12.97277498,-0.01136299,-0.016530155,0.041158826
1573523583,31.50786691,120.4017455,12.5792,-1.079354201,0.522864477,-2.904632855,18.53000707,1.636756157,-0.085272766,18.62229,1.11364,0.89289,-0.835805931,-0.900885724,2.360586245,4.592548338,0.235379765,0.213014463,18.95527464,0.969113643,0.089092766,-1.079354201,-0.522864477,10.90655261,4.442772461,-0.560139857,-0.043403394,31.50786412,120.4017435,13.3829963,,,,,,,,,
1573523583,31.50787053,120.4017458,12.5777,-1.011599522,0.558769904,-2.927553334,18.93138708,1.669054241,-0.083771574,19.07584,1.15214,0.92329,-0.641278248,-0.904716239,2.392280639,4.577811896,0.167318676,0.134705742,19.35724266,0.993004651,0.087591574,-1.011599522,-0.558769904,10.92947309,4.449881239,-0.606213332,-0.083215229,31.50786822,120.4017437,13.41339762,19.07977,0.95986,0.52415,31.50786801,120.4017457,13.0142576,-0.009363378,-0.015984276,0.042659899
1573523583,31.50787498,120.4017462,12.5765,-0.840000471,0.574690888,-2.915377003,19.4247962,1.709901815,-0.082570074,19.53031,1.18678,0.94222,-0.432800068,-0.959436883,2.408027004,4.587132019,0.13814343,0.106311826,19.8515339,1.021240441,0.086390074,-0.840000471,-0.574690888,10.91729676,4.471844042,-0.581362955,-0.026779675,31.50787232,120.401744,13.43232898,,,,,,,,,
1573523583,31.50787904,120.4017466,12.5816,-0.872125111,0.482005285,-2.937745194,19.87496274,1.743149832,-0.087668672,19.98729,1.22409,0.96991,-0.250560897,-1.018297951,2.398609879,4.611424804,0.19539466,0.177521144,20.30194569,1.050982157,0.091488672,-0.872125111,-0.482005285,10.93966495,4.47103191,-0.54149263,0.019348764,31.50787645,120.4017443,13.46002039,,,,,,,,,
1573523583,31.50788393,120.4017464,12.5708,-1.067118215,0.488578492,-2.927170365,20.41715834,1.724150831,-0.076866958,20.44561,1.26661,1.00263,-0.382576711,-1.022370379,2.411277859,4.600312951,0.231830286,0.232067458,20.83621737,1.145273206,0.080686958,-1.067118215,-0.488578492,10.92909012,4.465398973,-0.530060156,0.030657786,31.50788059,120.4017445,13.49274182,20.45918,1.06767,0.58468,31.50788047,120.4017466,13.07479183,-0.007926203,-0.01791454,0.04287645
1573523584,31.50788798,120.4017467,12.5774,-1.020459815,0.455281639,-2.938131138,20.86621611,1.757398844,-0.083465489,20.91127,1.31076,1.03379,-0.579164457,-1.042225879,2.429196482,4.614116357,0.199762228,0.222979764,21.28553117,1.174860577,0.087285489,-1.020459815,-0.455281639,10.94005089,4.463413434,-0.583602401,-0.018963551,31.50788481,120.4017448,13.52390332,,,,,,,,,
1573523584,31.50789203,120.4017471,12.5774,-0.975909906,0.502082466,-2.961265034,21.31527386,1.792546745,-0.08346399,21.38739,1.35111,1.06257,-0.73938165,-1.036641142,2.414577494,4.636715261,0.177154705,0.16267926,21.73510943,1.202566556,0.08728399,-0.975909906,-0.502082466,10.96318479,4.469280804,-0.579477354,-0.063644736,31.50788911,120.401745,13.55268489,,,,,,,,,
1573523584,31.50789608,120.4017474,12.5759,-0.965901942,0.547722763,-3.018885592,21.7643316,1.825794749,-0.081962458,21.85771,1.38902,1.08688,-0.846382878,-1.098403331,2.438964964,4.658364539,0.195119361,0.13308178,22.18442321,1.232153931,0.085782458,-0.965901942,-0.547722763,11.02080535,4.463465216,-0.561546155,-0.053043858,31.50789336,120.4017453,13.57699647,21.85921,1.18258,0.65382,31.50789311,120.4017475,13.14393643,-0.016640777,-0.020125371,0.043314575
1573523584,31.50790013,120.4017478,12.578,-1.000319575,0.546720041,-3.030497094,22.21338935,1.858092808,-0.084060894,22.31519,1.43257,1.11314,-0.961229289,-1.204679444,2.461629824,4.64816612,0.216822581,0.16828406,22.63360476,1.262682005,0.087880894,-1.000319575,-0.546720041,11.03241685,4.491525694,-0.563875533,-0.014104252,31.5078975,120.4017455,13.60325804,,,,,,,,,
1573523584,31.50790422,120.4017481,12.583,-1.053078742,0.373278915,-3.040610575,22.66688225,1.891340808,-0.089059282,22.77876,1.47238,1.14219,-1.026425776,-1.209211136,2.439440619,4.687394717,0.202291331,0.179072767,23.08731052,1.292886788,0.092879282,-1.053078742,-0.373278915,11.04253033,4.508123826,-0.562797018,0.021690914,31.50790169,120.4017458,13.63230967,22.78606,1.25542,0.68892,31.50790148,120.4017481,13.17903965,-0.018034181,-0.021452508,0.043700946
1573523584,31.5079083,120.4017485,12.589,-1.130570824,0.267835826,-3.062733882,23.11926637,1.923638864,-0.095057643,23.2461,1.51464,1.17134,-1.116006584,-1.048963403,2.4560117,4.695075483,0.221429035,0.216957496,23.53978605,1.323877916,0.098877643,-1.130570824,-0.267835826,11.06465364,4.459234855,-0.581404139,0.021187714,31.50790592,120.4017461,13.66146134,,,,,,,,,
1573523584,31.50791193,120.4017488,12.5929,-1.019161742,0.385241389,-3.086428694,23.52175518,1.957836812,-0.098956155,23.70499,1.55374,1.20083,-1.088641143,-0.997860844,2.467854261,4.640721859,0.178038098,0.218446098,23.94311656,1.34604191,0.102776155,-1.019161742,-0.385241389,11.08834845,4.428605358,-0.646348889,-0.013075101,31.50791006,120.4017463,13.69095302,,,,,,,,,
1573523584,31.50791634,120.4017493,12.5945,-0.820876536,0.688782907,-3.065025578,24.01072918,2.002484139,-0.100554311,24.1622,1.5862,1.22497,-0.802400805,-1.103495299,2.501619112,4.607609169,0.119703993,0.18148214,24.43354481,1.369897549,0.104374311,-0.820876536,-0.688782907,11.06694533,4.413441229,-0.632399913,-0.04612253,31.50791419,120.4017466,13.71509472,24.15986,1.35858,0.7416,31.50791388,120.401749,13.23172466,-0.008724397,-0.016867198,0.045279444
1573523584,31.50792037,120.4017497,12.5984,-0.881983629,0.836347546,-3.043617393,24.45756938,2.038581964,-0.104452595,24.60745,1.61752,1.2403,-0.312390708,-1.241435968,2.489231238,4.583572384,0.165909643,0.18492536,24.88105935,1.396354155,0.108272595,-0.881983629,-0.836347546,11.04553715,4.479665188,-0.574240023,-0.017729706,31.5079182,120.401747,13.73042641,,,,,,,,,
1573523584,31.50792555,120.4017492,12.5764,-1.039419696,0.741164496,-2.963711964,25.03191968,1.991084596,-0.082450373,25.05383,1.65153,1.2538,-0.125132837,-1.113684098,2.49617878,4.625594995,0.207893867,0.182824792,25.4432055,1.52334223,0.086270373,-1.039419696,-0.741164496,10.96563172,4.485731383,-0.548924802,-0.057395803,31.50792223,120.4017473,13.74392814,25.05458,1.41507,0.75451,31.50792194,120.4017497,13.24463808,0.000427601,-0.01745427,0.044981728
1573523585,31.50792961,120.4017495,12.577,-1.14341083,0.772870165,-2.964700873,25.48208621,2.021482748,-0.083048574,25.50455,1.6884,1.26835,-0.023849414,-0.979480785,2.521517293,4.596905716,0.190161897,0.140328628,25.89322056,1.555906061,0.086868574,-1.14341083,-0.772870165,10.96662063,4.482834289,-0.523872003,-0.049935075,31.50792631,120.4017475,13.75847992,,,,,,,,,
1573523585,31.50793328,120.4017498,12.5811,-1.209532072,0.667877649,-2.975494637,25.88901017,2.049981015,-0.087146919,25.95536,1.72452,1.27309,0.010777194,-0.810602305,2.526940329,4.60720451,0.208386682,0.161817927,26.30014959,1.58433164,0.090966919,-1.209532072,-0.667877649,10.97741439,4.50211785,-0.589268755,-0.001616838,31.50793038,120.4017478,13.76322172,25.96488,1.47826,0.75222,31.50793015,120.4017504,13.2423517,0.002340889,-0.011396351,0.045591527
1573523585,31.50793777,120.4017503,12.5883,-0.966864616,0.581993034,-3.030635107,26.38685447,2.094628326,-0.094344857,26.41483,1.757,1.28143,0.163858625,-0.516009569,2.556040324,4.616298451,0.113577269,0.152267869,26.79936177,1.609422095,0.098164857,-0.966864616,-0.581993034,11.03255486,4.488702498,-0.663553232,0.014212339,31.50793452,120.4017482,13.7715636,,,,,,,,,
1573523585,31.50794184,120.4017507,12.5967,-0.700614511,0.485924456,-3.017239741,26.83812982,2.136425808,-0.102742953,26.8713,1.78419,1.2962,0.589604603,-0.332107208,2.614694449,4.600989047,0.06757717,0.177628148,27.25206172,1.630851943,0.106562953,-0.700614511,-0.485924456,11.0191595,4.468126092,-0.62931858,0.0361155,31.50793863,120.4017486,13.7863355,26.88048,1.53143,0.76686,31.5079384,120.4017512,13.25699547,0.012201808,-0.005168818,0.047093882
1573523585,31.50794588,120.4017511,12.6017,-0.667404215,0.532714039,-3.005915609,27.28607881,2.171573674,-0.107741033,27.32684,1.81009,1.31511,0.955834399,-0.207354429,2.596369324,4.568072432,0.11191157,0.195009653,27.70054201,1.65840361,0.111561033,-0.667404215,-0.532714039,11.00783536,4.456767042,-0.551691985,-0.008963604,31.50794273,120.401749,13.80524742,,,,,,,,,
1573523585,31.50794992,120.4017514,12.6049,-0.795453123,0.597830427,-3.052785838,27.73402779,2.203871702,-0.110939081,27.78141,1.84751,1.33268,0.90271729,-0.226607645,2.574546132,4.567119714,0.185833372,0.196145008,28.14862558,1.688777367,0.114759081,-0.795453123,-0.597830427,11.05470559,4.440644483,-0.578842214,-0.023172354,31.50794684,120.4017492,13.82281937,27.79597,1.58822,0.78515,31.50794664,120.401752,13.27528937,0.015365217,-0.003416679,0.046299364
1573523585,31.50795354,120.4017518,12.6085,-0.831717969,0.665566181,-3.064922234,28.13540783,2.235219792,-0.114537306,28.2388,1.88443,1.3516,0.776638757,-0.274388486,2.600795878,4.551451034,0.153348048,0.18780414,28.55046139,1.713609122,0.118357306,-0.831717969,-0.665566181,11.06684199,4.433089076,-0.580027557,-0.019317309,31.50795097,120.4017495,13.84174137,28.2534,1.61734,0.78785,31.50795077,120.4017523,13.27799136,0.011969897,-0.004860759,0.046675963
1573523585,31.50795795,120.4017522,12.6136,-0.811101001,0.746208096,-3.088284235,28.62438185,2.276067308,-0.119635107,28.69421,1.92008,1.37265,0.667148355,-0.356491449,2.561602171,4.534721669,0.148763913,0.18499937,29.0403607,1.741227577,0.123455107,-0.811101001,-0.746208096,11.09020399,4.418930548,-0.627974297,-0.01804172,31.50795508,120.4017498,13.8627934,,,,,,,,,
1573523585,31.50796197,120.4017526,12.6187,-0.663100592,0.772870165,-3.133295974,29.07011327,2.316914828,-0.12473307,29.15074,1.95638,1.39749,0.619383041,-0.492987152,2.564449946,4.547971172,0.127231792,0.164468972,29.48743845,1.762826386,0.12855307,-0.663100592,-0.772870165,11.13521573,4.42299171,-0.66077654,-0.007808221,31.50795921,120.4017501,13.88763546,29.16927,1.68379,0.81843,31.50795903,120.401753,13.30857547,0.008034362,-0.009887906,0.046105472
1573523585,31.50796732,120.4017519,12.5862,-0.681491925,0.647364409,-2.937926788,29.66331285,2.253268402,-0.092230349,29.61064,1.99012,1.42012,0.648753078,-0.561334517,2.575418871,4.552386142,0.113466713,0.159403557,30.0660023,1.908430219,0.096050349,-0.681491925,-0.647364409,10.93984654,4.438764423,-0.551385392,-0.005709462,31.50796336,120.4017504,13.91026757,29.63142,1.7118,0.82542,31.50796319,120.4017534,13.31556758,0.006650381,-0.011677953,0.046506264
1573523586,31.50797133,120.4017522,12.5898,-0.854412337,0.677078839,-2.973493607,30.10793548,2.28176664,-0.095828248,30.07137,2.03006,1.44755,0.400124491,-0.611841997,2.558104292,4.531242988,0.179132465,0.183577383,30.51026295,1.942103719,0.099648248,-0.854412337,-0.677078839,10.97541336,4.408669478,-0.502664556,-0.030997857,31.50796752,120.4017507,13.93769972,30.08528,1.74399,0.83555,31.50796729,120.4017537,13.3256997,0.004799963,-0.012174304,0.046235947
1573523586,31.50797534,120.4017526,12.594,-0.773880229,0.655943288,-3.018698661,30.55255811,2.314064656,-0.100026112,30.52117,2.07764,1.47805,0.067790024,-0.762598562,2.558643921,4.51197606,0.198615809,0.170568277,30.95505256,1.97201444,0.103846112,-0.773880229,-0.655943288,11.02061842,4.432563033,-0.616607997,-0.008573433,31.5079716,120.4017508,13.96820185,30.53777,1.78439,0.8455,31.50797138,120.4017539,13.33565184,-0.000487506,-0.014072519,0.046528996
1573523586,31.50797936,120.401753,12.5995,-0.632780814,0.510271499,-3.085820222,30.99828954,2.351112389,-0.10552394,30.97524,2.11995,1.50152,0.142867925,-0.72991862,2.583415106,4.543680488,0.127588198,0.141061193,31.40160136,1.997376039,0.10934394,-0.632780814,-0.510271499,11.08773998,4.405408493,-0.602704005,0.024212821,31.50797571,120.4017511,13.99167404,30.98911,1.81109,0.84557,31.50797544,120.4017543,13.33572401,0.002017355,-0.012891095,0.047052429
1573523586,31.50798333,120.4017533,12.6064,-0.551667095,0.478064343,-3.085303967,31.43847705,2.385310292,-0.112421765,31.42343,2.15606,1.52386,0.239741135,-0.593495011,2.620889754,4.503649686,0.141711395,0.178338243,31.84226351,2.024787975,0.116241765,-0.551667095,-0.478064343,11.08722372,4.359338279,-0.540762774,0.014521745,31.50797975,120.4017513,14.01401622,31.43962,1.84274,0.85647,31.50797951,120.4017546,13.3466262,0.003903569,-0.010796299,0.047724182
1573523586,31.50798727,120.4017536,12.6117,-0.681738265,0.611735742,-3.155373306,31.8753382,2.414758466,-0.117719577,31.86956,2.197,1.55111,0.249657637,-0.615459791,2.601288637,4.445024001,0.211787825,0.217945226,32.27897049,2.056440341,0.121539577,-0.681738265,-0.611735742,11.15729306,4.328340035,-0.542620592,0.002532476,31.50798379,120.4017516,14.04126843,31.88585,1.87191,0.85982,31.50798353,120.401755,13.34997841,0.004296571,-0.011085871,0.047761428
1573523586,31.50799158,120.401754,12.6181,-0.753519386,0.712722874,-3.19078536,32.35322439,2.44800641,-0.124117148,32.31108,2.24162,1.58112,0.114727302,-0.784402831,2.66376094,4.423350021,0.200278715,0.207113237,32.75683202,2.090040878,0.127937148,-0.753519386,-0.712722874,11.19270512,4.332389174,-0.524845602,-0.002792938,31.50798779,120.4017518,14.07128065,32.32968,1.91396,0.88112,31.50798754,120.4017552,13.37128064,0.001537379,-0.014041929,0.048875115
1573523586,31.50799473,120.4017542,12.6229,-0.798699379,0.688537663,-3.190897783,32.70249156,2.471754934,-0.128915351,32.75419,2.28559,1.60952,0.040046088,-0.893843289,2.653949765,4.423149193,0.215693391,0.186331405,33.10600446,2.115143767,0.132735351,-0.798699379,-0.688537663,11.19281754,4.330609745,-0.561180437,0.001837547,31.5079918,120.4017519,14.09968291,32.76844,1.95008,0.89442,31.50799151,120.4017555,13.38458287,0.000352955,-0.015913429,0.048663647
1573523586,31.50799902,120.4017547,12.6263,-0.606765273,0.7619658,-3.316464922,33.17816017,2.513552368,-0.132312867,33.19361,2.32697,1.63522,0.001850608,-0.864304422,2.641619646,4.423707207,0.1724695,0.158933607,33.58286014,2.139969356,0.136132867,-0.606765273,-0.7619658,11.31838468,4.256810066,-0.638823577,-0.052580896,31.50799578,120.4017522,14.12538518,33.20801,1.98293,0.90368,31.50799547,120.4017558,13.39384514,0.001251298,-0.015254925,0.048396495
1573523586,31.50800289,120.401755,12.6294,-0.555603752,0.958088524,-3.374351234,33.60725982,2.547750254,-0.135410599,33.62684,2.36165,1.65904,0.285827892,-0.988045268,2.744675422,4.362640243,0.156094392,0.145996499,34.01254238,2.165837807,0.139230599,-0.555603752,-0.958088524,11.37627099,4.284506928,-0.535862597,-0.027041891,31.50799969,120.4017524,14.14920745,33.64145,2.01037,0.91154,31.50799938,120.4017561,13.4017074,0.005871556,-0.017053944,0.050497368
1573523586,31.50800825,120.401754,12.5863,-0.879247304,0.709562195,-3.145723107,34.20156809,2.448955906,-0.092307466,34.05716,2.39914,1.68266,0.319056376,-1.082849373,2.748734967,4.362723829,0.233162699,0.19346194,34.58731132,2.346401679,0.096127466,-0.879247304,-0.709562195,11.14764286,4.323301378,-0.423441503,0.015866561,31.50800358,120.4017527,14.17282973,34.07528,2.0435,0.92143,31.5080033,120.4017564,13.4115997,0.005182598,-0.018917717,0.050678869
1573523587,31.50801216,120.4017542,12.594,-1.059224208,0.566285181,-3.226020394,34.6351029,2.468904631,-0.100005109,34.49746,2.4446,1.71084,0.059814706,-0.99294974,2.753495483,4.372455177,0.255587987,0.213123421,35.01940197,2.386997955,0.103825109,-1.059224208,-0.566285181,11.22794015,4.293870836,-0.485695029,0.017987925,31.50800757,120.4017528,14.20101209,34.51326,2.08779,0.93924,31.50800726,120.4017566,13.42941205,-0.000316306,-0.01711773,0.050970024
1573523587,31.50801604,120.4017545,12.6,-1.025342383,0.566343625,-3.328953083,35.06531136,2.495502965,-0.106002739,34.93503,2.48741,1.73574,-0.143930328,-0.865337674,2.816964023,4.351917811,0.187200923,0.194008465,35.44912431,2.420546318,0.109822739,-1.025342383,-0.566343625,11.33087284,4.255542133,-0.536810851,-0.015972389,31.50801153,120.401753,14.22591447,34.94888,2.12173,0.95101,31.5080112,120.4017569,13.44118442,-0.003140899,-0.015343547,0.052111594
1573523587,31.50801988,120.4017548,12.6032,-0.789134499,0.710388464,-3.386052932,35.49108466,2.52780096,-0.109200361,35.36821,2.52274,1.76104,-0.111262622,-0.87068262,2.87517621,4.298015509,0.130712968,0.167392118,35.87524811,2.447833112,0.113020361,-0.789134499,-0.710388464,11.38797269,4.207937968,-0.567655663,-0.022992696,31.50801545,120.4017533,14.25121686,35.37928,2.16044,0.96812,31.50801509,120.4017571,13.45829679,-0.002586378,-0.015176433,0.053427762
1573523587,31.5080237,120.4017552,12.6084,-0.552721489,0.843223778,-3.442501595,35.9146404,2.558199067,-0.114397969,35.79566,2.55544,1.78295,0.128256086,-1.038383667,2.923661451,4.267409769,0.108909498,0.162138334,36.29891147,2.476692599,0.118217969,-0.552721489,-0.843223778,11.44442135,4.210544743,-0.532121416,0.004403561,31.5080193,120.4017536,14.27312924,35.80598,2.19003,0.98205,31.50801894,120.4017574,13.47222916,0.001558574,-0.018469509,0.0543745
1573523587,31.50802752,120.4017554,12.6157,-0.494572317,0.810484998,-3.464841355,36.33819615,2.584797393,-0.121695549,36.22351,2.58928,1.8096,0.311243684,-1.132566032,2.956174095,4.274276957,0.152732489,0.181004363,36.72204589,2.509314871,0.125515549,-0.494572317,-0.810484998,11.46676111,4.189446968,-0.488529145,-0.031781229,31.50802317,120.4017539,14.29978166,36.23087,2.21982,0.99737,31.50802277,120.4017577,13.48755156,0.004877196,-0.019802107,0.055041467
1573523587,31.50803132,120.4017557,12.6197,-0.49577868,0.844754887,-3.487906831,36.75953432,2.608545889,-0.125693116,36.64865,2.62514,1.83611,0.353086139,-1.116403687,2.939742507,4.246721948,0.166291968,0.159867004,37.14258759,2.544450524,0.129513116,-0.49577868,-0.844754887,11.48982659,4.188157592,-0.476603304,-0.034175457,31.50802701,120.4017541,14.32629408,36.65312,2.25345,1.01111,31.50802658,120.401758,13.50129397,0.004949157,-0.019403581,0.054941773
1573523587,31.50803436,120.4017558,12.6226,-0.644904996,0.828337897,-3.569091897,37.09660485,2.62469485,-0.12859115,37.07042,2.66389,1.85859,0.238559053,-1.103202578,2.963797597,4.234026207,0.200954683,0.161615719,37.47862424,2.575381134,0.13241115,-0.644904996,-0.828337897,11.57101165,4.184248487,-0.463306356,-0.035610675,31.50803083,120.4017543,14.34877652,37.06697,2.29031,1.02117,31.50803033,120.4017582,13.51135635,0.0035416,-0.018706001,0.055596451
1573523587,31.50803891,120.4017561,12.6264,-0.756332196,0.697895895,-3.69539346,37.60110186,2.649393264,-0.132388174,37.48497,2.70609,1.87882,0.000745181,-1.047769193,3.052065614,4.22390206,0.208698026,0.151354307,37.98164734,2.621152351,0.136208174,-0.756332196,-0.697895895,11.69731322,4.158431154,-0.481800286,-0.019213297,31.50803458,120.4017545,14.36900895,37.4845,2.33176,1.03249,31.50803411,120.4017584,13.5226788,-0.00089073,-0.017822036,0.057278058
1573523587,31.50804268,120.4017564,12.6327,-0.754630866,0.616624499,-3.866651205,38.01911369,2.672191811,-0.138685676,37.90223,2.74841,1.89843,-0.093189218,-0.978737389,3.125068757,4.197213349,0.191804259,0.159191243,38.39876286,2.656765656,0.142505676,-0.754630866,-0.616624499,11.86857096,4.148685039,-0.517735536,0.037739246,31.50803836,120.4017547,14.38862142,37.9003,2.37207,1.04292,31.50803787,120.4017586,13.53311125,-0.002055641,-0.016907374,0.058527602
1573523587,31.50804776,120.4017554,12.6107,-0.614748071,0.540790807,-3.922755681,38.5823761,2.581947005,-0.116682318,38.31888,2.79013,1.92092,-0.115977996,-0.881685201,3.301668805,4.20624007,0.167572276,0.179946462,38.94397837,2.82454145,0.120502318,-0.614748071,-0.540790807,11.92467544,4.141541419,-0.45762304,0.021002757,31.50804213,120.4017548,14.41111391,38.31587,2.41165,1.05624,31.50804163,120.4017588,13.54643373,-0.002754579,-0.015322362,0.061772977
1573523588,31.50805152,120.4017556,12.616,-0.372914811,0.455931394,-4.379815667,38.99927913,2.598095946,-0.121979766,38.73496,2.83114,1.94221,0.102177948,-0.794311644,3.617626386,4.194235284,0.191809724,0.157259029,39.35907022,2.866585266,0.125799766,-0.372914811,-0.455931394,12.38173542,4.144014402,-0.478217491,0.009112417,31.5080459,120.401755,14.43240643,38.73398,2.44861,1.06447,31.50804541,120.401759,13.55466626,0.001084153,-0.014144709,0.06738659
1573523588,31.50805527,120.4017557,12.619,-0.039269124,0.376822161,-4.963307443,39.41507337,2.611395055,-0.124977196,39.1548,2.87733,1.96287,0.310619289,-0.708291495,4.100267297,4.196815931,0.188607326,0.128609502,39.77266736,2.911296814,0.128797196,-0.039269124,-0.376822161,12.9652272,4.132082926,-0.433213067,-0.018372944,31.50804971,120.4017552,14.45306899,39.14769,2.49484,1.07841,31.50804917,120.4017591,13.56860879,0.00481224,-0.011832268,0.076311716
1573523588,31.50805901,120.4017557,12.6189,0.022544789,0.242038719,-5.617181277,39.8297588,2.610445006,-0.124874608,39.56863,2.92924,1.97728,0.545913014,-0.585595304,4.712948045,4.183088492,0.244251976,0.115461412,40.18318291,2.96996443,0.128694608,0.022544789,-0.242038719,13.61910103,4.134533419,-0.278249624,-0.029056534,31.50805347,120.4017552,14.46748156,39.55955,2.54526,1.08439,31.50805291,120.4017592,13.57459134,0.0085545,-0.009962041,0.087106777
1573523588,31.50806273,120.4017555,12.6175,-0.230757976,0.021419455,-6.455050648,40.24222665,2.592395974,-0.123472017,39.98045,2.99817,1.99242,0.398612322,-0.452370922,5.381716022,4.189760969,0.427636799,0.143113594,40.58912219,3.045255841,0.127292017,-0.230757976,-0.021419455,14.4569704,4.103371492,-0.244942392,-0.007220563,31.50805723,120.4017551,14.48262414,39.95936,2.61335,1.08945,31.50805656,120.4017591,13.57965384,0.006507566,-0.007691372,0.098976894
1573523588,31.50806643,120.4017553,12.6196,-0.462818802,-0.122160424,-7.487406773,40.65247695,2.567697343,-0.125569414,40.379,3.08439,2.00701,0.072886759,-0.283990616,6.240169124,4.180461831,0.47886814,0.17486245,40.99193985,3.126823411,0.129389414,-0.462818802,0.122160424,15.48932653,4.065650047,-0.270685043,0.04598349,31.5080609,120.4017548,14.49721668,40.36687,2.70027,1.09925,31.50806031,120.4017588,13.58945643,0.001844593,-0.005233701,0.114097406
1573523588,31.50807009,120.4017549,12.6253,-0.471306727,-0.150415345,-8.613111094,41.05829214,2.539198938,-0.131266816,40.7848,3.18097,2.0298,-0.163808501,-0.174448271,7.277151368,4.137522943,0.452443322,0.215797926,41.38983662,3.21153636,0.135086816,-0.471306727,0.150415345,16.61503085,4.031257759,-0.310526469,0.080631717,31.50806465,120.4017544,14.5200093,40.76095,2.79526,1.11382,31.50806395,120.4017584,13.60402896,-0.001696168,-0.003515544,0.132339749
1573523588,31.50807334,120.4017546,12.629,-0.259665508,-0.05678471,-9.80980017,41.41864714,2.510700549,-0.134964487,41.17482,3.28183,2.05462,-0.106546797,-0.182886445,8.428009816,4.095807888,0.439396847,0.220864925,41.74271584,3.289920953,0.138784487,-0.259665508,0.05678471,17.81171993,3.98876683,-0.336019054,0.022530591,31.50806826,120.4017539,14.54483184,41.1515,2.89559,1.13071,31.50806756,120.4017579,13.6209215,-0.00122981,-0.003757225,0.152510686
1573523588,31.50807727,120.4017542,12.6305,0.093517514,-0.013551598,-11.58196908,41.85439948,2.46510316,-0.136461651,41.56178,3.39243,2.07688,0.126064869,-0.325991184,9.838015409,4.076079206,0.482151716,0.165711034,42.16787799,3.39573384,0.140281651,0.093517514,0.013551598,19.58388883,3.959240345,-0.304688937,0.006833758,31.50807185,120.4017533,14.5670944,41.53639,3.00435,1.14514,31.50807114,120.4017573,13.63535404,0.002401424,-0.006417746,0.177245179
1573523588,31.5080808,120.4017536,12.6305,0.344875659,0.109494593,-13.32293838,42.24580043,2.407156523,-0.136459081,41.94353,3.51818,2.09783,0.354839104,-0.467645896,11.50582649,4.05631476,0.548029669,0.147756768,42.54740149,3.507601744,0.140279081,0.344875659,-0.109494593,21.32485813,3.928459667,-0.233756556,-0.014400711,31.50807542,120.4017526,14.58804695,41.91925,3.12922,1.15861,31.50807471,120.4017566,13.64882659,0.005287825,-0.008932432,0.206446245
1573523588,31.50808547,120.4017517,12.6146,0.237443344,0.21610415,-14.96166887,42.76360268,2.228567052,-0.120555682,42.32063,3.66279,2.11935,0.431220858,-0.617690445,13.25486917,4.038415456,0.651218364,0.130274144,43.03530133,3.756533688,0.124375682,0.237443344,-0.21610415,22.96358863,3.960672238,-0.094015282,-0.05954987,31.50807897,120.4017516,14.60956951,42.29836,3.27281,1.16881,31.50807828,120.4017556,13.65902915,0.006803937,-0.011022395,0.237164193
1573523589,31.50808894,120.4017506,12.611,0.088538742,0.105834532,-16.90675688,43.14835089,2.126923035,-0.116953115,42.69432,3.83065,2.13629,0.208419685,-0.71416166,15.06417614,4.06555718,0.747504606,0.096675524,43.40215392,3.910747405,0.120773115,0.088538742,-0.105834532,24.90867664,3.98120289,-0.065472664,-0.025352818,31.50808252,120.4017504,14.62651209,42.67409,3.44028,1.17725,31.50808185,120.4017544,13.66747173,0.00215557,-0.012562353,0.268902543
1573523589,31.50809237,120.4017494,12.6119,-0.032025713,-0.156362668,-18.92460072,43.52866398,2.011979823,-0.117850558,43.06828,4.01885,2.15295,-0.198762656,-0.592465007,17.02680477,4.075028868,0.794172711,0.143366467,43.76276324,4.077513432,0.121670558,-0.032025713,0.156362668,26.92652047,3.9619205,-0.08403797,0.039465419,31.50808609,120.401749,14.6431747,43.04695,3.62723,1.18491,31.50808541,120.401753,13.67513433,-0.005087474,-0.01065391,0.303213637
1573523589,31.50809574,120.4017481,12.616,0.009124149,-0.301301559,-20.96127712,43.90232439,1.887537188,-0.121948024,43.43731,4.21961,2.17238,-0.512395735,-0.42307258,19.01997821,4.06397595,0.771294888,0.177191156,44.11546227,4.252760296,0.125768024,0.009124149,0.301301559,28.96319688,3.912822321,-0.107244825,0.061194206,31.50808964,120.4017474,14.66260733,43.41173,3.8263,1.19575,31.50808892,120.4017515,13.6859769,-0.008900875,-0.007570263,0.338166419
1573523589,31.50809902,120.4017467,12.6192,0.129188302,-0.230860217,-23.15726573,44.26600573,1.751695249,-0.125145539,43.79533,4.43082,2.19291,-0.565156538,-0.30635522,21.06772154,4.035923233,0.790191127,0.193876681,44.45669254,4.437906325,0.128965539,0.129188302,0.230860217,31.15918548,3.851339805,-0.103465212,0.04535182,31.5080931,120.4017458,14.68313991,43.76877,4.03676,1.20893,31.50809237,120.4017498,13.69915946,-0.00975227,-0.005604368,0.374088375
1573523589,31.50810221,120.4017451,12.6225,0.19689501,-0.143477949,-25.46554437,44.61970801,1.600654228,-0.128443105,44.14238,4.65646,2.21466,-0.55912256,-0.345790792,23.28182971,4.004888429,0.835847384,0.197779275,44.78592511,4.636714299,0.132263105,0.19689501,0.143477949,33.46746412,3.824277211,-0.063406341,0.032894792,31.50809649,120.4017439,14.70489245,44.13297,4.26178,1.20809,31.50809591,120.401748,13.69832211,-0.011188476,-0.001907688,0.412782291
1573523589,31.50810531,120.4017433,12.6239,0.241634735,-0.070016606,-27.8197287,44.96343122,1.435364069,-0.12984072,44.49871,4.89945,2.22035,-0.739573581,-0.162196054,25.59835369,4.013731258,0.866026451,0.188592499,45.1032922,4.848243525,0.13366072,0.241634735,0.070016606,35.82164845,3.815264908,-0.055881804,0.008398082,31.50809997,120.4017419,14.7105851,44.48969,4.5017,1.20064,31.50809939,120.401746,13.69087474,-0.014667339,0.00163733,0.453231898
1573523589,31.50810804,120.4017416,12.6235,0.265027113,-0.059667836,-29.91538187,45.26612939,1.273873701,-0.129438605,44.85231,5.15761,2.22243,-0.92917336,0.048015015,27.92701622,4.050204936,0.858021806,0.158679114,45.38056264,5.050299012,0.133258605,0.265027113,0.059667836,37.91730163,3.811962426,-0.04203545,-0.009135887,31.50810346,120.4017397,14.71266777,44.8303,4.75956,1.19053,31.50810276,120.4017439,13.6807673,-0.018994201,0.007699643,0.494167606
1573523589,31.50811127,120.4017394,12.6207,0.149446531,0.019553904,-32.40075133,45.62426677,1.058236578,-0.126636083,45.18527,5.42608,2.20723,-1.191173899,0.472432524,30.22369859,4.066288538,0.871580061,0.142752062,45.70519494,5.313691536,0.130456083,0.149446531,-0.019553904,40.40267108,3.786990691,0.005227168,-0.030906165,31.50810677,120.4017374,14.69747033,45.16123,5.02603,1.16465,31.50810605,120.4017416,13.65488983,-0.022733539,0.014600161,0.534323979
1573523589,31.50811412,120.4017372,12.6197,-0.043056665,0.022579121,-34.65200137,45.94027035,0.849249079,-0.125633838,45.50844,5.70843,2.18981,-1.522136065,0.847625467,32.45349692,4.077411393,0.877793115,0.153553823,45.98902935,5.564633892,0.129453838,-0.043056665,-0.022579121,42.65392113,3.786542413,-0.004618816,0.018604335,31.50811001,120.401735,14.68005286,45.46829,5.30969,1.16712,31.50810915,120.4017391,13.65736223,-0.024632993,0.015606712,0.573609477
1573523589,31.50811829,120.4017338,12.5988,-0.177844743,-0.119163848,-36.60155256,46.40263335,0.533867965,-0.10473051,45.80589,6.00146,2.19571,-1.703871742,0.918327371,34.6630798,4.068143659,0.846205726,0.207216643,46.40298747,5.941308101,0.10855051,-0.177844743,0.119163848,44.60347231,3.811349144,-0.056787867,0.050850931,31.50811303,120.4017323,14.68595525,45.76099,5.60291,1.16346,31.50811213,120.4017364,13.65370457,-0.029236521,0.018135576,0.612252573
1573523590,31.50812103,120.4017315,12.604,-0.125419557,-0.092535016,-38.6346111,46.70644035,0.30683158,-0.109928299,46.09298,6.29879,2.19908,-1.749411292,1.077340952,36.74254605,4.046463477,0.749647343,0.204794773,46.67223154,6.208425768,0.113748299,-0.125419557,0.092535016,46.63653085,3.777533878,-0.05848434,0.06557309,31.50811597,120.4017297,14.6893276,46.05173,5.89419,1.14969,31.50811509,120.4017338,13.63993691,-0.029381749,0.023891802,0.648716687
1573523590,31.50812371,120.401729,12.6092,0.03621843,0.001205503,-40.6828901,47.00359465,0.072195664,-0.115126115,46.37798,6.59406,2.19009,-1.729073649,1.366597692,38.77355501,4.043575765,0.722830346,0.215310055,46.93382978,6.482142875,0.118946115,0.03621843,-0.001205503,48.68480986,3.763883994,-0.102657275,0.04568571,31.50811889,120.401727,14.68033996,46.32822,6.19191,1.13843,31.50811794,120.4017311,13.62867919,-0.030200863,0.02799981,0.684382992
1573523590,31.50812629,120.4017264,12.6118,0.205062842,0.104878837,-42.75358402,47.2896611,-0.170989724,-0.11772399,46.64902,6.89722,2.17934,-1.549890589,1.63822933,40.82633335,4.038525922,0.682355305,0.174139051,47.18325798,6.762782711,0.12154399,0.205062842,-0.104878837,50.75550378,3.731225762,-0.075022877,0.010038654,31.50812169,120.4017242,14.66959225,46.59101,6.50098,1.13667,31.50812067,120.4017283,13.62692141,-0.026831132,0.029382985,0.720300811
1573523590,31.50812874,120.4017238,12.6132,0.235530767,0.270579179,-44.7896315,47.56131334,-0.42367453,-0.11912195,46.90069,7.21429,2.18113,-1.456771987,1.620136627,42.89498979,3.99964266,0.70442392,0.179412604,47.41708994,7.050822925,0.12294195,0.235530767,-0.270579179,52.79155126,3.712065132,-0.035033807,-0.003286203,31.50812433,120.4017213,14.67138444,46.83971,6.81643,1.12896,31.50812329,120.4017254,13.61921355,-0.025464782,0.030437063,0.756475901
1573523590,31.50813108,120.401721,12.6139,0.182040942,0.41596643,-46.8178219,47.82076895,-0.687758636,-0.119819979,47.13749,7.53826,2.17861,-1.474432529,1.628993324,44.92527082,3.989167487,0.737630615,0.17429225,47.63725717,7.348453603,0.123639979,0.182040942,-0.41596643,54.81974166,3.683257579,-0.014622429,-0.028594596,31.50812685,120.4017183,14.66886655,47.06888,7.14221,1.13147,31.50812574,120.4017223,13.62172559,-0.024576878,0.02786174,0.792234189
1573523590,31.50813331,120.4017181,12.6141,0.048629267,0.613556706,-48.83928029,48.06802794,-0.958492331,-0.120018079,47.354,7.8729,2.18589,-1.491821302,1.467423101,46.94452832,3.96579068,0.753267261,0.160519559,47.84442087,7.650971277,0.123838079,0.048629267,-0.613556706,56.84120005,3.651960313,-0.033614639,-0.016679013,31.50812921,120.4017151,14.67614855,47.2879,7.4844,1.13652,31.50812813,120.4017191,13.6267776,-0.026626506,0.024186599,0.827464251
1573523590,31.50813526,120.4017155,12.6176,0.025598784,0.722199193,-50.69546098,48.28424099,-1.207377329,-0.123516397,47.56244,8.22278,2.19731,-1.687056669,1.261825055,48.96200138,3.958312395,0.740500168,0.168125867,48.02388238,7.927531197,0.127336397,0.025598784,-0.722199193,58.69738073,3.675809363,-0.063164431,0.026698897,31.50813151,120.4017118,14.68757054,47.49441,7.83974,1.14453,31.50813042,120.4017156,13.63478955,-0.030812067,0.020219015,0.862884774
1573523590,31.50813757,120.4017122,12.6274,0.062471146,0.543098784,-52.92481264,48.54037034,-1.520858428,-0.133314377,47.76325,8.58694,2.21218,-1.82860856,1.165559154,51.00013535,4.007535666,0.743400226,0.192743929,48.23387937,8.273614872,0.137134377,0.062471146,-0.543098784,60.92673239,3.665181594,-0.084138483,0.047752678,31.50813376,120.4017083,14.70244251,47.69122,8.19392,1.14445,31.50813262,120.4017122,13.63471146,-0.032304136,0.02110482,0.898496232
1573523590,31.50813938,120.4017095,12.6344,0.187785411,0.509955213,-54.69751192,48.74106045,-1.780192781,-0.140312774,47.95351,8.9481,2.21779,-1.837532357,1.37705514,52.99217651,3.99335801,0.715450142,0.189354376,48.39651447,8.558361515,0.144132774,0.187785411,-0.509955213,62.69943167,3.61168233,-0.104522461,0.035199155,31.50813591,120.4017048,14.70805443,47.87762,8.55929,1.14911,31.50813475,120.4017087,13.63937333,-0.032604495,0.023841657,0.933419288
1573523590,31.50814297,120.4017045,12.6175,0.251105189,0.525219432,-56.51188006,49.13911408,-2.251364312,-0.123409558,48.13144,9.31589,2.22635,-1.742970189,1.415209311,54.94364534,3.953566305,0.693812629,0.19042605,48.72510238,9.080357006,0.127229558,0.251105189,-0.525219432,64.51379981,3.621240295,-0.098652593,0.045639941,31.50813796,120.4017012,14.7166163,48.05492,8.9286,1.15125,31.50813679,120.4017051,13.64151517,-0.031372039,0.024709313,0.967561079
