time,ins1000_lat,ins1000_lon,ins1000_alt,ins1000_roll,ins1000_pitch,ins1000_yaw,ins1000_ned_x,ins1000_ned_y,ins1000_ned_z,algo_pose_x,algo_pose_y,algo_pose_z,algo_roll,algo_pitch,algo_yaw,algo_vel_x,algo_vel_y,algo_vel_z,align_pose_x,align_pose_y,align_pose_z,align_roll,align_pitch,align_yaw,align_vel_x,align_vel_y,align_vel_z,algo_lat,algo_lon,algo_alt,loop_pose_x,loop_pose_y,loop_pose_z,loop_lat,loop_lon,loop_alt,loop_roll,loop_pitch,loop_yaw
1573523237.057,31.507695620000003,120.40172678999998,12.5285,-0.7872897084924567,0.8346651628939117,13.883255405937108,0.0,0.0,0.0,0.38515,0.00954,0.00305,-1.6701877407572314,1.273862625361954,-0.03805275409359969,0.4872310544143098,0.005130455871069364,0.013910605194418354,0.38515,0.00954,0.00305,-0.7872897084924569,-0.8346651628939099,-9.20537747618677,0.04400914515503718,0.02330807620132971,0.019883126678565288,31.507695620000163,120.40172678999998,12.528500005602837
1573523237.19,31.50769569,120.40172678000002,12.5312,-0.7984803944363364,0.8362295039725228,13.905914364684993,0.007761491461617436,-0.0009499441258494009,-0.0026999996595990757,0.45729,0.01091,0.00277,-1.658942567131054,1.2712906136955746,-0.057374408209181646,0.5507808893599814,0.01051463725637954,0.010411086359973955,0.3928081660832706,0.011119758143526963,0.0057499996595990754,-0.7984803944363367,-0.8362295039725212,-9.228036434934658,0.0767869072882488,0.02204024365091758,0.02119076518000402,31.507696269462947,120.40172683755893,12.528220007196069
1573523237.323,31.507695810000005,120.40172678000002,12.5339,-0.7955172598771983,0.8591594928259236,13.928527087093961,0.021066906123755565,-0.0009499443966714386,-0.005399999687029808,0.53787,0.01313,0.0035,-1.6395185168763997,1.268919590170235,-0.06400086661421539,0.6102876246402225,0.014141679837164998,0.0155895414421985,0.4060692597115817,0.012204864181021433,0.008449999687029808,-0.7955172598771985,-0.8591594928259219,-9.250649157343625,0.10976764491862104,0.022767897939582782,0.018974112691566708,31.507696995416755,120.40172688344558,12.528950006701052
1573523237.457,31.50769625,120.40172711,12.5146,-0.8016656122778266,0.8754482573178043,14.437222326551131,0.06985342337809491,0.030398312435289815,0.013900000416129446,0.62543,0.0146,0.00239,-1.6444106010362676,1.259338756193897,-0.09257001226490716,0.6755531630681244,0.017328817154367383,0.012892775677977412,0.4572498328669676,-0.01506024912695423,-0.010850000416129449,-0.801665612277827,-0.8754482573178025,-9.759344396800795,0.15385566001916473,0.020578781734503875,0.018941214913274305,31.507697783561046,120.40172694319351,12.527840009890497
1573523237.59,31.50769645,120.40172714,12.5171,-0.8114971712317401,0.8883493573454143,14.448424895298787,0.09202911281944447,0.033248155059672976,0.011400001139778855,0.721,0.01715,0.00188,-1.6503027759569466,1.2464980510803167,-0.1084952122552478,0.7491088221667516,0.0218847197326181,0.011563593479847069,0.47958406916535856,-0.016092089303807712,-0.008350001139778858,-0.8114971712317405,-0.8883493573454125,-9.770546965548451,0.18537056057613277,0.022796974118751857,0.01555227451915803,31.50769864450033,120.40172699848692,12.527330015785992
1573523237.723,31.507696690000003,120.40172718000001,12.5196,-0.8354799835897321,0.8800519404561497,14.471036697863036,0.11863994181169249,0.03704794463525532,0.008900001581150431,0.82677,0.02101,0.00153,-1.6793593427414049,1.2757890425194374,-0.14133279501973062,0.8176242383921558,0.03595478278189274,0.020411565073609743,0.5064161430263006,-0.017709010079331775,-0.005850001581150436,-0.8354799835897324,-0.8800519404561479,-9.7931587681127,0.22838258335046577,0.021126825686242502,0.01730412836841808,31.50769959808935,120.4017270487928,12.526980021968484
1573523237.857,31.507697000000004,120.40172724,12.5224,-0.8552036524421781,0.9057911845499503,14.494874219455316,0.15301226117278255,0.04274762699483995,0.006100002084381981,0.93958,0.02694,0.0025,-1.7713332612708517,1.29711586221016,-0.1644641186821463,0.876609056405133,0.051005086504105894,0.030312252955055054,0.5411387966197421,-0.020586516758870722,-0.0030500020843819858,-0.8552036524421784,-0.9057911845499486,-9.816996289704976,0.2676171850755946,0.02233306632291656,0.013905984353190511,31.507700616482353,120.40172708342448,12.527950029820204
1573523237.99,31.50769734,120.40172730999998,12.5249,-0.8777390233079998,0.9088809603989538,14.517409590321138,0.19071093400226727,0.04939725637058083,0.003600003844776864,1.05928,0.03376,0.00428,-1.8883954175918007,1.3151273679521773,-0.17525857427911604,0.9419336048955154,0.047623952613194215,0.0277498920004263,0.5792541951212611,-0.0241395297070112,-0.0005500038447768698,-0.8777390233080002,-0.908880960398952,-9.839531660570803,0.31735004761343166,0.02398929504248148,0.017137707055421947,31.50770169746309,120.40172711463353,12.529730040580034
1573523238.123,31.50769776,120.4017274,12.5276,-0.8889042410928956,0.9105289947400557,14.540044285102384,0.2372798835535112,0.05794678220503939,0.0009000061559641809,1.18802,0.03937,0.00634,-1.963252614583734,1.3121928808878713,-0.20701531328112063,0.9957836727089548,0.04564348150341222,0.035416869744697696,0.6263652665842498,-0.02886270659439781,0.0021499938440358124,-0.8889042410928959,-0.9105289947400539,-9.862166355352048,0.3647041256498266,0.017515915054885343,0.015680033602817722,31.50770285881299,120.40172716629861,12.531790055334568
1573523238.256,31.507698200000004,120.40172752000001,12.53,-0.8856938516268867,0.9335637350069684,14.573993671347239,0.2860664018930325,0.0693461499879745,-0.0014999927622644516,1.32603,0.044,0.01007,-2.062908377444301,1.2201376158483799,-0.2179629386663277,1.0515898694817318,0.058884607567359304,0.04937471615141566,0.6759189351505813,-0.03624538152705164,0.0045499927622644435,-0.885693851626887,-0.9335637350069667,-9.896115741596903,0.4134007871498519,0.013509584776025452,0.0124763898248719,31.507704102768642,120.40172723620407,12.535520073957741
1573523238.39,31.5076987,120.40172764999998,12.5324,-0.8741946568885424,0.9322251281650062,14.598285872472688,0.3415056262614304,0.08169546155020829,-0.003899989909559698,1.47588,0.05155,0.01439,-2.190219166618192,1.1760453932654567,-0.23452676529901478,1.139785218801253,0.05852121835934314,0.04553232921692202,0.7321806206722403,-0.044032283150459074,0.006949989909559688,-0.8741946568885427,-0.9322251281650045,-9.920407942722354,0.4681682022306691,0.010161727718127915,0.01324136359617041,31.507705455299917,120.40172728563812,12.539840099401772
1573523238.523,31.507699530000004,120.40172773999998,12.5281,-0.8785570767789981,0.9601846977341647,15.082722192802352,0.43353474005225456,0.09024498646681547,0.0004000160501461403,1.64438,0.05732,0.01855,-2.3393067114626667,1.130684071294318,-0.25347475112322626,1.2468298740529145,0.05433315205888996,0.04265468739234857,0.8246004261849118,-0.04504801462290954,0.002649983949853849,-0.8785570767789984,-0.9601846977341629,-10.404844263052016,0.5255766556906146,0.024100195230772965,0.014465807371445726,31.507706974163874,120.40172736975877,12.544000131078064
1573523238.656,31.50770021,120.40172793000002,12.531,-0.84272141421899,0.967235367777076,15.118557855362356,0.5089320859115456,0.10829398485194516,-0.0024999786747416375,1.82857,0.06522,0.02419,-2.547979649009044,1.0171037991887424,-0.29084152165510074,1.3785145352215185,0.07663446213103996,0.051355022119427066,0.9012185822187131,-0.05688795851264287,0.005549978674741624,-0.8427214142189904,-0.9672353677770742,-10.440679925612018,0.5850158301804818,0.02194998247508745,0.009349690240064937,31.507708635629438,120.40172744500181,12.549640170298517,1.83622,0.06492,0.03174,31.507708704173407,120.40172745471696,12.557190172374249,-2.733946219579752,0.6945981185397465,-0.289387302748714
1573523238.789,31.507700920000005,120.40172811,12.5334,-0.8279107609443849,0.9888275633206567,15.163967759655016,0.5876557858751632,0.12539303236901528,-0.004899971647953527,2.02826,0.07478,0.03718,-2.8488144754523916,0.7477573334850555,-0.3074591017166748,1.488894333758417,0.07852880871931979,0.07773603799528613,0.9810745400963462,-0.0675098393912073,0.007949971647953512,-0.827910760944385,-0.9888275633206549,-10.486089829904675,0.6499396474106125,0.02612256760122233,0.004262180860599509,31.507710437643002,120.4017275161353,12.562630218453705,2.0207,0.07486,0.04203,31.50771036974619,120.40172750880562,12.567480216734111,-2.9445602963912294,0.5432668056419255,-0.31544050846482824
1573523238.923,31.5077017,120.40172833000001,12.5353,-0.8261378366676623,1.0003847174260232,15.199492066552894,0.6741409770273799,0.1462918708503575,-0.00679996182957221,2.22595,0.08376,0.05042,-3.0261275008823194,0.5513897009915423,-0.34699870247289516,1.5992120838510469,0.059764893030152595,0.07555365593991101,1.0689760222457085,-0.08128587562990805,0.009849961829572191,-0.8261378366676626,-1.0003847174260214,-10.521614136802558,0.7228916173049529,0.021349928667194304,-1.3271590432013628e-05,31.50771222125228,120.40172759163701,12.575870271772146,2.21787,0.08211,0.05435,31.507712147408817,120.4017276020118,12.579800269566476,-3.0977478442371384,0.35736372566364843,-0.3501247909742235
1573523239.056,31.507702499999997,120.40172854999999,12.5369,-0.827434792090985,0.989216086587651,15.222280448785552,0.7628437380066344,0.1671907060793548,-0.008399951546014861,2.43725,0.08916,0.06188,-3.0887281394851422,0.4032116277748183,-0.3513327560428012,1.690412753665988,0.06672869784967231,0.06899330711495241,1.1590876871191909,-0.09488105760738713,0.01144995154601484,-0.8274347920909854,-0.9892160865876493,-10.544402519035216,0.7943722847966715,0.02985044936742744,0.0024173993212424152,31.507714124566533,120.40172771638382,12.587330337613821,2.42333,0.08726,0.06604,31.507713998044327,120.40172772436787,12.591490332968533,-3.1431179766278015,0.1965719835699024,-0.35617545475630535
1573523239.189,31.50770359,120.40172883999999,12.5395,-0.8898759861509616,0.951777090688017,15.267466681039217,0.8837012495620924,0.19473917322605722,-0.010999934532652633,2.65108,0.09616,0.07382,-3.199410804668261,0.2055858225808251,-0.3966535781417068,1.7432872026967432,0.07830454433480948,0.06556802689026085,1.2817892955347017,-0.11248138242703887,0.01404993453265261,-0.8898759861509619,-0.9517770906880152,-10.589588751288883,0.8621118967715431,0.03858815094082944,0.003379652636007061,31.507716051799374,120.40172782651571,12.599270410835743,2.64722,0.09415,0.07453,31.50771601562403,120.40172784429045,12.599980408325791,-3.1796695255677014,0.13683062191824835,-0.3981449226157965
1573523239.323,31.50770462,120.40172911,12.5417,-0.9754488997966267,0.9170351849724391,15.279932322428769,0.9979060542491499,0.22038774489062712,-0.013199917290507346,2.88562,0.10421,0.08285,-3.236857937511359,0.11233802756508224,-0.3654270414537647,1.8457966533349028,0.09693111924260732,0.08109160536114228,1.3977054140839806,-0.12873069325891956,0.01624991729050732,-0.9754488997966267,-0.9170351849724373,-10.60205439267843,0.9278544760458793,0.03251629432686152,0.0015039564074646656,31.507718165963446,120.40172794341086,12.60830049868673,2.88466,0.10242,0.08117,31.507718156017578,120.40172796136709,12.606620498932898,-3.1991303520104717,0.13415729650324196,-0.368292116447214
1573523239.456,31.50770571,120.40172942,12.5433,-1.026572184064713,0.8781563729509828,15.32530446528804,1.1187635655541832,0.24983610303430837,-0.014799897163109865,3.13852,0.11344,0.09057,-3.3003431597095534,0.23436855839734747,-0.38047600159861017,1.957105009649596,0.04964003542236797,0.0642904393181527,1.5205619653862805,-0.1482245804626069,0.017849897163109835,-1.0265721840647133,-0.8781563729509809,-10.647426535537704,0.9870058039279265,0.026683867952909585,-0.004450191418246022,31.507720446030593,120.40172806368787,12.616020602174103,3.13644,0.11173,0.08641,31.507720426076066,120.40172807984322,12.611860603094101,-3.206684356600126,0.3308352781803981,-0.3852697539214154
1573523239.589,31.507707319999998,120.40172897999999,12.5216,-1.1482312223424491,0.9179910011250245,15.359575245799759,1.2972778649445527,0.2080384242825942,0.006900136465886386,3.39941,0.11127,0.09352,-2.906344053304614,0.329494740947676,-0.38663425292603454,1.9861836815562637,-0.007394235973460985,0.07099960699874078,1.6950728693172499,-0.0920076306604172,-0.003850136465886411,-1.1482312223424491,-0.9179910011250226,-10.681697316049421,1.0393737450321168,0.0777301777782723,-0.006896926885984295,31.50772278953363,120.4017283104313,12.618970721960068,3.39666,0.10948,0.0898,31.507722763497743,120.4017283268508,12.615250720642507,-2.8344826811904467,0.421240624024847,-0.39442498447555224
1573523239.722,31.507708560000005,120.40172926,12.5231,-1.2585210370128526,0.9563017926847439,15.380986164547675,1.4347671446454167,0.2346369410981325,0.005400168398770333,3.66503,0.11304,0.09865,-2.6148175172393073,0.20260618249938817,-0.4138246213340764,2.051022248524373,0.09626636140186055,0.09452347708622469,1.834273372651786,-0.10730478728708215,-0.0023501683987703615,-1.2585210370128528,-0.956301792684742,-10.70310823479734,1.1165178563860099,0.08085438670818826,-0.005160864388132535,31.507725178451846,120.40172851989767,12.624100853689015
1573523239.856,31.50770991,120.40172959,12.5245,-1.3226436061097788,0.9076225869787024,15.41508346092924,1.5844530528758958,0.26598519303207935,0.004000203885798692,3.93776,0.12479,0.10399,-2.6995722792296935,0.17314673412961895,-0.4350670371630272,2.188404895175647,0.1269978504732127,0.09567136063863577,1.9860172353899705,-0.12634117726503247,-0.0009502038857987249,-1.3226436061097788,-0.9076225869787006,-10.737205531178903,1.2215910973795086,0.07036001614794286,-0.008830001743471722,31.507727638621247,120.40172863075946,12.629441001452506,3.93914,0.12303,0.10021,31.50772764973135,120.40172865040985,12.62566100154072,-2.6380993374802455,0.2751026514434058,-0.44763342317765764
1573523239.989,31.507711490000002,120.40172998,12.5252,-1.4223133425165166,0.8524860818957307,15.473298144930464,1.7596410052154305,0.303033125326306,0.0033002505852129937,4.24042,0.13369,0.10852,-2.695513541628896,0.27737306893074876,-0.4879471551819577,2.3172905621458244,0.06349075073548135,0.06397548640639039,2.1636430236437096,-0.1489784756779272,-0.00025025058521303085,-1.4223133425165169,-0.8524860818957288,-10.79542021518013,1.3486954249802707,0.08548207513567366,-0.013350111152563479,31.507730365730467,120.40172879721817,12.633971176110208,4.23743,0.13058,0.10197,31.50773033656638,120.40172882728085,12.627421175129712,-2.6148654254089676,0.43091681948531907,-0.505006012535736
1573523240.122,31.50771311,120.40173038000002,12.5265,-1.5352401594163145,0.7871633487464543,15.497588721296706,1.9392640959195946,0.34103100481869775,0.002000305606131514,4.55044,0.13505,0.10797,-2.4849498907271967,0.33132089093735184,-0.5252657770247359,2.382311141831408,0.053169891063113976,0.06885711866081413,2.3457666482978237,-0.1722008550323804,0.0010496943938684447,-1.5352401594163148,-0.7871633487464524,-10.81971079154637,1.4608435528813215,0.0849011562708785,0.0007054565511940628,31.507733153451735,120.40172904910398,12.633421372622252,4.57337,0.13521,0.10474,31.507733359683602,120.40172906711088,12.63019138853997,-2.4440750748467335,0.40805052658916796,-0.5370945744084523
1573523240.256,31.50771484,120.40173083,12.5294,-1.6303189998447807,0.7661579319763313,15.542657934376367,2.1310838176387135,0.38377861624061615,-0.0008996307135915593,4.90057,0.14497,0.11453,-2.4803008885118136,0.2889829628784493,-0.5759137164281282,2.507328213526576,0.13625387136701744,0.1099470017377824,2.540433634572582,-0.19916246435717075,0.003949630713591512,-1.630318999844781,-0.7661579319763294,-10.864780004626033,1.5692864046626676,0.06394359740870506,0.002836633806427313,31.507736308011523,120.40172924561442,12.63998161163181,4.89889,0.14174,0.10807,31.507736290534567,120.40172927806077,12.63352161180228,-2.3595636400321873,0.42679078898746486,-0.5921895100449002
1573523240.389,31.50771684,120.4017314,12.5318,-1.6120692315368028,0.7293353817622202,15.566007760901053,2.352840720648155,0.43792558976412177,-0.003299549624731224,5.24338,0.15741,0.1177,-2.604457334622545,0.34517101191684896,-0.5981531392621074,2.665251449830425,0.1297582969303894,0.07462100009072463,2.765867739999808,-0.23504397609121203,0.006349549624731171,-1.612069231536803,-0.7293353817622183,-10.888129831150719,1.6794299250590565,0.057235365697736,-0.0056700731545331565,31.507739398626516,120.40172940940116,12.643151864409447,5.26418,0.1512,0.11039,31.507739581026886,120.40172949241244,12.635841880925,-2.5805882430867815,0.3830011658407244,-0.6035120536427973
1573523240.522,31.50771922,120.40173026000001,12.4928,-1.7600711705352117,0.696503504034524,14.434088393901586,2.6167314122588268,0.3296316156319143,0.03570054783750387,5.62244,0.16445,0.11911,-2.54726489861829,0.5520990097929215,-0.6358149692678167,2.7610584012968986,0.06971783597488677,0.04810312021889031,3.0200476242702794,-0.1055894729468409,-0.032650547837503915,-1.7600711705352117,-0.6965035040345222,-9.75621046415125,1.7359008231531936,0.12766719144426272,-0.03960227777287298,31.50774281111523,120.40172966096475,12.64456216711551
1573523240.655,31.50772128,120.4017307,12.4909,-1.8111582356287388,0.7491751239268445,14.432945368528092,2.845141019292619,0.3714292761200988,0.03760064872230928,6.00746,0.16481,0.12048,-2.2608600392794753,0.5882832015126938,-0.6236559835517302,2.847479868382333,0.03146674020806795,0.07198702603948307,3.2511051410826464,-0.12862025522013026,-0.034550648722309334,-1.8111582356287388,-0.7491751239268427,-9.755067438777754,1.8310712126401654,0.1364310065782436,-0.02644550405118046,31.507746272264143,120.40172998773058,12.645932495594025,6.02075,0.1645,0.11837,31.507746391497857,120.40173000239263,12.643822506070137,-2.216283382420409,0.592794956671767,-0.6395603544856829
1573523240.789,31.507723650000003,120.40173120000001,12.4914,-1.9391303311046173,0.6501090526114012,14.445155695097949,3.1079229471649876,0.4189266160519487,0.037100773710437185,6.40425,0.16887,0.12974,-2.007054336548954,0.6448406786909445,-0.678337729889655,2.9343014268923224,0.09860030747972225,0.1382602564101032,3.5168853127232156,-0.1545285411462578,-0.034050773710437236,-1.9391303311046177,-0.6501090526113994,-9.767277765347613,1.9616010496247178,0.1109421983569962,-0.01311147340773726,31.507749841933094,120.40173028578124,12.655192859470844,6.42098,0.16105,0.12551,31.507749986564672,120.4017303821903,12.650962874293327,-1.9736111764895592,0.6024499124045803,-0.6888733588026
1573523240.922,31.507725930000003,120.4017318,12.4919,-1.6902386195826717,0.6075517671978935,14.48130414192224,3.36072581514122,0.47592342162064377,0.036600907570769614,6.80876,0.17988,0.14587,-2.015431227042301,0.5317047648877334,-0.6569045813749966,3.004555514470541,0.08903706912979542,0.09922870444301261,3.773494381773393,-0.19071847874285092,-0.03355090757076967,-1.690238619582672,-0.6075517671978917,-9.803426212171901,2.001994362088593,0.03819325586161761,-0.021212245806986003,31.50775348610772,120.40173051754135,12.671323255635798,6.82369,0.1717,0.1391,31.50775361429463,120.40173061618215,12.664553271606565,-2.02004942036525,0.5268538055438933,-0.6705934839642869
1573523241.055,31.50772843,120.40173244999998,12.4907,-1.4448092064874418,0.9005273402876381,14.537202650680193,3.6379219413987,0.5376699571919437,0.037801065172553994,7.22164,0.18583,0.15289,-1.8245241848076732,0.6094737364653396,-0.6629743276212585,3.1084572530738463,0.061582149362305987,0.06048970567390105,4.0548028119687265,-0.2296529643340015,-0.03475106517255406,-1.4448092064874418,-0.9005273402876364,-9.859324720929854,2.0748622582188343,0.12672148507939412,-0.041233052740636,31.507757201797286,120.40173080957591,12.678343686275184,7.23043,0.17668,0.14293,31.507757274079268,120.40173091312253,12.668383696116507,-1.8408951635968553,0.6457172565762527,-0.6842727247594294
1573523241.188,31.507730890000005,120.40173296999998,12.4891,-1.6317962144933946,1.0633973787563742,14.55615151248681,3.9106829302594477,0.5870671820186957,0.03940123172216925,7.64273,0.19565,0.15668,-1.7805194238880258,0.8332606945655612,-0.7338424733864577,3.1988551454938547,0.16767387041409207,0.12354170440725785,4.33068374647763,-0.2566409772169811,-0.03635123172216932,-1.6317962144933948,-1.0633973787563724,-9.878273582736474,2.203375390269968,0.17219264048212954,-0.043414330772868985,31.507760994131743,120.40173106805538,12.682134153321385,7.6498,0.18649,0.1454,31.50776105094558,120.40173117023032,12.67085416149348,-1.8188363991605554,0.8923985723046288,-0.7476740156638194
1573523241.322,31.507733529999996,120.40173357,12.4885,-1.746563990950242,1.0672265446100597,14.60195479987595,4.203402040059473,0.6440639792152165,0.04000142342723323,8.06527,0.22128,0.16814,-2.2867063901897877,0.7774704515822033,-0.7284382937226742,3.2056802200837855,0.2215452690959308,0.16208069565740246,4.6270760936408015,-0.2895755893429342,-0.03695142342723331,-1.7465639909502422,-1.067226544610058,-9.924076870125614,2.3465643345414793,0.10494467458165804,-0.050340134434206756,31.507764811128567,120.40173116190374,12.693594651296735,8.07391,0.20289,0.15246,31.507764875266048,120.40173136226623,12.67791466228664,-2.322490292962635,0.8010471516856634,-0.7417740171328651
1573523241.455,31.507736259999998,120.40173427,12.4865,-1.6419924326893207,1.1585698196043621,14.647091196136795,4.506100211335608,0.7105602402704306,0.04200163800507539,8.48728,0.23913,0.17928,-2.486296659991256,0.6437703258542283,-0.7051355992633941,3.2922011393525232,0.09997149956354194,0.09997705847325522,4.9341889779252694,-0.33116419276640374,-0.038951638005075485,-1.641992432689321,-1.1585698196043603,-9.96921326638646,2.4106435405809967,0.08964663495931313,-0.06221198514427053,31.507768617638902,120.4017313369236,12.704735175706446
1573523241.588,31.507739739999998,120.40173230000002,12.4769,-1.73893924056237,1.3142168587676835,12.128846631124475,4.891957198186435,0.5234206922588419,0.05160190450501245,8.91348,0.23771,0.18506,-2.099714063101162,0.7767835380529851,-0.7042129483273938,3.313084555555606,0.019646153911958033,0.07634355097438776,5.3034987334027255,-0.1131799519581238,-0.04855190450501252,-1.7389392405623703,-1.3142168587676821,-7.450968701374136,2.507654871012707,0.20192731026928604,-0.045020653634237975,31.507772447639002,120.40173171771843,12.710515734739602,8.94389,0.21689,0.16942,31.50777270567628,120.40173196226587,12.694875774905086,-2.107620122334656,0.7560691916567956,-0.7061777359716317
1573523241.722,31.50774275,120.40173276,12.4771,-1.9810515012355139,1.4209721321251745,12.14822996295768,5.225701334513001,0.5671182261736772,0.05140217510143552,9.36282,0.24367,0.19575,-1.8066057915923985,1.012405713729008,-0.701335612636744,3.278071902095071,0.1396164271815152,0.15877445844931162,5.639694846546532,-0.1295138587045513,-0.04835217510143559,-1.9810515012355143,-1.4209721321251731,-7.470352033207343,2.6586913116095663,0.21278893351352537,-0.05983100655997596,31.507776491069006,120.40173204094941,12.721206353977323,9.37815,0.21715,0.17852,31.507776609362086,120.40173233235404,12.70397637411952,-1.8165860060003396,0.9515219746886567,-0.7061889791568338
1573523241.855,31.50774591,120.40173332,12.4772,-2.0091004141612134,1.263088068995936,12.173446096493976,5.5760772393023625,0.6203152253714618,0.05130247810616062,9.78089,0.26216,0.21613,-2.0519984898932186,0.7161644978653545,-0.6489299048057982,3.1614744681074014,0.1763694883835804,0.17741789219901202,5.99324204340975,-0.1539592053123054,-0.0482524781061607,-2.009100414161214,-1.2630880689959347,-7.495568166743637,2.7679724638115935,0.140399748061229,-0.058844628685379666,31.507780262633876,120.40173220587201,12.741586958989501,9.81241,0.23431,0.19211,31.507780525478164,120.40173252513009,12.717567004263401,-1.9867935960477805,0.722005517755083,-0.6635164199837973
1573523241.988,31.50774938,120.40173401,12.4756,-1.8140156721977092,1.2539827190192077,12.187137644336202,5.960825462609825,0.6858615235176834,0.05290283485004066,10.20868,0.27657,0.22976,-1.9865752595669344,0.29923829769220484,-0.6550258181132169,3.2039000117271192,0.10060860614874777,0.10360417570623764,6.3820541938485595,-0.18790952504674874,-0.049852834850040745,-1.8140156721977096,-1.2539827190192063,-7.509259714585865,2.822641212667431,0.0915678397812038,-0.05101161896214723,31.507784118569415,120.40173242194604,12.75521760713309,10.24668,0.2418,0.19943,31.50778443457169,120.40173281937085,12.72488766349852,-1.9238203308208182,0.33941175510807076,-0.6727208052535537
1573523242.121,31.507752709999995,120.40173468,12.48,-1.5777927444929307,1.1948250677321464,12.223509005371914,6.330050709887903,0.7495079272715728,0.04850319835601136,10.64305,0.28598,0.23718,-1.753114489030247,0.5187543088557403,-0.7013115447008704,3.2488869157987357,0.11135123901115111,0.10804633646014265,6.755240132665939,-0.22123223513089396,-0.04545319835601145,-1.5777927444929312,-1.194825067732145,-7.54563107562158,2.919096547377639,0.15809213085402657,-0.0037195765861814333,31.507788029973998,120.40173269612833,12.762638293206692
1573523242.255,31.50775613,120.4017353,12.4856,-1.618644969239123,1.2451868709875316,12.223590307630877,6.709255019087885,0.8084045921943374,0.042903593411010466,11.07606,0.30181,0.24688,-1.720730768162047,0.6529800891103447,-0.7054727477064159,3.2321356091815816,0.17009845616501212,0.12024412530632729,7.137984533877675,-0.24900719860395704,-0.039853593411010566,-1.6186449692391232,-1.2451868709875302,-7.545712377880541,2.971856710849959,0.16473650472906098,-0.0354514341841534,31.507791933875776,120.40173290178544,12.772339008748531,11.11366,0.26397,0.21215,31.50779224402455,120.40173333107681,12.737609069794416,-1.581283814533928,0.7076022317726576,-0.7122938877163247
1573523242.388,31.50775989,120.40173604999998,12.4872,-1.4352406974130851,1.2368277478531928,12.201677885680107,7.126157999657284,0.8796505540098964,0.04130405752001165,11.51143,0.31269,0.2498,-1.486832820393363,0.47605264092787536,-0.6720199074282339,3.3053915928877315,0.07533721944786373,0.07117428772364068,7.559309161098449,-0.2860158567794233,-0.038254057520011764,-1.4352406974130854,-1.2368277478531915,-7.52379995592977,3.0795832335410727,0.12826751337129536,-0.058092707857838204,31.50779585535046,120.40173316140326,12.775259756483138,11.56354,0.26618,0.20746,31.507796289550484,120.40173369411596,12.732919845730066,-1.377563878780882,0.6015807791268034,-0.6742143230811066
1573523242.521,31.50776393,120.40173373999998,12.4993,-1.423059456388338,1.1212961211764914,9.693236616518279,7.574106936442236,0.6602128621540937,0.029204548342915082,11.96746,0.31791,0.24872,-1.1014614061719716,0.5729133236953567,-0.7240442547155505,3.4458304326629503,0.10824633484882344,0.1133023637249574,7.987870002007184,-0.03077723075787174,-0.02615454834291516,-1.423059456388338,-1.1212961211764902,-5.015358686767941,3.1682032972078544,0.2308498757908707,-0.03698529989903175,31.50779995837163,120.40173349814175,12.774180570617318,12.01319,0.26591,0.20349,31.50780033118489,120.40173408297741,12.728950651362538,-1.0747362693847653,0.7003336218373024,-0.7193758959878092
1573523242.654,31.50776766,120.40173409,12.5016,-1.8038594657436786,1.1074290657176697,9.678309795391861,7.987683562653976,0.6934609656919821,0.02690506072727894,12.42775,0.33352,0.25306,-1.169047852709387,1.0857704568778208,-0.7376656061740676,3.5192810446168123,0.19362498809913645,0.16375050163101607,8.402780489271331,-0.030185879949037646,-0.023855060727279023,-1.803859465743679,-1.1074290657176686,-5.000431865641526,3.1842011831597703,0.32025745330898114,-0.04359184286034602,31.507804107327257,120.40173372952727,12.778521427884698
1573523242.788,31.50777172,120.40173449999999,12.5033,-2.0859391673942156,1.3145492617498746,9.638514990404309,8.437850078077506,0.732408740902238,0.02520564589561758,12.89081,0.34944,0.25471,-1.3939772848872631,1.5431575478089514,-0.7075850407778124,3.4782850788586446,0.1605387981881174,0.1474911040219944,8.854623812270281,-0.03229117414648463,-0.02215564589561767,-2.085939167394216,-1.3145492617498733,-4.960637060653974,3.255959640991113,0.2065226223986341,-0.04372096378872323,31.50780828141003,120.40173396003837,12.780172323808074,12.95918,0.29439,0.21242,31.50780885548733,120.40173459631087,12.737882454879582,-1.388498076422033,1.5856106828284209,-0.7057406816061659
1573523242.921,31.50777555,120.40173508,12.5068,-1.7098821151575792,1.271394550907345,9.642510888895439,8.862514552796869,0.7875056057720198,0.021706231065308668,13.36768,0.36106,0.25702,-1.3091843963450287,1.3913891926512096,-0.6932345149802712,3.501440236262086,0.10807133871483676,0.1230585861827257,9.28236706113655,-0.052571550288938555,-0.018656231065308764,-1.709882115157579,-1.2713945509073439,-4.964632959145101,3.3123562663308226,0.10318374599789377,-0.029737677461024056,31.50781257646595,120.40173424752047,12.78248328063637,13.42654,0.29829,0.21178,31.507813059381196,120.40173495662563,12.737243398092687,-1.3399478850881972,1.3821576168942842,-0.6831855650283349
1573523243.054,31.50777939,120.40173564,12.5139,-1.3339354804333776,0.9525678816415458,9.684653021352776,9.28828781913466,0.8407025742076977,0.014606846050218003,13.83908,0.37658,0.26351,-1.4323511898586911,1.2366901027844124,-0.7248858997331182,3.618137835300483,0.18087428397108515,0.16054670617948608,9.711060464600278,-0.07086793259210067,-0.011556846050218105,-1.3339354804333774,-0.9525678816415446,-5.0067750916024405,3.2607433811343514,0.21208790297320634,0.014333659719216204,31.50781682522135,120.40173448938833,12.78897426277399,13.8996,0.30457,0.21585,31.507817316261903,120.40173529686334,12.741314386948943,-1.449315701987998,1.2114416997137585,-0.7201580769701704
1573523243.188,31.507783459999995,120.40173604999998,12.519,-1.5274170062480505,1.1177958267742292,9.635161746800682,9.73956312606502,0.8796503378540197,0.00950752713567038,14.3154,0.39017,0.2759,-1.4906874957921024,1.1835997244700922,-0.6377178262515307,3.696432784177674,0.10635510640116126,0.14465040234608478,10.164008884722177,-0.07288278921656977,-0.006457527135670486,-1.5274170062480508,-1.117795826774228,-4.957283817050346,3.1856466975028006,0.28481475531458367,-0.053484332702117755,31.507821116782164,120.40173475572934,12.801365290768445
1573523243.321,31.50778716,120.40173643000001,12.5196,-1.6052949615958385,1.5612189920837471,9.616770103781217,10.149813399374056,0.9157482662594174,0.00890817364741725,14.83653,0.39512,0.28758,-1.1936515348750576,1.087433387764433,-0.6725934814192319,3.814302513374282,0.0866352881748226,0.09443034421995185,10.575836513090282,-0.07540304674361087,-0.005858173647417362,-1.6052949615958387,-1.5612189920837458,-4.938892174030881,3.165176601827217,0.2383001019739308,-0.06711334177885016,31.507825804778065,120.40173515118975,12.8130464553833,14.91552,0.31845,0.23645,31.50782645841513,120.40173602341355,12.761916629970074,-1.1511326321769977,1.0808817488563132,-0.6652413590189781
1573523243.454,31.50779092,120.40173686999998,12.5257,-1.4592101144345642,1.5149130471244976,9.653611369567582,10.56671639121869,0.9575458644575623,0.0028088590454498075,15.3565,0.40718,0.29306,-1.0967763962635422,0.9906125702388051,-0.6695879509221109,3.924096731017199,0.1817355554437694,0.11619886534592025,10.994759528599106,-0.08306143437639546,0.00024114095455007563,-1.4592101144345642,-1.5149130471244965,-4.975733439817247,3.243176867927278,0.2290364965374538,-0.01461973307746016,31.507830487576598,120.40173547105731,12.818527659401298,15.44508,0.32392,0.23729,31.507831222569685,120.40173642065554,12.762757862918079,-1.0381204791820076,0.9819462507375532,-0.6518059177063863
1573523243.587,31.50779497,120.40173484000002,12.5605,-1.5626748156817956,1.4340625509304066,8.251298358095383,11.015774163394308,0.7647067415382329,-0.03199040261053465,15.89037,0.42828,0.30518,-1.2996682188944255,0.988226464050152,-0.6759123609332229,4.041733591278005,0.18135789044883568,0.17139002160845512,11.426594722966712,0.14575765351864245,0.03504040261053456,-1.5626748156817956,-1.4340625509304057,-3.573420428345047,3.202100282977371,0.334280218555328,-0.04115243903877713,31.507835301969013,120.40173570801184,12.830648940987885,15.98744,0.33954,0.24391,31.50783610924685,120.4017367223942,12.769379173405468,-1.211313346408719,0.9981088694417871,-0.6569120169737022
1573523243.721,31.507799039999995,120.40173509000002,12.5619,-1.5706190441156034,1.6522347546075171,8.202480005223775,11.467049468564316,0.7884553632807778,-0.033389600787160134,16.43965,0.44362,0.31768,-1.213682064251567,1.0095435158822674,-0.6581997547513704,4.138937052676203,0.11144530274510077,0.13944681093550354,11.878303595107207,0.15889130954106245,0.036439600787160034,-1.5706190441156034,-1.652234754607516,-3.524602075473438,3.2468925966027795,0.2524155850265187,-0.07566173776608173,31.507840250642833,120.40173601862908,12.843150305561721
1573523243.854,31.50780292,120.40173539,12.5667,-1.318317125858978,1.795602155841767,8.250197362575856,11.897257874489593,0.8169537159328821,-0.038188807826265325,16.99979,0.45604,0.32569,-1.0632927375044168,1.1674315436265823,-0.6549018710375489,4.254368295908126,0.1132357292557269,0.15214762893887124,12.309403101033528,0.16557297271236826,0.041238807826265225,-1.318317125858978,-1.7956021558417659,-3.572319432825518,3.373095925581791,0.27123335923194347,-0.01977047453338667,31.50784529478781,120.401736369206,12.851161748170853,17.10837,0.36158,0.2573,31.507846201320294,120.40173745348332,12.782772025093436,-1.0392234283036157,1.204425819382942,-0.6343640453032692
1573523243.987,31.50780696,120.40173564,12.5796,-1.3067461976314967,1.4733159186075808,8.276916790108594,12.345206849435094,0.8407023357993797,-0.0510879496296166,17.57618,0.46976,0.33261,-0.9634194267161622,1.223384641230086,-0.60851453468723,4.2779823698289094,0.14016614748216588,0.15823157912702834,12.757796722971369,0.1784353560743952,0.054137949629616496,-1.3067461976314967,-1.4733159186075797,-3.5990388603582577,3.4815197380936813,0.3589230445788011,0.04429403271761552,31.50785048595769,120.4017367200943,12.858083282597363,17.69023,0.36939,0.25893,31.50785143731235,120.40173787107463,12.78440358582884,-0.9587571079886249,1.2602919987759937,-0.5835612932759134
1573523244.12,31.50781135,120.40173585,12.5939,-1.4811549574649676,0.9687000569184724,8.257509938805837,12.8319632868772,0.8606511657336804,-0.06538698224167216,18.1532,0.49086,0.34015,-1.1214912231441327,1.183470128146275,-0.6212778468637723,4.305961067186079,0.22108621834673975,0.1947703694992261,13.244558650857877,0.19824976414752848,0.06843698224167205,-1.4811549574649676,-0.9687000569184714,-3.5796320090555,3.4420493310212423,0.3489717421381501,0.0024281691215219197,31.507855688218662,120.40173699409367,12.865624871104956,18.27281,0.38409,0.26308,31.50785668484407,120.40173821699521,12.788555201143026,-1.1111363816518054,1.2158127095623878,-0.6008561283522912
1573523244.254,31.50781538,120.40173607999999,12.5969,-1.482244207800826,1.1176502677981819,8.22128154235941,13.278803460855956,0.8824998886483044,-0.06838606057820584,18.73272,0.51606,0.35195,-1.3934115456330156,1.1760907237762082,-0.5437856874543625,4.3510708926931105,0.15396017921348393,0.17194681467047299,13.691692221679265,0.21291528898917134,0.07143606057820573,-1.482244207800826,-1.1176502677981808,-3.5434036126090755,3.423153717577293,0.30300601195524235,-0.05156076566284182,31.50786091596726,120.40173722722274,12.877426519989967
1573523244.387,31.507819800000004,120.40173631,12.6004,-1.5364659856961853,1.3174423157819692,8.264621713231168,13.768886233517772,0.9043486064677912,-0.07188501387982171,19.314,0.52614,0.35112,-1.2258745089775838,1.387826375628153,-0.5363089164890039,4.3845224723028435,0.06820305524476614,0.10456543227392327,14.181924347476592,0.23110741273768765,0.0749350138798216,-1.5364659856961853,-1.3174423157819684,-3.5867437834808316,3.549776295685746,0.3813536317388504,-0.009898896260451569,31.50786614841541,120.40173762049965,12.876598227769136,19.43535,0.41267,0.26608,31.507867155753736,120.40173891519058,12.79155858233571,-1.3599626330682273,1.4252119065838393,-0.5211963336466633
1573523244.52,31.507824259999996,120.40173612999999,12.5579,-1.6797878825025276,1.3659209621003843,8.491710616374323,14.263404038461392,0.887249529744595,-0.029383926958571394,19.89419,0.53871,0.34692,-1.144889900196664,1.4845272807008743,-0.5305639277643354,4.38236069941122,0.16808529089195928,0.16978199003949224,14.673400395568658,0.2884792872307447,0.03243392695857129,-1.6797878825025276,-1.3659209621003832,-3.8138326866239876,3.6190376927909114,0.37722356614641617,-0.016326031434899534,31.507871372897267,120.40173798671611,12.872399982064962,20.03114,0.41808,0.25789,31.507872515195345,120.40173936992159,12.783370395191014,-1.2836271805177117,1.5287255602047323,-0.5191142409656976
1573523244.654,31.50782858,120.40173638000002,12.5635,-1.4809590407260609,1.4089248858196741,8.51638306700738,14.74239896918462,0.9109981393314115,-0.0349828291209322,20.48365,0.56156,0.35045,-1.4297453976053116,1.6104492517038285,-0.531267977531975,4.3903167600717365,0.20122042104565563,0.21189354517637937,15.15273655679102,0.303873593336221,0.03803282912093209,-1.4809590407260609,-1.408924885819673,-3.8385051372570445,3.710779782528116,0.3593668449096415,-0.06439632256797734,31.507876688266656,120.40173825303472,12.875931821763515
1573523244.787,31.50783335,120.40173664,12.5627,-1.392301744676294,1.5174017011405994,8.527584209281226,15.271289189322344,0.9356966845636765,-0.03418157599082772,21.08701,0.58686,0.36105,-1.7191581401099993,1.6419568705739118,-0.5610451120157575,4.4167564966249095,0.2081841203409684,0.21463386722393246,15.681879274450344,0.32239027343884474,0.037231575990827596,-1.392301744676294,-1.5174017011405985,-3.8497062795308907,3.8225334574252656,0.44931770403507443,-0.09116807393544374,31.50788213038277,120.4017385055816,12.886533762328327,21.23148,0.45892,0.27002,31.507883334900455,120.40173997193871,12.795504224486649,-1.7492165826518888,1.6922478142581732,-0.5611030371843262
1573523244.92,31.50783794,120.40173677000001,12.5657,-1.622569258594928,1.5116563650947996,8.536896834637993,15.780221296136109,0.9480459359383988,-0.03718033147298527,21.67969,0.60819,0.36599,-1.859054801867695,1.6838791017107733,-0.5511331938903529,4.4200686792704476,0.1505340329498219,0.15265132412221794,16.19012322969411,0.3515874533298593,0.04023033147298515,-1.622569258594928,-1.5116563650947985,-3.859018904887655,3.940904165842304,0.483536394347921,-0.04150663787624234,31.507887473578165,120.40173879061233,12.89147572312504,21.82686,0.47357,0.27209,31.50788869745258,120.40174032937308,12.797576206736267,-1.9025327988822116,1.7125814129720516,-0.5362076033846971
1573523245.053,31.50784264,120.40173697,12.5727,-1.7141698676771846,1.5183153164378225,8.524158932219084,16.301350045594422,0.9670448045873457,-0.0441790127125552,22.26899,0.62186,0.36232,-1.7163592688859939,1.6563193657162978,-0.5211047296562845,4.451993132948861,0.16586194708910826,0.12299360911853083,16.711065500824784,0.3751518474688136,0.04722901271255508,-1.7141698676771846,-1.5183153164378216,-3.846281002468749,4.022499429210745,0.4244232552707008,-0.046727961486177715,31.507892780757416,120.40173915310892,12.887807727791369
1573523245.187,31.507847820000002,120.40173726,12.5801,-1.5719242713482666,1.4162873391837385,8.561732608358108,16.875700456011273,0.9945931785179911,-0.051577506461403466,22.87846,0.64181,0.36411,-1.7564922796995963,1.7943467622633757,-0.5536117190241575,4.467266717113612,0.1479819086309698,0.1603272771143522,17.285749392630144,0.39453563842089723,0.05462750646140334,-1.5719242713482666,-1.4162873391837376,-3.8838546786077726,4.141628498282922,0.42772807929962653,-0.031257517326199795,31.50789827386052,120.40173946703285,12.889599857851863,23.0365,0.50045,0.26705,31.507899590486463,120.40174108584094,12.792540406808257,-1.7812801411828068,1.7727727341952515,-0.5330333208411656
1573523245.32,31.50785271,120.40173752,12.5861,-1.4964877671710712,1.3527908037620362,8.528354168457753,17.41789611156358,1.0192917144427431,-0.057576040861454736,23.4752,0.65358,0.3676,-1.587218424755692,1.8972691138269444,-0.5443578236736035,4.4584951588697,0.11846485134639315,0.1913776327864217,17.82815322386412,0.4141374352600432,0.06062604086145461,-1.4964877671710712,-1.352790803762035,-3.850476238707417,4.154511701488819,0.4513953101203475,-0.05022754417480808,31.50790364651901,120.40173985585136,12.893091998063028,23.62617,0.50769,0.26607,31.507904896262144,120.40174151611801,12.791562536731362,-1.6702568876449961,1.8629166059177955,-0.5154370031764424
1573523245.453,31.50785762,120.4017377,12.5897,-1.6269814135940333,1.4543402391602713,8.526222341485397,17.96230933093396,1.036390683568075,-0.061174522581885604,24.04857,0.67348,0.3782,-1.6993612417125374,1.7403005963120786,-0.5828564873293937,4.395327505476312,0.20590899633040508,0.24200449011037664,18.372147459323706,0.44149433488543643,0.06422452258188548,-1.626981413594033,-1.4543402391602702,-3.8483444117350607,4.181200024305528,0.5365979975751193,-0.059132611525567084,31.507908815087838,120.40174013930769,12.903694110922515
1573523245.587,31.507862690000003,120.40173836000001,12.6082,-1.9032344580632463,1.4619343890576684,8.430303722630956,18.52446315174833,1.099087039125989,-0.07967289711622172,24.60392,0.69105,0.38298,-1.7612146168553628,1.5614593798323035,-0.5661354189929887,4.353594996553277,0.1317213456237198,0.16534845083444943,18.937541836860614,0.42485254693782204,0.08272289711622158,-1.9032344580632463,-1.4619343890576673,-3.7524257928806186,4.188424833058197,0.49277627808603774,-0.012909205130010879,31.507913819964145,120.40174043173974,12.908476204611361,24.75239,0.53914,0.2719,31.50791504280779,120.40174215302133,12.79739675950259,-1.8948547848308122,1.576372174896667,-0.5269525722878954
1573523245.72,31.507867649999998,120.40173861,12.6164,-1.7626598809899572,1.3475307367330671,8.399564485175592,19.074420311856905,1.1228356206163825,-0.0878712659340195,25.15618,0.70814,0.38221,-1.8291226702218575,1.2587012440346608,-0.6286911423651355,4.351455367957803,0.1834096319794751,0.13601208206763726,19.4876038463882,0.44603411326258346,0.09092126593401936,-1.762659880989957,-1.3475307367330662,-3.721686555425256,4.225813928350301,0.38722020522428946,-0.051007995712982465,31.50791879671205,120.40174072655512,12.907708338461816
1573523245.853,31.50787301,120.40173890999999,12.6202,-1.4663205107566286,1.3141916419915298,8.391207842608427,19.668728842357652,1.1513339205226227,-0.09166944813463473,25.70582,0.72932,0.38222,-2.0049526682816583,1.295815132761478,-0.5499143539688984,4.35702108435421,0.15018263593187958,0.1056056071305365,20.08225684674223,0.46609880098637435,0.09471944813463459,-1.4663205107566288,-1.3141916419915287,-3.7133299128580903,4.224607306308746,0.4830248784464324,-0.035455102377028216,31.507923752917467,120.40174097620954,12.907720507122576,25.86722,0.57097,0.27211,31.507925087250193,120.40174277615945,12.797611135989428,-2.1155532156888275,1.280070583464067,-0.5061792723951343
1573523245.987,31.507877999999998,120.40173905,12.6288,-1.5768471023445172,1.2187181237467244,8.379824217220674,20.22201236000646,1.1646330972383896,-0.10026770735761836,26.26353,0.74576,0.38422,-2.0202804014519407,1.3586197026494569,-0.5592237568372962,4.327192119303492,0.19616785757818825,0.1614477602537148,20.634781945944148,0.4979662413458429,0.10331770735761822,-1.5768471023445174,-1.2187181237467235,-3.7019462874703373,4.230721790795935,0.5413398915867456,-0.012798072561501787,31.50792877817637,120.40174128252356,12.909722754731774,26.44538,0.58112,0.27469,31.50793029170452,120.40174316602395,12.800193482078612,-2.111156330884788,1.30634105297125,-0.5123449912569628
1573523246.12,31.507883390000003,120.40173914,12.6389,-1.829424677858698,1.2254461786430353,8.366435281173114,20.81964726585464,1.1731825414460944,-0.11036577677546866,26.83239,0.76656,0.39656,-2.171694692450947,1.5050423695673543,-0.5982030052649735,4.3207610222064305,0.15126744929513755,0.15718171383905596,21.231123338369688,0.5381846123271893,0.11341577677546852,-1.8294246778586982,-1.2254461786430342,-3.6885573514227774,4.227432948992368,0.580717545695615,0.00803080910978986,31.507933906867347,120.4017415526655,12.922065100632608,27.02697,0.59638,0.28479,31.50793553074881,120.40174350521973,12.810295896604657,-2.327915329454386,1.4327331593291794,-0.5644108906790144
1573523246.253,31.507888380000004,120.40173923,12.648,-1.9611157865656215,1.1544597290302219,8.354810705971987,21.372930788320158,1.1817319888641702,-0.11946393768086949,27.40368,0.77973,0.41026,-2.1904220376299213,1.519898496884273,-0.5356913868997796,4.282620870284335,0.11503969609347517,0.17366606671358,21.783261084384097,0.5747859607877402,0.12251393768086935,-1.9611157865656217,-1.1544597290302208,-3.67693277622165,4.201824821176889,0.53305823767349,-0.03604757121119643,31.50793905178908,120.40174190494653,12.935767505317926
1573523246.386,31.50789335,120.40173938999999,12.6487,-1.8121629793817198,1.3148243539065323,8.28435698107984,21.923996714675848,1.1969310497636556,-0.12016205684016157,27.95007,0.79189,0.4247,-2.31277434676392,1.4810693423426584,-0.6156312711235074,4.255943076390362,0.18158712306824334,0.17572913065495663,22.33373092178282,0.6045789928038129,0.12321205684016141,-1.8121629793817198,-1.3148243539065314,-3.606479051329503,4.232642975626851,0.524564009295802,-0.08300169292364726,31.507943972145725,120.40174224644745,12.950209853239357,28.13326,0.6045,0.3006,31.507945480986546,120.40174436978846,12.826110632158816,-2.448139096803077,1.4543540175041498,-0.5457546925697778
1573523246.52,31.507899089999995,120.40174072,12.6255,-1.7850404283943706,1.0592197997570871,8.23067014418933,22.56043898234934,1.3232736865380907,-0.09695980236042878,28.49283,0.80284,0.43106,-2.3687686940045016,1.3545849259399385,-0.5655925873472663,4.210341772369048,0.11505588216553005,0.1593061455919723,22.978356877180577,0.5305614301850642,0.10000980236042861,-1.7850404283943708,-1.0592197997570862,-3.552792214438994,4.2377962466193875,0.4931697761787804,-0.01609018341745706,31.50794885898318,120.40174259752717,12.956572234630585,28.70149,0.62522,0.30529,31.507950603956022,120.40174464022908,12.830803140997887,-2.458480629502664,1.3291269069896328,-0.5030748158451962
1573523246.653,31.507904090000004,120.40174092,12.6332,-1.620488888769803,0.9549138958720355,8.199372066347312,23.11483128875277,1.3422725214541185,-0.1046578062970287,29.04838,0.81926,0.44032,-2.425691086313583,1.236977003759809,-0.585553804568984,4.2143882800356645,0.16620624134893683,0.16221465172634564,23.53245189990839,0.556838624018214,0.10770780629702853,-1.620488888769803,-0.9549138958720345,-3.5214941365969756,4.235930834672866,0.4572597878489793,0.011941117365768458,31.50795386481111,120.40174290219682,12.965834718197584,29.25495,0.63353,0.31032,31.507955585032427,120.40174502819357,12.835835632868111,-2.567043913505886,1.2205701710448331,-0.5191007425181599
1573523246.786,31.50790905,120.40174105,12.6428,-1.5687011110477822,1.0321327194804815,8.23304012084938,23.66478846446424,1.3546217394213063,-0.11425577964919142,29.59365,0.83596,0.44851,-2.645228778156344,1.2301133382373062,-0.5384992219303533,4.208819183515638,0.17761430902497655,0.15426960361762454,24.08158426473806,0.5893815832800261,0.11730577964919126,-1.568701111047782,-1.0321327194804804,-3.5551621910990416,4.176492864561552,0.5615164603423168,0.016646532103634384,31.50795877843971,120.40174319510325,12.974027204327285,29.81409,0.64733,0.31692,31.50796062120341,120.40174536343412,12.842438199557364,-2.702798781968604,1.162389320887395,-0.48250353458153916
1573523246.92,31.50791436,120.40174114000001,12.6519,-1.6351594443141133,1.2317031702438237,8.195300410873026,24.253553099119728,1.3631711699619142,-0.12335355675061521,30.13931,0.85467,0.46183,-2.808088772555434,1.1653825542962106,-0.5776514764827541,4.15183717374935,0.16784006830525894,0.1768513690766753,24.669084932179977,0.628876564465947,0.12640355675061504,-1.6351594443141133,-1.2317031702438226,-3.5174224811226877,4.156182521937346,0.5071977649321284,-0.03679363518839469,31.507963697052137,120.40174346725588,12.987349739298224,30.36344,0.66127,0.32747,31.50796556947642,120.40174568880097,12.852990769781172,-2.859812161599575,1.1015539879158824,-0.5066649840069709
1573523247.053,31.507919260000005,120.40174124,12.6547,-1.5864485334110465,1.5849759005659523,8.237479765330747,24.79685754581085,1.3726705501638197,-0.12615145864178245,30.67373,0.86797,0.47578,-2.8161310056412727,1.025410359645929,-0.5341668161824208,4.1208468203665785,0.08970470490402431,0.1274168100869861,25.211354313759287,0.6637173138861344,0.12920145864178229,-1.5864485334110467,-1.5849759005659514,-3.5596018355804113,4.154166443685966,0.5498801186005825,-0.07243999807633561,31.507968510650745,120.40174378651986,13.00130226649344,30.91145,0.67265,0.33473,31.507970503821554,120.40174603987666,12.860253380611539,-2.8668385064167965,0.9777963637384085,-0.45777828996451736
1573523247.186,31.507924199999998,120.4017413,12.6607,-1.6326869412000065,1.5877546649705274,8.202503778757492,25.344597142592903,1.3783701477514096,-0.13214929483778803,31.21187,0.87583,0.48514,-2.5996637314739717,1.0908873659496592,-0.5199391073532392,4.099660422839942,0.11051682704938331,0.14333636781628753,25.757734185396057,0.7027068915424227,0.13519929483778786,-1.6326869412000065,-1.5877546649705265,-3.5246258490071547,4.186692383572493,0.5297637218734619,-0.058362782000668065,31.50797335368677,120.40174416605329,13.010664855130017,31.42495,0.67529,0.34436,31.50797512153316,120.40174645302402,12.869885868392885,-2.7715051534625705,0.998399861575074,-0.4265042500338941
1573523247.319,31.507929529999995,120.40174139999999,12.6669,-1.5105516609147114,1.5326454860990812,8.16980962652468,25.93557934052448,1.3878695207129734,-0.13834690744987377,31.70563,0.88841,0.50078,-2.7177171682698082,1.0254075746250435,-0.5527619826143687,4.0061677896729835,0.1637369420176087,0.15825922281312604,26.347522500615412,0.7414359450992761,0.1413969074498736,-1.5105516609147114,-1.5326454860990804,-3.4919316967743432,4.1862109434184145,0.5838615871170756,-0.02669970586058656,31.507977801269377,120.4017444579644,13.02630727365613,31.95837,0.68305,0.36294,31.507979922067957,120.40174682955458,12.888468498364091,-2.8321433923698995,0.8661651313701412,-0.4810780253566842
1573523247.453,31.50793449,120.40174139,12.679,-1.5940510988096117,1.3210746851308488,8.2296134354793,26.485536534126737,1.3869195057654427,-0.15044463811141995,32.22156,0.90318,0.5271,-2.9509791418634106,0.6839816340804155,-0.5483642922301429,3.9557040944222384,0.18160064120008634,0.17196970368893083,26.89557028165306,0.7872338383148406,0.15349463811141978,-1.5940510988096117,-1.321074685130848,-3.5517355057289643,4.167893810144428,0.5703093545608365,0.002271004218985129,31.507982449744894,120.40174474593148,13.052629839628935,32.51029,0.69462,0.38446,31.50798489169851,120.40174718199363,12.90999126713723,-3.029178125397307,0.5707473666035302,-0.48164879189938603
1573523247.586,31.507939940000004,120.40174322,12.6521,-1.3707342339831161,1.1479106454973433,7.61289368672745,27.08982403341124,1.560759318050546,-0.12354205073746805,32.76733,0.9183,0.55487,-3.188202403936892,0.633812938103012,-0.5816558834860233,3.9772065954335827,0.13088352386936705,0.1495047427981652,27.512022148129724,0.6632549754217091,0.12659205073746785,-1.370734233983116,-1.1479106454973425,-2.9350157569771125,4.173080707339835,0.42619835156639385,0.01299827489119652,31.507987366704764,120.40174505584446,13.080402598716319,33.05273,0.70892,0.40208,31.50798977812297,120.40174749765127,12.927614032290876,-3.295355413965314,0.5825799225468522,-0.5108623582135867
1573523247.719,31.50794485,120.40174333999998,12.6619,-1.244460106497756,1.1400801893833106,7.6721816899392286,27.634237298634616,1.5721585746460809,-0.1333397039469819,33.2979,0.92858,0.5743,-3.17697651701799,0.6527084780248986,-0.6050449196316452,3.9272754227030724,0.10539837237233166,0.149147924000529,28.055551596655885,0.696292605284576,0.13638970394698172,-1.2444601064977558,-1.1400801893833097,-2.994303760188892,4.150587900855601,0.5137755343653233,-0.017034892389699054,31.50799214347465,120.40174540348875,13.09983532782644,33.59106,0.71874,0.41224,31.507994624308452,120.40174785678403,12.937776826322079,-3.257859315893767,0.6419888191725225,-0.523819877704623
1573523247.852,31.507950109999996,120.40174344,12.668,-1.2177762536749481,1.1956961531181598,7.659656481734459,28.217458007764577,1.5816579376141213,-0.13943713709836736,33.82006,0.94521,0.58839,-3.2966930852612264,0.5080980692218644,-0.6290969381950349,3.879183332487189,0.16411321820749325,0.16109018177147982,28.63760427617186,0.7343886906888083,0.14248713709836716,-1.2177762536749481,-1.1956961531181587,-2.9817785519841213,4.116742056141966,0.465161818725488,-0.032936235243448464,31.507996849319174,120.40174567728963,13.113928056322038,34.09931,0.73003,0.42421,31.507999201190692,120.4017481746697,12.949749504216015,-3.618369515062788,0.4990587379022666,-0.5339835805029027
1573523247.986,31.50795497,120.40174354000001,12.6746,-1.1615906255452986,1.3524755891390257,7.647982211233698,28.7563273399656,1.5911573038176359,-0.1460347184190347,34.31574,0.96459,0.60773,-3.8799526390813295,0.4807820108984977,-0.5987487066446123,3.884083680696224,0.17148099619605695,0.16022778065266466,29.175453315710982,0.7688677540735515,0.1490847184190345,-1.1615906255452986,-1.3524755891390248,-2.97010428148336,4.12625803415169,0.5258520073823384,-0.027447985911516277,31.508001319161604,120.40174589950448,13.133270687423646,34.61241,0.74937,0.438,31.508003827589697,120.40174841225966,12.96354224998504,-4.096191356123295,0.4565818358477267,-0.5071009392871214
1573523248.119,31.507959849999995,120.40174358000002,12.6814,-1.2105518874779329,1.3096629423617656,7.6242244060264674,29.297414241333847,1.5949570015036194,-0.15283224464110745,34.81733,0.98334,0.62333,-4.1895486135521764,0.6368326915416895,-0.6471023334471186,3.811596808383075,0.13769106028269212,0.16563575472157888,29.71504770853753,0.8092083510565279,0.15588224464110725,-1.2105518874779329,-1.3096629423617645,-2.9463464762761307,4.127853430783998,0.5337077890372733,-0.03819201337603799,31.508005841664847,120.40174613340305,13.148873389698565,35.11934,0.75758,0.44217,31.508008390341594,120.40174876132717,12.967715003527701,-4.245222427124691,0.6670585618847924,-0.5350150390861462
1573523248.252,31.507965099999996,120.40174358000002,12.6895,-1.3379944537289858,1.295046450925941,7.611503860485085,29.879526179331087,1.5949569142704911,-0.16092953513388863,35.30824,0.99652,0.6333,-4.19396781897979,0.6307745985476751,-0.6239713845138996,3.762875583733892,0.08228549794058354,0.14251268563883548,30.295220595001954,0.8566818191250521,0.16397953513388844,-1.3379944537289856,-1.29504645092594,-2.933625930734748,4.104735827892805,0.5628081385262955,-0.007736434691721889,31.508010264070652,120.40174641657246,13.158846071921289,35.62991,0.77645,0.45384,31.50801299365319,120.40174900167632,12.97938781697303,-4.104027514166886,0.6617030059675594,-0.5099000843902225
1573523248.386,31.507969919999997,120.4017436,12.6973,-1.368181097581809,1.3655117539909585,7.576015957624403,30.41396038185197,1.5968567225901955,-0.1687269970172025,35.8004,1.00185,0.64546,-3.7365390200290896,0.4799484426022568,-0.5763120788651861,3.7015447684208467,0.0383432554846367,0.15181301734402633,30.828029506455362,0.898373424654464,0.1717769970172023,-1.368181097581809,-1.3655117539909574,-2.8981380278740656,4.06128194027194,0.4996226398028955,-0.03317483108289079,31.50801469193851,120.4017467831762,13.171008797362447,36.13801,0.77995,0.46076,31.508017563457546,120.40174940116503,12.98631065711379,-3.58839904062887,0.5298768594107269,-0.4694637777859603
1573523248.519,31.5079754,120.4017457,12.6787,-0.9487335252187055,1.2711481183983686,6.559545019331391,31.021574271500917,1.7963449601999466,-0.15012400675382942,36.29729,1.00963,0.65723,-3.3815058715294994,0.48391359978036014,-0.6562854754244661,3.6984576917678944,0.10631457778723447,0.17726196984355036,31.44988840685141,0.7491028520784083,0.1531740067538292,-0.9487335252187055,-1.2711481183983677,-1.8816670895810546,4.117180670094481,0.32646882838230384,-0.008434091240462115,31.508019164125614,120.40174712813564,13.182781587354839,36.64656,0.78638,0.47233,31.508022139461715,120.4017497702989,12.997883538715541,-3.1047876323827794,0.5025297685980463,-0.5340643119088486
1573523248.652,31.507980569999997,120.40174585,12.6879,-0.8519473425912061,1.1510900551902865,6.595833650930304,31.594815943881436,1.8105940298922505,-0.1593211772483336,36.79197,1.02867,0.67241,-3.2661756945520057,0.3665885990258562,-0.6524337853664592,3.6398973106098795,0.20648474624969101,0.14937840667636068,32.022382646443205,0.7816512249243778,0.1623711772483334,-0.8519473425912062,-1.1510900551902856,-1.9179557211799685,4.036260357573931,0.39298172152139643,-0.017147665358229328,31.50802362472921,120.40174735305936,13.19796440564096,37.15376,0.80365,0.48316,31.508026711304062,120.40175002454197,13.008716457523406,-3.077937962143645,0.40773052155159345,-0.5256626455999858
1573523248.785,31.50798531,120.40174594000001,12.6932,-0.954743323011495,1.363422157363843,6.582248423624913,32.12037986133324,1.8191434393886468,-0.16461853925515335,37.28944,1.05234,0.68163,-3.471241773990512,0.3522310025698634,-0.6343445098271069,3.671856104215107,0.18329511074489935,0.1103352967788047,32.54689311976285,0.8159919748875432,0.16766853925515313,-0.954743323011495,-1.3634221573638423,-1.9043704938745767,4.032814886199896,0.41638159443802053,-0.042138360881434224,31.50802811381742,120.401747531801,13.20718728005886,37.66431,0.8283,0.49113,31.50803131868733,120.40175020423104,13.016689435578883,-3.311536529940943,0.37659312236884646,-0.49581396598329475
1573523248.919,31.507990429999996,120.40174599000001,12.7034,-1.1528270192151502,1.317172954428861,6.5574725246925025,32.68807761835512,1.823893064535926,-0.1748156430858696,37.79264,1.06883,0.68714,-3.380400406994671,0.5561218314652037,-0.5793092366012986,3.6570902551326765,0.11751827690494626,0.10015383271202546,33.11308719622904,0.8575560223482303,0.17786564308586938,-1.1528270192151502,-1.3171729544288604,-1.8795945949421669,4.02421443511471,0.4074758087118574,-0.0028098983971031805,31.508032649130815,120.40174779079358,13.212700226344168,38.19261,0.84706,0.49785,31.508036081290346,120.4017504609559,13.023412560112774,-3.317725065995767,0.5375725092373328,-0.4385957538058747
1573523249.052,31.50799516,120.4017461,12.7126,-1.0562893806279554,1.1969626659159882,6.559035773990952,33.21253277545512,1.8343423611951568,-0.1840129198810363,38.31143,1.08141,0.69949,-3.106272893064746,0.8469926918122359,-0.5136107236589647,3.63706706709142,0.04155223770589646,0.14743822035228352,33.63664754535758,0.8899127902623983,0.18706291988103607,-1.0562893806279554,-1.1969626659159873,-1.8811578442406154,3.9958644683841578,0.36894878328432185,-0.02027919174941539,31.508037321703963,120.40174810419359,13.225053303875029,38.70317,0.85918,0.50766,31.508040679547246,120.40175077211676,13.033225620165467,-3.071855148356683,0.825899672782713,-0.3649070047921769
1573523249.185,31.50800019,120.40174618,12.7183,-1.0815536391475136,1.3589988208404604,6.557897046401223,33.77025145194871,1.841941819104476,-0.18970997695738667,38.80424,1.09122,0.71382,-2.7132192778163238,0.8727851948089532,-0.3668420736296417,3.584009660945105,0.04819609287700864,0.1234769386709389,34.19312819651944,0.9278226669800963,0.19275997695738645,-1.0815536391475136,-1.3589988208404595,-1.880019116650887,3.943256726327755,0.44380133966519425,-0.04076544102910374,31.508041758709474,120.40174842435192,13.239386266097426,39.18088,0.86292,0.51661,31.508044976357034,120.4017511429974,13.042178519070148,-2.7028928386543103,0.8729684479772459,-0.21431475160920258
