time,ins1000_lat,ins1000_lon,ins1000_alt,ins1000_roll,ins1000_pitch,ins1000_yaw,ins1000_ned_x,ins1000_ned_y,ins1000_ned_z,algo_pose_x,algo_pose_y,algo_pose_z,algo_roll,algo_pitch,algo_yaw,algo_vel_x,algo_vel_y,algo_vel_z,align_pose_x,align_pose_y,align_pose_z,align_roll,align_pitch,align_yaw,align_vel_x,align_vel_y,align_vel_z,algo_lat,algo_lon,algo_alt,loop_pose_x,loop_pose_y,loop_pose_z,loop_lat,loop_lon,loop_alt,loop_roll,loop_pitch,loop_yaw
1573538250,31.50770499,120.401719,12.5185,-1.17130027,1.721502143,11.71606201,0,0,0,0.40658,0.12426,0.02599,-4.186978611,-5.35217308,5.214982732,0.654216551,0.172706467,-0.019203684,0.40658,0.12426,0.02599,-1.17130027,-1.721502143,8.652729503,0.891885089,0.073511537,-0.008797232,31.50770499,120.401719,12.51850001,,,,,,,,,
1573538250,31.50770582,120.4017192,12.5203,-1.1958081,1.692288959,10.99068157,0.092029113,0.010449421,-0.0018,0.4821,0.15266,0.02887,-5.466711426,-5.679635172,5.943303576,0.748618578,0.181965039,-0.013908832,0.496491731,0.146495752,0.02779,-1.1958081,-1.692288959,9.378109936,0.973923049,0.075270052,-0.002593172,31.50770572,120.401719,12.52138001,,,,,,,,,
1573538250,31.50770673,120.4017193,12.5228,-1.25554185,1.64371364,10.31066565,0.192928503,0.021848785,-0.004299998,0.56625,0.18033,0.02361,-6.480874355,-4.816614239,6.568925173,0.851611028,0.182666458,-0.013788511,0.595049735,0.17092836,0.030289998,-1.25554185,-1.64371364,10.05812586,1.049823605,0.073762731,-0.004500773,31.50770652,120.4017191,12.51612001,,,,,,,,,
1573538250,31.50770771,120.4017194,12.5257,-1.33424157,1.631027758,9.6653317,0.301589384,0.034198098,-0.007199994,0.6569,0.20858,0.02118,-6.510546517,-4.132915286,7.215535962,0.936377508,0.165973361,-0.008915539,0.701214557,0.197171893,0.033189994,-1.33424157,-1.631027758,10.70345981,1.13343812,0.056761522,0.006664648,31.50770737,120.4017191,12.51369001,,,,,,,,,
1573538250,31.50770859,120.4017197,12.4958,-1.388521057,1.606298199,9.193725371,0.399162418,0.057946775,0.022700013,0.75471,0.23375,0.01795,-5.633020031,-3.172938009,7.778181515,1.029191486,0.130242944,-0.008716464,0.800952516,0.208869594,0.003289987,-1.388521057,-1.606298199,11.17506614,1.208674502,0.038959434,-0.007242265,31.50770828,120.4017192,12.51046002,,,,,,,,,
1573538250,31.50770982,120.4017199,12.4979,-1.456304827,1.54808311,8.745210007,0.535542911,0.076945717,0.020600023,0.84939,0.2569,0.01614,-4.430961796,-2.523494535,8.230137226,1.109442374,0.092160826,-0.011771018,0.93541817,0.238527418,0.005389977,-1.456304827,-1.54808311,11.6235815,1.304848404,0.013588156,-0.013915963,31.50770915,120.4017194,12.50865002,,,,,,,,,
1573538250,31.50771102,120.4017201,12.4993,-1.475931707,1.498621662,8.389559024,0.668597051,0.096894604,0.019200035,0.96158,0.27941,0.01135,-3.306506745,-1.786729465,8.582804686,1.19036796,0.062018228,-0.0181485,1.067096102,0.26613692,0.006789965,-1.475931707,-1.498621662,11.97923248,1.395709238,-0.011854096,-0.024223385,31.50771017,120.4017195,12.50386003,,,,,,,,,
1573538250,31.5077123,120.4017203,12.5007,-1.475495875,1.391246152,8.10350486,0.810521467,0.118743386,0.017800053,1.06869,0.29827,0.00544,-2.26833444,-1.052203864,8.910369958,1.263053777,0.041565686,-0.014532911,1.207750947,0.295052725,0.008189947,-1.475495875,-1.391246152,12.26528665,1.470549549,-0.011074852,-0.021102422,31.50771113,120.4017197,12.49795004,,,,,,,,,
1573538251,31.50771365,120.4017205,12.5032,-1.528864712,1.31216857,7.931610769,0.960207375,0.141542114,0.015300073,1.19637,0.32222,-0.00884,-1.337580236,-0.152105095,9.10945305,1.325833437,0.028191908,-0.006873546,1.35601261,0.325779459,0.010689927,-1.528864712,-1.31216857,12.43718074,1.549131876,-0.015949345,-1.91E-08,31.50771229,120.40172,12.48367006,,,,,,,,,
1573538251,31.50771506,120.4017208,12.507,-1.596136489,1.188486784,7.794565838,1.11654599,0.16529079,0.011500099,1.33856,0.34871,-0.02223,-0.98882324,0.552607843,9.258996213,1.392007621,0.005656863,0.007944634,1.510841639,0.357931194,0.014489901,-1.596136489,-1.188486784,12.57422567,1.616575783,-0.032134646,0.007179197,31.50771357,120.4017202,12.47028008,,,,,,,,,
1573538251,31.50771653,120.4017211,12.511,-1.681942558,1.113319032,7.748266096,1.279537313,0.190939356,0.007500131,1.50198,0.38263,-0.02852,-1.024566616,0.811888106,9.37974408,1.481695523,-0.004666124,0.002732386,1.672568671,0.390617388,0.018489869,-1.681942558,-1.113319032,12.62052541,1.697032843,-0.025840129,-0.004934464,31.50771506,120.4017205,12.4639901,,,,,,,,,
1573538251,31.50771809,120.4017213,12.5117,-1.850176639,1.009080116,7.702576564,1.452507696,0.215637975,0.00680017,1.65095,0.40904,-0.03238,-0.717893621,0.902004287,9.423704949,1.557272458,0.033445,-0.043314736,1.84332015,0.427667457,0.01918983,-1.850176639,-1.009080116,12.66621494,1.783860213,0.001275885,-0.041001856,31.50771641,120.4017208,12.46013013,,,,,,,,,
1573538251,31.50771971,120.4017216,12.5103,-2.083436124,0.965839444,7.621261186,1.632130784,0.238436702,0.008200213,1.81305,0.44189,-0.04021,-0.544566609,0.988174695,9.502887417,1.624234676,0.050690044,-0.053817103,2.019647073,0.468814171,0.017789787,-2.083436124,-0.965839444,12.74753032,1.845267189,0.014162797,-0.042723837,31.50771788,120.4017211,12.45230017,1.82454,0.44597,-0.04102,31.50771799,120.4017211,12.45149017,-0.006008566,0.018019858,0.165823046
1573538251,31.50772139,120.4017218,12.5099,-2.289449791,0.979108766,7.596388082,1.818406581,0.264085265,0.008600265,1.98824,0.47758,-0.04792,-0.595495362,1.034122364,9.55512286,1.704255256,0.013887149,-0.014910765,2.20320264,0.509604795,0.017389735,-2.289449791,-0.979108766,12.77240343,1.915144814,-0.034669199,-0.029438238,31.50771947,120.4017213,12.44459021,1.99148,0.47901,-0.04777,31.5077195,120.4017213,12.44474021,-0.006808482,0.018190738,0.166820155
1573538251,31.50772277,120.4017222,12.4865,-2.250848275,1.044963352,7.572551288,1.971418836,0.303983034,0.032000313,2.16307,0.50639,-0.0504,-0.41957075,1.004542816,9.572806533,1.771511129,-0.04131813,0.017998298,2.360534176,0.525459435,-0.006010313,-2.250848275,-1.044963352,12.79624022,1.967548611,-0.104579753,-0.014002039,31.50772104,120.4017217,12.44211026,2.16578,0.50672,-0.05161,31.50772106,120.4017217,12.44090026,-0.004753292,0.018742241,0.167036851
1573538251,31.50772452,120.4017227,12.4916,-2.002166976,0.992613088,7.494925725,2.165456126,0.342930853,0.026900377,2.34354,0.53006,-0.05023,-0.097489244,1.106492827,9.651487103,1.805746384,-0.092869845,0.083267962,2.555994882,0.55648386,-0.000910377,-2.002166976,-0.992613088,12.87386578,1.989333455,-0.161134027,0.026929519,31.50772264,120.4017221,12.44228031,2.34293,0.53011,-0.05085,31.50772264,120.4017221,12.44166031,0.000481687,0.01972983,0.16847141
1573538251,31.50772593,120.401723,12.4965,-1.677862368,1.039678661,7.462734916,2.321794743,0.378078886,0.022000436,2.52371,0.54895,-0.04425,0.429772266,1.105503018,9.714152473,1.819343854,-0.134191103,0.106170568,2.71479159,0.577949022,0.003989564,-1.677862368,-1.039678661,12.90605659,1.993075573,-0.176201006,0.014086037,31.50772422,120.4017226,12.44826037,2.52337,0.54922,-0.04478,31.50772422,120.4017226,12.44773037,0.008976214,0.019410256,0.169558696
1573538251,31.50772805,120.4017235,12.501,-1.339925651,1.293056634,7.451400905,2.556857061,0.426526172,0.017500529,2.70445,0.56903,-0.03892,0.831065552,0.927595638,9.723681932,1.82035598,-0.083737969,0.075451771,2.952018497,0.614347197,0.008489471,-1.339925651,-1.293056634,12.9173906,2.002649586,-0.114315279,-0.028379602,31.50772581,120.4017231,12.45359044,2.70207,0.56917,-0.03881,31.50772579,120.4017231,12.45370044,0.016093677,0.015753416,0.169701384
1573538252,31.50772985,120.4017239,12.502,-1.292805741,1.50700004,7.345846542,2.756438272,0.460724251,0.016500615,2.88234,0.59581,-0.03694,1.0516936,0.675821888,9.803669958,1.831180961,-0.002996143,0.015317494,3.151023272,0.651753994,0.009489385,-1.292805741,-1.50700004,13.02294497,2.032911152,-0.052294681,-0.051173869,31.5077274,120.4017235,12.4555705,2.88192,0.59655,-0.03737,31.5077274,120.4017234,12.4551405,0.019304277,0.011393343,0.171048251
1573538252,31.5077315,120.4017242,12.5025,-1.437550759,1.595559069,7.262767584,2.939387716,0.487322756,0.016000699,3.0634,0.63102,-0.04021,0.981229751,0.531450464,9.912314047,1.870480511,0.050232559,-0.024945413,3.331791115,0.6904963,0.009989301,-1.437550759,-1.595559069,13.10602392,2.071820781,-0.011337063,-0.05070803,31.50772904,120.4017238,12.45230058,3.06252,0.63114,-0.04129,31.50772904,120.4017238,12.45122058,0.017803721,0.009458178,0.172947508
1573538252,31.50773356,120.4017245,12.5032,-1.645397077,1.585262489,7.225705944,3.167797325,0.518670993,0.01530081,3.24787,0.66837,-0.04579,0.815483052,0.514481073,9.953864326,1.910436791,0.03490512,-0.027876386,3.556829775,0.740608798,0.01068919,-1.645397077,-1.585262489,13.14308556,2.110895155,-0.042369369,-0.055857416,31.50773072,120.4017241,12.44672066,3.2453,0.66901,-0.04602,31.5077307,120.4017241,12.44649066,0.015280942,0.008567076,0.173709336
1573538252,31.50773544,120.4017249,12.5031,-1.644630352,1.618160829,7.121579644,3.376248814,0.552869067,0.01540092,3.433,0.70307,-0.05006,0.819816142,0.467561508,10.03177566,1.905096776,-0.019913482,-0.017481112,3.764150182,0.781103001,0.01058908,-1.644630352,-1.618160829,13.24721186,2.104775851,-0.110448748,-0.060153073,31.5077324,120.4017244,12.44245075,3.43563,0.70313,-0.05205,31.50773242,120.4017244,12.44046075,0.013706549,0.009076248,0.175151107
1573538252,31.50773712,120.4017252,12.5043,-1.528449568,1.655801184,7.054081642,3.562524612,0.587067145,0.014201025,3.62371,0.73241,-0.05399,0.886882783,0.46545277,10.14366706,1.901584911,-0.054666588,0.014015969,3.950681507,0.813878698,0.011788975,-1.528449568,-1.655801184,13.31470987,2.090896628,-0.115236723,-0.040620662,31.5077341,120.4017248,12.43852085,3.63163,0.73316,-0.05656,31.50773417,120.4017248,12.43595085,0.013050111,0.009483207,0.177119083
1573538252,31.50773916,120.4017256,12.5077,-1.455250423,1.731325953,7.031300371,3.788716655,0.625065005,0.01080116,3.82012,0.76242,-0.05627,0.875061992,0.485798584,10.17946406,1.903960118,-0.019690065,0.019966819,4.17595574,0.856985514,0.01518884,-1.455250423,-1.731325953,13.33749114,2.082753469,-0.061555398,-0.031012403,31.50773585,120.4017252,12.43624095,3.82174,0.76289,-0.05673,31.50773587,120.4017253,12.43578096,0.014896202,0.008531983,0.17772373
1573538252,31.50774056,120.401726,12.4905,-1.617660891,1.901554809,6.99212318,3.943946475,0.664012813,0.028001258,4.00858,0.79841,-0.058,0.746879452,0.387567227,10.23565668,1.901582756,0.063083686,-0.023772025,4.335035538,0.874502564,-0.002011258,-1.617660891,-1.901554809,13.37666833,2.064325558,0.017167233,-0.086496796,31.50773756,120.4017256,12.43451106,4.01191,0.79777,-0.06009,31.50773759,120.4017256,12.43242106,0.01166719,0.007850379,0.17870738
1573538252,31.50774243,120.4017263,12.4875,-2.016970008,2.154387759,6.924533198,4.151289178,0.685861577,0.031001393,4.19881,0.84134,-0.06649,0.321566419,0.197676378,10.30133167,1.938096224,0.120855289,-0.080753413,4.537018169,0.926187972,-0.005011393,-2.016970008,-2.154387759,13.44425831,2.115984433,0.046189478,-0.106160974,31.5077393,120.4017259,12.42602118,4.20048,0.84097,-0.06777,31.50773932,120.4017259,12.42474118,0.00503639,0.003963676,0.179873928
1573538252,31.50774416,120.4017265,12.4867,-2.373768882,2.173715951,6.814437463,4.343108897,0.708660284,0.031801524,4.39248,0.88641,-0.07661,-0.152695039,0.117466285,10.40758309,2.003176869,0.060054213,-0.069423489,4.724779081,0.971579881,-0.005811524,-2.373768882,-2.173715951,13.55435405,2.174735549,-0.047793387,-0.070976442,31.50774108,120.4017261,12.4159013,4.39857,0.88684,-0.07807,31.50774114,120.4017261,12.4144413,-0.004071752,0.002921468,0.181704943
1573538252,31.50774631,120.4017269,12.4892,-2.280188298,2.039479736,6.703771868,4.581497569,0.749507977,0.029301695,4.59847,0.9229,-0.08271,-0.255088052,0.27897164,10.52684234,2.046216226,-0.062603659,-0.015616122,4.962479226,1.016260235,-0.003311695,-2.280188298,-2.039479736,13.66501964,2.195957618,-0.171424011,-0.057848427,31.50774294,120.4017265,12.40980144,4.60518,0.92448,-0.08347,31.507743,120.4017265,12.40904144,-0.005898373,0.005303488,0.183723256
1573538253,31.50774807,120.4017274,12.4937,-1.908471633,1.935906847,6.631341034,4.776643648,0.791305622,0.024801844,4.80983,0.95186,-0.08306,-0.002382504,0.420280756,10.61616008,2.073228622,-0.137644195,0.050643221,5.159971305,1.044998956,0.001188156,-1.908471633,-1.935906847,13.73745047,2.217586609,-0.243348007,-0.019034445,31.50774482,120.401727,12.40945159,4.81443,0.954,-0.08219,31.50774486,120.401727,12.41032159,-0.001168366,0.006877698,0.185402568
1573538253,31.50775004,120.4017279,12.5011,-1.42145991,1.859713228,6.478999389,4.995074204,0.841652781,0.01740202,5.02236,0.97806,-0.07681,0.433610904,0.496603269,10.78269831,2.106135792,-0.136415377,0.080222058,5.38226768,1.073827178,0.00858798,-1.42145991,-1.859713228,13.88979212,2.257772543,-0.224994479,0.010560217,31.5077467,120.4017275,12.41570174,5.0235,0.9787,-0.07637,31.50774671,120.4017275,12.41614174,0.007127388,0.008467749,0.188230791
1573538253,31.50775226,120.4017284,12.5103,-1.156385637,1.705572522,6.358340546,5.241224375,0.887250203,0.008202222,5.23431,1.00974,-0.07108,0.744604253,0.624127615,10.92089916,2.144389773,-0.0320337,0.052962433,5.628897208,1.116756274,0.017787778,-1.156385637,-1.705572522,14.01045096,2.277137777,-0.096990586,-0.002533673,31.50774859,120.401728,12.4214319,5.23401,1.0108,-0.07041,31.50774859,120.401728,12.4221019,0.013000493,0.010309753,0.190641701
1573538253,31.5077543,120.4017287,12.5157,-1.26326361,1.675512385,6.219131673,5.467416422,0.918598425,0.002802419,5.44336,1.05313,-0.0694,0.706416338,0.650109866,11.0440024,2.131461219,0.054859145,0.015410078,5.851856962,1.166096938,0.023187581,-1.26326361,-1.675512385,14.14965984,2.267442962,-0.044933342,-0.028507161,31.50775049,120.4017283,12.42311207,5.44402,1.05325,-0.06988,31.5077505,120.4017283,12.42263207,0.012299644,0.011449374,0.192836225
1573538253,31.50775613,120.401729,12.5184,-1.457216255,1.752159156,6.02075978,5.670323992,0.944246965,0.0001026,5.65124,1.10089,-0.07177,0.486674851,0.603797034,11.25088741,2.127784715,0.065084369,-0.001290208,6.051004338,1.212676464,0.0258874,-1.457216255,-1.752159156,14.34803173,2.274529677,-0.058038737,-0.050661756,31.5077524,120.4017286,12.42074224,5.65193,1.10098,-0.07281,31.50775241,120.4017286,12.41970225,0.008599486,0.010788937,0.196426375
1573538253,31.50775818,120.4017293,12.5198,-1.499201559,1.878277769,5.846184349,5.89762482,0.977495076,-0.001297187,5.86179,1.14634,-0.07491,0.394629223,0.490217211,11.44567948,2.177605082,-0.004672531,0.001183406,6.275664821,1.260621959,0.027287187,-1.499201559,-1.878277769,14.52260716,2.329772965,-0.126127683,-0.064816353,31.50775432,120.4017289,12.41760243,5.86322,1.14727,-0.07537,31.50775434,120.4017289,12.41714243,0.006832024,0.008601569,0.199804511
1573538253,31.50776021,120.4017298,12.4922,-1.284836,1.84289272,5.723605774,6.122708053,1.025942329,0.026303033,6.0815,1.18799,-0.07686,0.534059533,0.483643269,11.60291604,2.262286004,-0.063763877,0.011191313,6.503536607,1.293546831,-0.000313033,-1.284836,-1.84289272,14.64518573,2.411133094,-0.187229828,-0.048072608,31.50775631,120.4017293,12.41565263,6.08371,1.18921,-0.07729,31.50775633,120.4017293,12.41522263,0.00917994,0.008435253,0.202548261
1573538253,31.50776239,120.4017303,12.4961,-1.045281985,1.633994592,5.545650661,6.364423083,1.066790008,0.022403277,6.31002,1.2293,-0.07814,0.789245005,0.647708973,11.79657936,2.327277213,-0.051118896,0.012214535,6.744355114,1.339384975,0.003586723,-1.045281985,-1.633994592,14.82314085,2.460379503,-0.1442698,-0.031806043,31.50775837,120.4017298,12.41437284,6.31322,1.23019,-0.07848,31.5077584,120.4017298,12.41403285,0.013427402,0.011440744,0.205947784
1573538253,31.50776437,120.4017306,12.4996,-1.066354375,1.472938788,5.397487397,6.583962421,1.097188277,0.018903506,6.54241,1.27754,-0.08096,0.831937277,0.846057133,11.97580822,2.344653055,0.033051877,0.004482136,6.9607475,1.387300641,0.007086494,-1.066354375,-1.472938788,14.97130411,2.458122985,-0.066754016,-0.029142137,31.50776049,120.4017301,12.41155307,6.53575,1.27673,-0.08112,31.50776043,120.4017301,12.41139307,0.015625701,0.014367982,0.209163664
1573538253,31.50776656,120.4017309,12.502,-1.329579639,1.529362412,5.244623119,6.826786234,1.123786753,0.016503767,6.76186,1.33212,-0.08445,0.683827163,0.828513412,12.13014555,2.318082361,0.108241005,-0.008654248,7.19764586,1.446882935,0.009486233,-1.329579639,-1.529362412,15.12416839,2.442956565,-0.006968911,-0.052295003,31.50776252,120.4017304,12.4080633,6.7554,1.33102,-0.08488,31.50776246,120.4017304,12.40763329,0.013209054,0.014143744,0.211757877
1573538254,31.50776899,120.4017312,12.5025,-1.711871613,1.794866117,4.960751276,7.096220872,1.151335175,0.016004067,6.97851,1.39097,-0.08883,0.360668795,0.594878091,12.36525477,2.322353505,0.088970967,-0.006228894,7.459821757,1.514836884,0.009985933,-1.711871613,-1.794866117,15.40804023,2.478944736,-0.074859882,-0.080153824,31.50776453,120.4017306,12.40368353,6.97221,1.39002,-0.08924,31.50776448,120.4017306,12.40327352,0.007426599,0.010058822,0.215819082
1573538254,31.50777125,120.4017315,12.5033,-1.767130179,1.920187445,4.751339287,7.346806175,1.183633328,0.015204357,7.20042,1.44546,-0.09191,0.314984572,0.377941596,12.6075196,2.40017254,0.00911682,-0.009078249,7.705980133,1.571777367,0.010785643,-1.767130179,-1.920187445,15.61745222,2.567541008,-0.140250864,-0.067323759,31.50776658,120.4017309,12.40060377,7.19924,1.44554,-0.09281,31.50776657,120.4017309,12.39970377,0.006044941,0.006636699,0.219945259
1573538254,31.50777357,120.4017319,12.5066,-1.576874036,1.864117014,4.594503746,7.60404419,1.222581103,0.011904667,7.43766,1.49662,-0.09417,0.452722385,0.397878933,12.7719306,2.480180389,-0.058853711,0.017118935,7.960689716,1.62479957,0.014085333,-1.576874036,-1.864117014,15.77428776,2.640488407,-0.208410058,-0.0583781,31.50776875,120.4017313,12.39834404,7.43824,1.49757,-0.09469,31.50776875,120.4017313,12.39782404,0.008020633,0.006931096,0.222872849
1573538254,31.50777596,120.4017324,12.5096,-1.263156958,1.757196672,4.382741465,7.869043696,1.265328664,0.008904998,7.68413,1.54598,-0.0952,0.795144206,0.501210024,12.97935545,2.533353904,-0.074214084,0.00747177,8.223998036,1.676961058,0.017085002,-1.263156958,-1.757196672,15.98605004,2.695918533,-0.204402957,-0.05481073,31.50777098,120.4017317,12.39731433,7.68703,1.54729,-0.09535,31.50777101,120.4017317,12.39716433,0.013696487,0.008748587,0.226489694
1573538254,31.50777838,120.4017328,12.5136,-1.098710682,1.622906818,4.20287772,8.137369557,1.302376543,0.004905343,7.9367,1.59998,-0.09677,0.997759908,0.637958417,13.18809682,2.564798199,-0.024179159,0.022192845,8.488440879,1.735623612,0.021084657,-1.098710682,-1.622906818,16.16591379,2.708803967,-0.132834923,-0.028679651,31.50777329,120.4017321,12.39574464,7.93562,1.60003,-0.0966,31.50777328,120.4017321,12.39591464,0.017760147,0.010994139,0.230136654
1573538254,31.50778057,120.401733,12.5184,-1.14790231,1.588666018,4.053629143,8.380193375,1.329924958,0.000105665,8.18488,1.66051,-0.09676,1.027469536,0.695505556,13.34697693,2.567302409,0.051443089,0.02867769,8.725669883,1.794315366,0.025884335,-1.14790231,-1.588666018,16.31516237,2.709271553,-0.094924077,-0.026928241,31.50777558,120.4017324,12.39575495,8.1809,1.6594,-0.0972,31.50777554,120.4017324,12.39531495,0.018716749,0.012127718,0.232953347
1573538254,31.50778293,120.4017331,12.4837,-1.317958555,1.729920419,3.843079754,8.641866473,1.336574541,0.034806018,8.42797,1.72352,-0.09703,0.925097214,0.577634894,13.58407561,2.553106291,0.038018322,0.02957061,8.973295474,1.879159892,-0.008816018,-1.317958555,-1.729920419,16.52571175,2.699810454,-0.09783491,-0.073904943,31.50777783,120.4017326,12.39548527,8.42651,1.72294,-0.09834,31.50777782,120.4017326,12.39417527,0.01645952,0.010346425,0.237090605
1573538254,31.50778536,120.4017334,12.4839,-1.380135022,2.03898668,3.632230282,8.911301112,1.365072899,0.034606395,8.67403,1.786,-0.09822,0.877830549,0.299986316,13.81354842,2.576725293,0.010240576,0.011145598,9.235802007,1.946223304,-0.008616395,-1.380135022,-2.03898668,16.73656123,2.733966168,-0.116429655,-0.100868812,31.50778011,120.4017329,12.3942956,8.66864,1.78539,-0.09864,31.50778006,120.4017329,12.3938756,0.016139812,0.005177176,0.241053861
1573538254,31.50778735,120.4017337,12.4843,-1.332285665,2.184810709,3.493913629,9.131949232,1.388821527,0.034206715,8.92126,1.84715,-0.0994,0.982063264,0.100061435,13.98523404,2.636054739,-0.021772586,-0.00401382,9.450919361,2.000758745,-0.008216715,-1.332285665,-2.184810709,16.87487788,2.789442005,-0.143898984,-0.091776443,31.50778239,120.4017332,12.39311594,8.91778,1.84742,-0.09912,31.50778236,120.4017332,12.39339594,0.017882396,0.00155516,0.244027763
1573538254,31.50779041,120.4017341,12.4888,-1.213586559,2.064132728,3.279442579,9.471237304,1.426819334,0.029707218,9.17798,1.90987,-0.10018,1.143089951,0.166215943,14.17337121,2.720943816,-0.014112965,-0.010307062,9.782217903,2.083229979,-0.003717218,-1.213586559,-2.064132728,17.08934893,2.891560076,-0.128440572,-0.060219673,31.50778476,120.4017336,12.39233631,9.17656,1.90953,-0.10063,31.50778474,120.4017336,12.39188631,0.020330109,0.00303582,0.247314369
1573538255,31.50779302,120.4017344,12.4929,-1.199184548,1.855460792,3.121485881,9.760630071,1.455317685,0.025607664,9.44178,1.97676,-0.10285,1.194064345,0.375412116,14.33041665,2.750250182,0.010523261,-0.007371048,10.06343461,2.157240052,0.000382336,-1.199184548,-1.855460792,17.24730563,2.908617505,-0.101800022,-0.065153712,31.5077872,120.4017339,12.3896667,9.43777,1.97523,-0.10333,31.50778716,120.4017339,12.38918669,0.021462967,0.006696251,0.250057005
1573538255,31.50779563,120.4017346,12.4949,-1.306073643,1.844440507,2.901888292,10.05002283,1.480016247,0.023608121,9.70187,2.04596,-0.10669,1.145703472,0.441985757,14.52736461,2.724565159,0.033520465,-0.01322588,10.34332876,2.234812319,0.002381879,-1.306073643,-1.844440507,17.46690322,2.893422536,-0.097122506,-0.083004853,31.50778961,120.4017341,12.3858271,9.70033,2.04502,-0.10689,31.5077896,120.4017341,12.38562709,0.020376006,0.007847733,0.253493648
1573538255,31.50779823,120.4017349,12.4953,-1.26127216,1.932726265,2.706851522,10.33830681,1.507564646,0.02320859,9.9634,2.11402,-0.10918,1.148898601,0.369126694,14.73346414,2.721924946,-0.039778329,0.00165375,10.62317537,2.309327018,0.00278141,-1.26127216,-1.932726265,17.66193999,2.893399954,-0.171669108,-0.110449058,31.50779204,120.4017344,12.3833375,9.95928,2.11187,-0.10966,31.507792,120.4017344,12.3828575,0.020647888,0.0066899,0.256970843
1573538255,31.50780085,120.4017353,12.4951,-1.089869898,2.018839167,2.559958924,10.62880836,1.539862775,0.023409077,10.22461,2.17547,-0.11151,1.361278198,0.282123885,14.88706707,2.751955065,-0.073798308,0.000263796,10.90675409,2.38016083,0.002580923,-1.089869898,-2.018839167,17.80883258,2.931358454,-0.177920751,-0.094624101,31.50779444,120.4017348,12.38100792,10.22304,2.17413,-0.11207,31.50779442,120.4017348,12.38044792,0.024097253,0.005204826,0.259631632
1573538255,31.50780352,120.4017356,12.4975,-0.909116778,1.990940816,2.437069198,10.92485383,1.570261009,0.021009587,10.49401,2.23933,-0.113,1.574630672,0.30123592,15.00371881,2.826681027,-0.056475988,0.007696269,11.1948688,2.454705367,0.004980413,-0.909116778,-1.990940816,17.93172231,3.014468566,-0.153639368,-0.070314626,31.50779692,120.4017351,12.37951836,10.49451,2.23894,-0.11318,31.50779692,120.4017351,12.37933837,0.02752418,0.005576123,0.261769634
1573538255,31.50780626,120.4017358,12.5023,-0.973265267,1.795819987,2.265727789,11.2286608,1.594009617,0.016210122,10.77077,2.31167,-0.11549,1.577478425,0.490540898,15.17066973,2.887954835,0.015985431,-0.007828217,11.48794522,2.538185217,0.009779878,-0.973265267,-1.795819987,18.10306372,3.07636061,-0.085771742,-0.035585298,31.50779949,120.4017354,12.37702883,10.77112,2.31057,-0.11597,31.50779948,120.4017354,12.37654884,0.027540891,0.009086058,0.264703448
1573538255,31.50780909,120.4017358,12.4972,-1.199630107,1.398489339,2.197364747,11.54244681,1.592109674,0.021310683,11.05026,2.39017,-0.11959,1.375768938,0.851325783,15.29311289,2.905795317,0.040647694,0.003139423,11.78144943,2.649183178,0.004679317,-1.199630107,-1.398489339,18.17142676,3.076521697,-0.058340865,-0.017915355,31.50780209,120.4017357,12.37292932,11.04992,2.38858,-0.12045,31.50780209,120.4017357,12.37206932,0.024165071,0.015403711,0.266843604
1573538255,31.50781184,120.401736,12.5007,-1.31858388,1.250128085,2.060116479,11.84736256,1.613008443,0.01781125,11.32651,2.46616,-0.12438,1.225507476,1.091171318,15.41724909,2.844929471,-0.020574061,0.02542745,12.07457337,2.735720597,0.00817875,-1.31858388,-1.250128085,18.30867503,3.020969655,-0.142518538,-0.052213907,31.50780467,120.4017359,12.36813982,11.32926,2.46632,-0.12529,31.50780469,120.4017359,12.36722983,0.021184981,0.019335701,0.268961287
1573538255,31.50781455,120.4017363,12.5006,-1.168417555,1.41776373,1.911076502,12.14784317,1.640556832,0.017911825,11.60392,2.5356,-0.12677,1.324947167,0.994006685,15.57202062,2.832985509,-0.091960258,0.043590376,12.36585398,2.814480483,0.008078175,-1.168417555,-1.41776373,18.45771501,3.011570757,-0.183642803,-0.084899856,31.50780723,120.4017363,12.36575033,,,,,,,,,
1573538255,31.50781729,120.4017366,12.5007,-1.051241216,1.610222213,1.864922928,12.45165013,1.667155273,0.01781242,11.88634,2.60544,-0.12862,1.482941147,0.800448731,15.63685019,2.902387355,-0.059253675,0.019548134,12.6599223,2.895288693,0.00817758,-1.051241216,-1.610222213,18.50386858,3.085447132,-0.117617393,-0.072498855,31.50780984,120.4017366,12.36390086,11.88809,2.607,-0.12769,31.50780986,120.4017366,12.36483086,0.025725968,0.013567964,0.272908252
1573538256,31.50782009,120.4017368,12.5043,-1.168250749,1.519706947,1.79544337,12.7621098,1.686154144,0.01421304,12.17077,2.68411,-0.13033,1.394770583,0.803900555,15.68587694,2.948068037,0.014922043,0.014454659,12.95758224,2.985536839,0.01177696,-1.168250749,-1.519706947,18.57334814,3.127507284,-0.073307924,-0.037258886,31.50781249,120.4017369,12.36219141,12.18126,2.68848,-0.13107,31.50781259,120.4017369,12.36145143,0.023418919,0.013775505,0.273658922
1573538256,31.50782291,120.401737,12.5082,-1.319578135,1.486073067,1.656303806,13.07478705,1.704203068,0.010313681,12.46544,2.76995,-0.13345,1.152320429,0.858134414,15.81050049,2.955548034,-0.012095892,0.024315259,13.25699045,3.077447383,0.015676319,-1.319578135,-1.486073067,18.7124877,3.118161968,-0.117899533,-0.054113023,31.50781525,120.4017371,12.359072,12.4714,2.77557,-0.13272,31.50781532,120.4017371,12.35980201,0.019652042,0.013990578,0.275991586
1573538256,31.50782571,120.4017372,12.5105,-1.285971929,1.484933644,1.587833493,13.38524672,1.727951666,0.008014335,12.75758,2.85297,-0.13402,1.114659176,0.781570814,15.90185793,2.974554813,-0.071108836,0.030306319,13.55630358,3.163242794,0.017975665,-1.285971929,-1.484933644,18.78095802,3.120707306,-0.1697809,-0.072822088,31.50781798,120.4017374,12.3585026,12.76279,2.85787,-0.1337,31.50781804,120.4017373,12.35882261,0.019149063,0.01289527,0.277612559
1573538256,31.50782853,120.4017375,12.51,-1.067760042,1.561675236,1.544108705,13.69792396,1.755500045,0.00851501,13.05234,2.93132,-0.13565,1.299007295,0.690543951,15.9485927,2.996368243,-0.100704476,0.011668804,13.85901818,3.246247866,0.01747499,-1.067760042,-1.561675236,18.8246828,3.138946363,-0.195830441,-0.109753437,31.50782072,120.4017377,12.35687321,13.05229,2.93393,-0.13601,31.50782073,120.4017376,12.35651321,0.02274492,0.011415094,0.278430656
1573538256,31.50783137,120.4017378,12.5075,-0.930004543,1.650924429,1.476505045,14.01281876,1.781148531,0.011015702,13.3437,3.00883,-0.14021,1.508394221,0.579369349,16.0169427,3.023351695,-0.050146972,-0.022737752,14.1631504,3.331805882,0.014974298,-0.930004543,-1.650924429,18.89228646,3.175399112,-0.131292694,-0.116877526,31.50782343,120.401738,12.35231383,13.33809,3.00808,-0.14122,31.50782338,120.401738,12.35130382,0.026900801,0.009890736,0.279469088
1573538256,31.50783425,120.401738,12.5072,-1.079831408,1.652311563,1.417035428,14.3321487,1.798247502,0.011316419,13.62943,3.09131,-0.14711,1.440708791,0.515301605,16.07349489,3.047947755,0.030315098,-0.025179155,14.46846468,3.426922529,0.014673581,-1.079831408,-1.652311563,18.95175608,3.19983387,-0.063008899,-0.072895096,31.5078261,120.4017382,12.34541446,13.61485,3.08972,-0.14614,31.50782597,120.4017382,12.34638443,0.026393501,0.008393767,0.28049629
1573538256,31.50783722,120.401738,12.493,-1.310502577,1.574548689,1.380219598,14.66145767,1.804897062,0.025517174,13.9052,3.17765,-0.149,1.279919691,0.512980333,16.14081744,3.039606222,0.026095735,0.019296538,14.77949698,3.535308518,0.000472826,-1.310502577,-1.574548689,18.98857191,3.211083035,-0.083633141,-0.038169264,31.50782871,120.4017384,12.34352508,13.89307,3.17665,-0.14789,31.5078286,120.4017383,12.34463505,0.02330702,0.008371064,0.281750374
1573538256,31.50784011,120.4017383,12.4976,-1.357329551,1.585606395,1.299226139,14.98189641,1.824845868,0.020917926,14.18359,3.26068,-0.14768,1.251935595,0.491784217,16.22376414,3.027397697,-0.033740319,0.031260371,15.08684265,3.628139454,0.005072074,-1.357329551,-1.585606395,19.06956537,3.209311482,-0.134039102,-0.061517984,31.50783132,120.4017386,12.34484572,14.16901,3.25895,-0.14591,31.50783119,120.4017385,12.34661568,0.022826851,0.007776355,0.283254911
1573538256,31.50784301,120.4017385,12.499,-1.253873176,1.641472454,1.277126333,15.30344393,1.846694565,0.0195187,14.46012,3.33862,-0.14635,1.374138632,0.38130523,16.26364296,3.034666959,-0.070250566,0.008963069,15.39588904,3.719575219,0.0064713,-1.253873176,-1.641472454,19.09166518,3.237232444,-0.165291117,-0.091906312,31.5078339,120.4017388,12.34617636,14.43712,3.33264,-0.14511,31.50783369,120.4017388,12.34741631,0.02580452,0.005971354,0.283791955
1573538256,31.50784595,120.4017387,12.5,-1.106635952,1.536187635,1.234411586,15.62942659,1.870443152,0.018519501,14.72936,3.41085,-0.14772,1.657043523,0.399557259,16.29078034,3.038795699,-0.051911584,-0.015144476,15.70975453,3.810773592,0.007470499,-1.106635952,-1.536187635,19.13437992,3.273685509,-0.146741249,-0.071534087,31.50783641,120.4017391,12.344807,14.72486,3.41006,-0.14759,31.50783636,120.4017391,12.34493699,0.029244064,0.006823718,0.284510563
1573538257,31.5078489,120.4017389,12.5022,-1.086194311,1.408990223,1.144209474,15.95651803,1.890391953,0.016320319,15.01731,3.49209,-0.15073,1.699600313,0.537751234,16.40319134,3.042044256,-0.028147608,0.007659285,16.02333691,3.905920082,0.009669681,-1.086194311,-1.408990223,19.22458203,3.268638039,-0.111699757,-0.061319027,31.5078391,120.4017393,12.3417977,15.01411,3.49129,-0.15015,31.50783907,120.4017393,12.34237769,0.02979141,0.00914175,0.286507293
1573538257,31.50785184,120.4017391,12.5034,-1.132319585,1.454721952,1.085888648,16.28250068,1.907490917,0.015121151,15.30415,3.57583,-0.15215,1.662315048,0.516597722,16.47904666,3.013399102,-0.013329741,0.010781075,16.33488792,4.003352288,0.010868849,-1.132319585,-1.454721952,19.28290286,3.250740001,-0.120316367,-0.081245308,31.50784178,120.4017396,12.34037841,15.30449,3.57619,-0.15161,31.50784179,120.4017396,12.34091841,0.028843682,0.008814995,0.287870165
1573538257,31.50785507,120.4017393,12.5036,-1.155338125,1.580076389,0.992648667,16.64063809,1.92743971,0.014922085,15.59385,3.65923,-0.15316,1.655254909,0.384245234,16.57661634,3.020696749,-0.025768889,0.001862834,16.67757501,4.10930469,0.011067915,-1.155338125,-1.580076389,19.37614284,3.265420638,-0.106632588,-0.085139739,31.50784449,120.4017398,12.33936914,15.58994,3.65786,-0.15336,31.50784446,120.4017398,12.33916913,0.029166756,0.006522529,0.289456219
1573538257,31.50785803,120.4017395,12.5053,-1.281773054,1.615051869,0.944671651,16.96883832,1.941688833,0.013222957,15.87955,3.74336,-0.15547,1.588785436,0.315490789,16.63897008,3.029721275,0.013594985,-0.002845435,16.99021301,4.210180392,0.012767043,-1.281773054,-1.615051869,19.42411986,3.289546063,-0.061385756,-0.06682923,31.50784717,120.40174,12.33705988,15.88272,3.74473,-0.15617,31.50784721,120.40174,12.33635989,0.027590603,0.005384134,0.290481909
1573538257,31.5078607,120.4017396,12.509,-1.489215796,1.61573396,0.861514204,17.26488379,1.951188235,0.009523759,16.17302,3.8354,-0.15767,1.360598917,0.305068878,16.71988822,3.046648558,0.046619963,0.009197433,17.27105365,4.304316995,0.016466241,-1.489215796,-1.61573396,19.50727731,3.303495779,-0.062668148,-0.049610326,31.50784994,120.4017402,12.33486065,16.17521,3.83623,-0.15862,31.50784997,120.4017402,12.33391066,0.023755973,0.005382819,0.291899881
1573538257,31.50786369,120.4017397,12.5131,-1.60568676,1.60337726,0.733975517,17.59641038,1.965437356,0.005424671,16.46695,3.92628,-0.15865,1.18865143,0.297722208,16.85354162,3.068508786,-0.017606991,0.01589349,17.58681002,4.406350477,0.020565329,-1.60568676,-1.60337726,19.63481599,3.332231212,-0.135755434,-0.064891066,31.50785271,120.4017404,12.33388144,16.47165,3.92799,-0.159,31.50785276,120.4017404,12.33353145,0.020571105,0.005241131,0.294271442
1573538257,31.5078668,120.4017401,12.4872,-1.390436048,1.485651228,0.600882628,17.9412423,1.996785486,0.031325646,16.7686,4.01213,-0.16016,1.324054281,0.378073895,16.99291418,3.092589337,-0.102034849,0.000574557,17.92099126,4.496985195,-0.005335646,-1.390436048,-1.485651228,19.76790888,3.34115693,-0.215430068,-0.11082043,31.50785553,120.4017406,12.33237226,16.77571,4.01531,-0.16028,31.5078556,120.4017406,12.33225228,0.022450077,0.006513138,0.29676016
1573538257,31.50786981,120.4017403,12.4839,-1.10537564,1.494490373,0.478373671,18.27498644,2.020534058,0.034626605,17.07429,4.09579,-0.16396,1.615046093,0.389543851,17.12907324,3.090468187,-0.086785376,-0.025183288,18.24213292,4.590885055,-0.008636605,-1.10537564,-1.494490373,19.89041784,3.339336845,-0.172725687,-0.125189477,31.50785838,120.4017409,12.32857311,17.07478,4.09604,-0.16434,31.50785839,120.4017409,12.32819311,0.028102913,0.00677011,0.299037149
1573538257,31.50787283,120.4017405,12.482,-1.015570101,1.515693689,0.330374863,18.60983936,2.036683066,0.036527582,17.37132,4.1829,-0.16892,1.767250927,0.371430514,17.27325055,3.095201825,-0.00469554,-0.015467798,18.56166891,4.692295216,-0.010537582,-1.015570101,-1.515693689,20.03841665,3.35352282,-0.092604667,-0.082886005,31.50786117,120.4017411,12.32361395,17.36938,4.18229,-0.16949,31.50786115,120.4017411,12.32304395,0.030878231,0.006436437,0.301517046
1573538257,31.50787587,120.4017406,12.4846,-1.144417895,1.468161038,0.122860803,18.94690986,2.046182455,0.03392858,17.66425,4.2781,-0.17212,1.639812859,0.394976099,17.47349307,3.109858524,0.045062773,0.006601419,18.88096934,4.800711061,-0.00793858,-1.144417895,-1.468161038,20.24593071,3.381993446,-0.078643683,-0.056051318,31.50786394,120.4017413,12.3204148,17.66494,4.27811,-0.1725,31.50786395,120.4017413,12.3200348,0.028501904,0.006910928,0.305032174
1573538258,31.50787892,120.4017407,12.4877,-1.250488392,1.454324191,-0.10755301,19.28508916,2.053781954,0.030829601,17.9606,4.3759,-0.17347,1.543257651,0.421879329,17.706423,3.112526714,0.036375394,0.012793261,19.20064795,4.911293926,-0.004839601,-1.250488392,-1.454324191,20.47634452,3.381606621,-0.076489557,-0.058526756,31.50786675,120.4017414,12.31906568,17.96762,4.37802,-0.17396,31.50786682,120.4017414,12.3185757,0.026380457,0.007570229,0.30909536
1573538258,31.50788197,120.4017407,12.4907,-1.322118134,1.440171057,-0.337503784,19.62326845,2.060431505,0.027830638,18.26353,4.47665,-0.17455,1.427538855,0.430301571,17.92862966,3.11711721,0.035152106,0.019090644,19.51999592,5.02276734,-0.001840638,-1.322118134,-1.440171057,20.70629529,3.3848377,-0.071873956,-0.055761695,31.50786963,120.4017415,12.31798659,18.27545,4.47862,-0.17552,31.50786974,120.4017415,12.31701663,0.024155396,0.007952852,0.313014897
1573538258,31.50788503,120.4017408,12.4942,-1.405467621,1.37928388,-0.601448728,19.96255652,2.06423122,0.024331697,18.57179,4.58001,-0.17628,1.316645323,0.488913089,18.20264801,3.140654841,0.053691199,0.016830729,19.83939143,5.137298319,0.001658303,-1.405467621,-1.37928388,20.97024024,3.396195252,-0.062405988,-0.047607201,31.50787256,120.4017416,12.31625754,18.59445,4.58645,-0.1784,31.50787277,120.4017416,12.31413761,0.021575719,0.009121633,0.317795246
1573538258,31.50788809,120.4017408,12.4952,-1.443680668,1.375096641,-0.922762059,20.30184459,2.067080991,0.023332775,18.89302,4.69027,-0.17994,1.189112745,0.542272702,18.51937019,3.156631667,0.037580297,-0.001204844,20.1584563,5.252719843,0.002657225,-1.443680668,-1.375096641,21.29155357,3.381302862,-0.076708925,-0.103337981,31.50787563,120.4017417,12.31259854,18.89654,4.68918,-0.18147,31.50787565,120.4017417,12.31106855,0.020433272,0.009861637,0.323183826
1573538258,31.50789115,120.4017408,12.4916,-1.369358674,1.520524272,-1.278879767,20.64113264,2.071830645,0.026933868,19.19519,4.79193,-0.18588,1.200971531,0.439374631,18.86783132,3.170186773,-0.016857423,-0.021581618,20.47818242,5.366360274,-0.000943868,-1.369358674,-1.520524272,21.64767128,3.406353007,-0.133772831,-0.132868147,31.5078785,120.4017418,12.3066595,19.20942,4.79575,-0.18694,31.50787863,120.4017418,12.30559955,0.020010766,0.008048497,0.329404591
1573538258,31.50789425,120.4017409,12.4884,-1.293299971,1.483080077,-1.632695441,20.98485584,2.073730468,0.030134995,19.51242,4.89945,-0.19306,1.29115708,0.458871116,19.23219746,3.218309474,0.023447352,-0.049737987,20.80107445,5.484216043,-0.004144995,-1.293299971,-1.483080077,22.00148695,3.441815619,-0.0768005,-0.109077333,31.50788152,120.4017419,12.29948053,19.52115,4.90164,-0.19381,31.5078816,120.4017419,12.29873056,0.021927559,0.008130532,0.335805454
1573538258,31.50789745,120.4017409,12.4895,-1.351127317,1.248953242,-1.974640727,21.33966689,2.076580232,0.029036177,19.82406,5.01316,-0.20036,1.215367878,0.619004646,19.6254708,3.22340104,0.069917165,-0.016653734,21.13469167,5.605040525,-0.003046177,-1.351127317,-1.248953242,22.34343224,3.44033918,-0.044843629,-0.053072263,31.50788451,120.4017419,12.29218156,19.83413,5.01714,-0.20025,31.50788461,120.4017419,12.29229159,0.020482222,0.010685015,0.342665295
1573538258,31.50790054,120.4017408,12.4914,-1.331754504,1.186957804,-2.420585405,21.68228132,2.070880497,0.027137337,20.1343,5.13181,-0.20363,1.151698803,0.727126646,20.08102328,3.197107481,0.031337176,0.020868698,21.45389914,5.729634745,-0.001147337,-1.331754504,-1.186957804,22.78937691,3.403350151,-0.10568698,-0.055582578,31.50788751,120.4017419,12.28891261,20.1484,5.13824,-0.20279,31.50788765,120.4017419,12.28975266,0.019014647,0.012516696,0.350553694
1573538258,31.5079036,120.4017408,12.4933,-1.140366723,1.140875612,-2.853778871,22.02156939,2.068030593,0.025238502,20.44865,5.24951,-0.20305,1.273616793,0.737194153,20.52583966,3.197816348,-0.01637691,0.047943248,21.77098017,5.850399552,0.000751498,-1.140366723,-1.140875612,23.22257038,3.386778859,-0.12767287,-0.047292367,31.50789053,120.4017419,12.28949369,20.46884,5.2584,-0.20339,31.50789073,120.4017419,12.28915376,0.020749751,0.012889596,0.358312935
1573538258,31.50790664,120.4017407,12.496,-0.974391517,1.19882404,-3.276802533,22.35863989,2.060430965,0.022539677,20.76893,5.37154,-0.20185,1.404693384,0.714623866,20.94605569,3.190927743,0.027683523,0.052159087,22.0843291,5.974845243,0.003450323,-0.974391517,-1.19882404,23.64559404,3.355587692,-0.057882762,-0.043205084,31.50789362,120.4017419,12.2906948,20.78941,5.3807,-0.2019,31.50789383,120.4017418,12.29064488,0.023128203,0.012444064,0.36560435
1573538259,31.50790966,120.4017405,12.4985,-1.143519683,1.304056811,-3.761069485,22.69349282,2.041431998,0.020040859,21.0842,5.50423,-0.20194,1.20809073,0.615940439,21.41651916,3.184701381,0.121671073,0.023937069,22.39163144,6.10920564,0.005949141,-1.143519683,-1.304056811,24.12986099,3.340822988,-0.012267386,-0.051499198,31.50789671,120.4017417,12.29060593,21.10485,5.51283,-0.20271,31.50789691,120.4017417,12.28983601,0.019667821,0.010895525,0.373841544
1573538259,31.50791267,120.4017403,12.5001,-1.228798109,1.284753521,-4.243669627,23.02723697,2.020533141,0.018442053,21.40001,5.64119,-0.20408,1.021221051,0.58434838,21.91307902,3.226728871,0.090039776,0.005384667,22.69723305,6.244961204,0.007547947,-1.228798109,-1.284753521,24.61246114,3.340968437,-0.03774667,-0.077455406,31.50789981,120.4017415,12.28846708,21.42005,5.65167,-0.20436,31.50790001,120.4017415,12.28818716,0.016290845,0.010168548,0.382588571
1573538259,31.50791596,120.4017401,12.4989,-1.170668971,1.396530386,-4.760392276,23.39202707,2.000584225,0.01964338,21.71707,5.77888,-0.20696,0.943464035,0.535265439,22.38267406,3.21128197,0.019883329,0.016045318,23.03227,6.390632127,0.00634662,-1.170668971,-1.396530386,25.12918378,3.295418277,-0.105822054,-0.096124724,31.50790292,120.4017413,12.28558826,21.72645,5.78524,-0.20711,31.50790302,120.4017413,12.2854383,0.015502084,0.009104906,0.390625394
1573538259,31.50791862,120.4017399,12.4978,-1.023997638,1.594357684,-5.1616094,23.68696375,1.984435105,0.020744468,22.02139,5.91007,-0.20718,1.077583488,0.334138779,22.8407834,3.194053483,0.021928953,0.023679241,23.30314391,6.508427563,0.005245532,-1.023997638,-1.594357684,25.53040091,3.284116767,-0.074224173,-0.099855196,31.5079059,120.4017411,12.28536941,22.01697,5.90901,-0.20686,31.50790586,120.4017411,12.28568939,0.018578931,0.005614163,0.398479426
1573538259,31.50792159,120.4017396,12.4979,-1.069475926,1.691779951,-5.599240037,24.01627275,1.956886638,0.020645695,22.30871,6.04016,-0.20772,1.080399049,0.173061122,23.26269335,3.210965684,0.098111292,-0.016234216,23.60227322,6.648873246,0.005344305,-1.069475926,-1.691779951,25.96803155,3.303561978,-0.021562813,-0.091088387,31.50790874,120.4017409,12.28483051,22.26806,6.02488,-0.20613,31.50790835,120.4017409,12.28642036,0.020334346,0.00216541,0.405964949
1573538259,31.50792456,120.4017393,12.4981,-1.042832095,1.688650239,-6.115641441,24.34558175,1.929338171,0.020446939,22.55412,6.15887,-0.2083,1.131720423,0.124976816,23.75629962,3.155043974,0.052712799,-0.011291399,23.90140254,6.789318929,0.005543061,-1.042832095,-1.688650239,26.48443295,3.300363898,-0.097586122,-0.102492676,31.50791119,120.4017406,12.28425147,22.53823,6.15326,-0.20798,31.50791104,120.4017406,12.28457141,0.020131356,0.002040606,0.414585499
1573538259,31.5079273,120.4017392,12.4878,-0.851572523,1.63850217,-6.560019605,24.64938867,1.918888718,0.030748109,22.82374,6.28235,-0.20937,1.347817003,0.135746778,24.26442733,3.132970349,-0.009922644,0.001066409,24.18257588,6.904858477,-0.004758109,-0.851572523,-1.63850217,26.92881111,3.289950249,-0.13455625,-0.090116511,31.50791386,120.4017404,12.28318254,22.81902,6.28098,-0.20915,31.50791381,120.4017404,12.28340252,0.023452525,0.002322732,0.423532627
1573538259,31.50793055,120.4017389,12.4909,-0.614326841,1.592643878,-7.015369001,25.00974365,1.888490416,0.027649508,23.10319,6.41024,-0.20804,1.599403069,0.168479835,24.68916779,3.118612611,0.028051584,0.028698708,24.50981801,7.058781708,-0.001659508,-0.614326841,-1.592643878,27.38416051,3.277205093,-0.06120977,-0.049462321,31.50791662,120.4017402,12.28451366,23.09781,6.40717,-0.20891,31.50791657,120.4017402,12.28364363,0.027872867,0.003214186,0.431032532
1573538259,31.50793347,120.4017385,12.4951,-0.709325036,1.538471121,-7.486736074,25.33350875,1.849542621,0.023450779,23.37495,6.54474,-0.20768,1.578504255,0.244411588,25.14563366,3.071793833,0.117672615,0.010496205,24.7997824,7.207984318,0.002539221,-0.709325036,-1.538471121,27.85552758,3.238278267,0.000882337,-0.063758762,31.50791934,120.4017398,12.28487477,23.38618,6.54987,-0.20896,31.50791945,120.4017398,12.28359481,0.026780469,0.004578763,0.439037181
1573538259,31.50793636,120.401738,12.4956,-0.940313034,1.611227579,-8.030943997,25.65394747,1.804895157,0.022952052,23.65763,6.6933,-0.21119,1.310091413,0.204358734,25.68767088,3.063828936,0.128651681,-0.030641767,25.08464458,7.361372425,0.003037948,-0.940313034,-1.611227579,28.39973551,3.229698676,0.002039044,-0.093727342,31.5079222,120.4017394,12.28136595,23.66939,6.69933,-0.21153,31.50792232,120.4017394,12.281026,0.022078577,0.00362045,0.448576525
1573538260,31.50793926,120.4017376,12.4963,-1.048108655,1.576845973,-8.50330028,25.97549498,1.761197643,0.022253347,23.9422,6.84405,-0.21502,1.122252424,0.196644818,26.1876848,3.098781618,0.080853358,-0.01326088,25.37087685,7.514255907,0.003736653,-1.048108655,-1.576845973,28.87209179,3.249060409,-0.041486196,-0.065500939,31.50792508,120.401739,12.27753715,23.95086,6.8495,-0.21452,31.50792517,120.4017389,12.27803719,0.018726551,0.003260791,0.457262113
1573538260,31.50794215,120.4017371,12.5008,-0.961248011,1.407330436,-8.983259192,26.29593372,1.719400018,0.017754653,24.22658,6.99288,-0.21442,1.111856514,0.338211365,26.67546852,3.097355775,0.025817711,0.041420834,25.65673096,7.664972376,0.008235347,-0.961248011,-1.407330436,29.3520507,3.219586482,-0.10448673,-0.029538724,31.50792795,120.4017385,12.27813837,24.23737,6.99989,-0.21371,31.50792806,120.4017385,12.27884842,0.018488029,0.00558448,0.46574887
1573538260,31.50794502,120.4017367,12.5044,-0.749160748,1.409847627,-9.463218265,26.6141549,1.677602398,0.014155968,24.51223,7.14038,-0.2102,1.275342107,0.374325914,27.17999176,3.065547581,0.00653838,0.051065971,25.94050617,7.81491699,0.011834032,-0.749160748,-1.409847627,29.83200977,3.180457825,-0.083714463,-0.065771747,31.50793083,120.4017381,12.28235961,24.51899,7.14563,-0.21006,31.5079309,120.4017381,12.28249964,0.021640389,0.006269227,0.474574581
1573538260,31.50794785,120.4017362,12.5037,-0.806267821,1.471507067,-9.912606046,26.92794091,1.627255279,0.014857277,24.78917,7.2919,-0.21066,1.264602129,0.295452909,27.64465858,3.06685516,0.102423696,-0.026492678,26.21714779,7.97133281,0.011132723,-0.806267821,-1.471507067,30.28139755,3.175332959,0.004470195,-0.099921939,31.50793364,120.4017376,12.28190084,24.79705,7.29869,-0.21032,31.50793373,120.4017376,12.28224088,0.021520606,0.00475454,0.482693123
1573538260,31.50795066,120.4017356,12.5025,-1.024796638,1.529548116,-10.36518436,27.23950935,1.571208495,0.016058591,25.06343,7.45246,-0.21474,1.007001429,0.195643202,28.10672499,3.064697699,0.105714799,-0.022706771,26.48972666,8.132320053,0.009931409,-1.024796638,-1.529548116,30.73397587,3.152335014,-0.014726422,-0.077046701,31.50793647,120.4017371,12.27782208,25.06799,7.45753,-0.21437,31.50793652,120.401737,12.2781921,0.017177569,0.002977706,0.490608667
1573538260,31.50795346,120.401735,12.5049,-1.102248146,1.553408984,-10.79292242,27.54996902,1.516111659,0.013659918,25.33441,7.61062,-0.21491,0.890285697,0.153099444,28.54310858,3.081541506,0.060328598,0.015948757,26.76159674,8.292030827,0.012330082,-1.102248146,-1.553408984,31.16171393,3.163563946,-0.049828441,-0.054148456,31.50793925,120.4017365,12.27765332,25.32915,7.60954,-0.21464,31.50793921,120.4017365,12.2779233,0.015541416,0.002196222,0.49823061
1573538260,31.50795601,120.4017349,12.4859,-0.963215754,1.482970032,-11.21584168,27.832709,1.503762333,0.032661147,25.59634,7.75958,-0.21224,0.974668515,0.17197503,28.96334812,3.060186935,0.000968153,0.048095938,27.02235914,8.402018861,-0.006671147,-0.963215754,-1.482970032,31.58463319,3.149261585,-0.118902675,-0.036517856,31.50794194,120.401736,12.28032453,25.59687,7.76157,-0.21216,31.50794195,120.401736,12.28040454,0.016921286,0.002652595,0.505546432
1573538260,31.50795908,120.4017343,12.4886,-0.836247831,1.423841243,-11.63910994,28.17310585,1.44676561,0.029962634,25.86298,7.9112,-0.20967,1.117095286,0.198926682,29.36465006,3.045283116,0.028020373,0.012509153,27.3216332,8.573930705,-0.003972634,-0.836247831,-1.423841243,32.00790145,3.115307257,-0.070040058,-0.076563347,31.50794467,120.4017355,12.28289578,25.85484,7.9075,-0.20954,31.50794459,120.4017355,12.28302574,0.019412623,0.00330741,0.512566127
1573538260,31.50796183,120.4017337,12.4879,-0.838034381,1.501960858,-12.0205988,28.47802159,1.388818948,0.03066398,26.11551,8.06033,-0.21047,1.140818338,0.157057989,29.7470264,2.996571524,0.058885779,-0.007209722,27.58731408,8.734383481,-0.00467398,-0.838034381,-1.501960858,32.38939031,3.080336517,-0.053682391,-0.090064653,31.50794727,120.4017349,12.28209698,26.11407,8.06124,-0.21014,31.50794726,120.4017349,12.28242698,0.019716938,0.002398782,0.519262369
1573538260,31.50796455,120.401733,12.4879,-0.85793481,1.635832242,-12.40279717,28.77961098,1.328972403,0.030665327,26.36996,8.21484,-0.21026,1.120708157,0.010267977,30.14890853,2.989297047,0.058957881,0.006193751,27.84921533,8.895459568,-0.004675327,-0.85793481,-1.635832242,32.77158868,3.082727591,-0.032235325,-0.078325114,31.50794991,120.4017343,12.28230821,26.36937,8.21606,-0.20995,31.50794991,120.4017343,12.28261821,0.019389192,-0.000148991,0.526340115
1573538261,31.50796727,120.4017323,12.4899,-0.992719367,1.549111372,-12.80771658,29.08120037,1.263426193,0.028666686,26.62326,8.37465,-0.21045,0.983733659,-0.003764711,30.55070927,3.001881539,0.088966273,-0.008555926,28.10913275,9.061878934,-0.002676686,-0.992719367,-1.549111372,33.17650809,3.081585021,-0.018407592,-0.066660119,31.50795255,120.4017337,12.28211946,26.62487,8.37543,-0.21095,31.50795257,120.4017337,12.28161946,0.016836133,3.88E-06,0.533293508
1573538261,31.50796997,120.4017316,12.4904,-1.172923686,1.560001578,-13.21401642,29.38057219,1.195030156,0.028168051,26.87607,8.53612,-0.21228,0.840595742,0.016860979,30.96565745,2.967513038,0.111125983,-0.026949912,28.36597933,9.230198078,-0.002178051,-1.172923686,-1.560001578,33.58280793,3.03788422,0.018706906,-0.09337413,31.50795519,120.401733,12.28029072,26.87441,8.53593,-0.21189,31.50795518,120.401733,12.28068071,0.014352264,-3.39E-05,0.5406537
1573538261,31.50797263,120.4017309,12.4906,-1.298366753,1.691726069,-13.60958411,29.67550887,1.12663412,0.027969409,27.12095,8.69673,-0.21344,0.619414063,-0.108452862,31.36635921,2.924883264,0.060323558,0.015422406,28.6186681,9.396973521,-0.001979409,-1.298366753,-1.691726069,33.97837562,3.018625286,-0.067822211,-0.064696459,31.50795777,120.4017323,12.27913196,27.13117,8.70369,-0.21327,31.50795788,120.4017323,12.27930201,0.010195889,-0.002011691,0.547572566
1573538261,31.50797531,120.4017302,12.4951,-1.198155812,1.665320865,-14.04569138,29.97266314,1.062037867,0.023470793,27.38077,8.86025,-0.20903,0.72949962,-0.13286682,31.81911258,2.964660693,0.028127307,0.024018967,28.87475836,9.560958632,0.002519207,-1.198155812,-1.665320865,34.41448289,3.048108564,-0.04540154,-0.053565101,31.50796048,120.4017317,12.28354328,27.3913,8.86906,-0.20829,31.5079606,120.4017316,12.28428333,0.012053431,-0.002730333,0.55561308
1573538261,31.5079777,120.4017296,12.4976,-1.197072429,1.523946038,-14.36830802,30.23766265,0.999341512,0.020972039,27.6411,9.031,-0.20696,0.643617743,-0.059446124,32.21754846,2.960207331,0.037495893,0.016998585,29.10136572,9.711970811,0.005017961,-1.197072429,-1.523946038,34.73709953,2.997447919,-0.056059818,-0.063323311,31.50796322,120.4017309,12.28561462,27.65085,9.03954,-0.20614,31.50796333,120.4017309,12.28643468,0.010663585,-0.001352607,0.562446517
1573538261,31.50798058,120.4017288,12.4997,-1.067890792,1.641230566,-14.77138602,30.55699261,0.924295876,0.018873556,27.89842,9.19997,-0.2029,0.759384101,-0.097700123,32.57187943,2.932480374,0.033699977,0.023695048,29.37460802,9.893470423,0.007116444,-1.067890792,-1.641230566,35.14017753,2.958122433,-0.080191178,-0.080564424,31.50796592,120.4017302,12.28967597,27.90331,9.20526,-0.20184,31.50796598,120.4017302,12.290736,0.012687698,-0.002145573,0.568712231
1573538261,31.50798298,120.4017284,12.4932,-0.978858679,1.800768195,-15.11833313,30.82310086,0.892947687,0.025374836,28.14593,9.3655,-0.19874,0.789395823,-0.292500087,33.01395126,2.894442108,0.021502657,0.030340712,29.61316589,10.01548049,0.000615164,-0.978858679,-1.800768195,35.48712464,2.925776796,-0.095318583,-0.082620501,31.50796853,120.4017295,12.29383729,28.14613,9.36785,-0.19793,31.50796854,120.4017295,12.29464729,0.013258955,-0.005516658,0.576467082
1573538261,31.50798581,120.4017277,12.4968,-0.771206206,1.930806912,-15.47416208,31.1368869,0.818852005,0.021776357,28.38818,9.52719,-0.19211,0.945576826,-0.477281953,33.37599988,2.919436863,-0.00623832,0.034779847,29.88154157,10.19415993,0.004213643,-0.771206206,-1.930806912,35.84295359,2.964250769,-0.122399972,-0.039445693,31.50797109,120.4017288,12.30046859,28.39243,9.53181,-0.19169,31.50797114,120.4017287,12.30088861,0.015943233,-0.008665217,0.582729566
1573538261,31.50798842,120.4017269,12.5006,-0.541815459,1.660450965,-15.73483465,31.42627968,0.750455993,0.017977774,28.63968,9.69299,-0.18696,1.147479537,-0.354416993,33.67110748,2.958085475,-0.013810308,-0.004752326,30.1290331,10.35900573,0.008012226,-0.541815459,-1.660450965,36.10362616,2.956190084,-0.1068491,-0.07340347,31.50797374,120.4017281,12.30561995,28.64607,9.69912,-0.18695,31.50797381,120.401728,12.30562999,0.01945306,-0.006495209,0.587923352
1573538261,31.50799101,120.4017262,12.4997,-0.404660636,1.644304029,-15.99859641,31.71345487,0.678260208,0.018879193,28.8918,9.86371,-0.18782,1.261410362,-0.24025473,33.96454114,2.954321506,0.007346707,-0.031727828,30.37312315,10.52664185,0.007110807,-0.404660636,-1.644304029,36.36738792,2.935989257,-0.097555839,-0.102280359,31.5079764,120.4017273,12.30476133,28.89115,9.86464,-0.1881,31.5079764,120.4017273,12.30448133,0.02161409,-0.004345515,0.593064314
1573538262,31.50799356,120.4017254,12.4985,-0.317533569,1.575323621,-16.25160453,31.99619491,0.605114483,0.020080604,29.13394,10.0299,-0.1899,1.357036803,-0.187974772,34.25530146,2.929330014,0.014425075,-0.021688287,30.61272474,10.69362482,0.005909396,-0.317533569,-1.575323621,36.62039604,2.928707124,-0.082258291,-0.070596906,31.50797897,120.4017265,12.30268268,29.13017,10.02884,-0.18939,31.50797894,120.4017265,12.30319266,0.023525683,-0.003526771,0.598035751
1573538262,31.50799612,120.4017246,12.501,-0.229379758,1.425705078,-16.45916887,32.28004377,0.531018818,0.017582032,29.37213,10.194,-0.18874,1.403035421,-0.103177688,34.49150597,2.937578186,-0.019115089,0.013742218,30.85303516,10.86188425,0.008407968,-0.229379758,-1.425705078,36.82796038,2.932025027,-0.10428633,-0.042281577,31.5079815,120.4017258,12.30384402,29.36445,10.18957,-0.18824,31.50798142,120.4017258,12.30434398,0.024500025,-0.002099908,0.602157276
1573538262,31.50799868,120.4017239,12.5023,-0.111466154,1.246036195,-16.52557532,32.56389261,0.456923155,0.016283476,29.6083,10.353,-0.18687,1.54158652,0.051278286,34.62136761,2.934192557,-0.043354126,-0.007490351,31.09334558,11.03014369,0.009706524,-0.111466154,-1.246036195,36.89436683,2.910723009,-0.090191538,-0.07568923,31.507984,120.4017251,12.30571536,29.60413,10.35118,-0.18634,31.50798396,120.4017251,12.30624533,0.02700023,0.000591256,0.604398372
1573538262,31.50800125,120.4017231,12.5003,0.150744718,1.1915436,-16.5698063,32.84885023,0.387577219,0.018284936,29.84857,10.51259,-0.18843,1.703638688,0.146217636,34.69094365,2.946381182,-0.125060475,0.000747429,31.33634864,11.19433631,0.007705064,0.150744718,-1.1915436,36.93859781,2.940550769,-0.199371988,-0.067938836,31.50798653,120.4017244,12.30415672,29.84512,10.51121,-0.18797,31.5079865,120.4017244,12.3046167,0.029757955,0.002291613,0.605568769
1573538262,31.5080036,120.4017225,12.4999,0.569607445,0.858947475,-16.58978402,33.10941459,0.329630616,0.018686286,30.09679,10.66739,-0.18949,2.17109623,0.452979308,34.75410095,2.966761483,-0.173183045,0.01766876,31.56045138,11.33935202,0.007303714,0.569607445,-0.858947475,36.95857553,2.953700545,-0.211520682,-0.047683777,31.50798912,120.4017238,12.30309813,30.09706,10.66862,-0.18956,31.50798912,120.4017238,12.30302814,0.03787109,0.007702178,0.606626816
1573538262,31.50800644,120.4017217,12.5019,0.968134883,0.510778013,-16.48602484,33.42430941,0.25648491,0.016687933,30.34908,10.82409,-0.18931,2.585715568,0.752177761,34.68871604,2.936656267,-0.131616509,0.065540852,31.83019716,11.51752681,0.009302067,0.968134883,-0.510778013,36.85481635,2.907502421,-0.137736745,0.016710866,31.50799174,120.4017232,12.30327958,30.34751,10.82548,-0.18846,31.50799173,120.4017231,12.30412958,0.045188451,0.012649113,0.605396814
1573538262,31.50800874,120.4017214,12.5029,1.025422638,0.437027796,-16.38270978,33.67932986,0.220387028,0.015689279,30.59049,10.98301,-0.1843,2.681641526,0.854314983,34.63258695,2.856432389,-0.060185993,0.109627365,32.05670734,11.64013034,0.010300721,1.025422638,-0.437027796,36.75150128,2.830234431,-0.109702271,0.042583625,31.50799428,120.4017225,12.30829099,30.58313,10.97877,-0.18455,31.5079942,120.4017225,12.30804095,0.046946722,0.014697993,0.604467845
1573538262,31.50801141,120.4017205,12.5061,0.883020483,0.786243092,-16.28655808,33.97537535,0.142491609,0.012490853,30.81606,11.13455,-0.17863,2.585455029,0.602186085,34.57223236,2.768419881,-0.019358938,0.085590988,32.30712922,11.81619712,0.013499147,0.883020483,-0.786243092,36.65534959,2.731039852,-0.03310399,-0.023870566,31.50799666,120.4017218,12.31396233,30.81344,11.13309,-0.17906,31.50799664,120.4017218,12.31353231,0.045289291,0.010500401,0.60341903
1573538262,31.50801352,120.4017198,12.5079,0.461207192,1.234573208,-16.17258241,34.2093289,0.075045581,0.010692106,31.03655,11.28892,-0.17387,2.22570427,0.097053803,34.4494364,2.694503692,0.054880337,0.05069122,32.50297869,11.96085608,0.015297894,0.461207192,-1.234573208,36.54137392,2.680313398,0.01704851,-0.032695077,31.50799901,120.4017211,12.31872366,31.03303,11.2864,-0.17443,31.50799897,120.4017211,12.31816364,0.039110786,0.001738191,0.601218968
1573538262,31.50801609,120.401719,12.5123,-0.009337197,1.711344773,-16.01722242,34.49428656,-0.005699663,0.006293648,31.2522,11.44228,-0.16925,1.705323565,-0.369543736,34.32331362,2.712233929,-0.002941365,0.047016209,32.74201412,12.13573524,0.019696352,-0.009337197,-1.711344773,36.38601393,2.723335803,-0.062733989,-0.036356572,31.50800132,120.4017204,12.32334497,31.25309,11.44257,-0.16964,31.50800133,120.4017204,12.32295498,0.029963723,-0.006343805,0.599036663
1573538263,31.50801848,120.4017183,12.5157,-0.188010402,1.848178133,-15.85803552,34.75928608,-0.073145687,0.002895091,31.4804,11.59383,-0.16555,1.546014541,-0.520545185,34.15579992,2.734665877,-0.042659096,-0.008047096,32.96696832,12.29120011,0.023094909,-0.188010402,-1.848178133,36.22682703,2.726663577,-0.104176784,-0.075719637,31.50800372,120.4017197,12.32704635,31.47987,11.59314,-0.1655,31.50800372,120.4017197,12.32709635,0.027287252,-0.009116279,0.596148482
1573538263,31.50802087,120.4017176,12.5151,-0.19359463,1.905248988,-15.71884957,35.02428559,-0.134892044,0.003496548,31.70902,11.7386,-0.1646,1.502567371,-0.615673082,34.03223981,2.690724667,-0.095926116,-0.025287636,33.19390634,12.44132169,0.022493452,-0.19359463,-1.905248988,36.08764108,2.686006147,-0.158514149,-0.122904895,31.50800611,120.4017191,12.32799774,31.70748,11.73705,-0.16486,31.50800609,120.4017191,12.32773773,0.026433222,-0.010747519,0.594036722
1573538263,31.50802323,120.401717,12.5102,-0.064011781,2.154349917,-15.61308945,35.28595872,-0.191888676,0.008397997,31.93526,11.87738,-0.16541,1.586483084,-0.812401826,33.93654294,2.668831998,-0.132061206,-0.043835686,33.41937916,12.58583275,0.017592003,-0.064011781,-2.154349917,35.98188096,2.664323151,-0.166835222,-0.167260863,31.50800846,120.4017186,12.32718911,31.93412,11.87658,-0.16511,31.50800845,120.4017186,12.32748911,0.027912855,-0.014268587,0.59232071
1573538263,31.50802559,120.4017165,12.5017,0.177630854,2.511132478,-15.55121671,35.54763182,-0.245085531,0.016899459,32.16197,12.0123,-0.16725,1.865578606,-1.120296611,33.86557938,2.643712328,-0.137417428,-0.081945212,33.64617452,12.72678162,0.009090541,0.177630854,-2.511132478,35.92000822,2.660876344,-0.211652013,-0.203623276,31.5080108,120.4017181,12.32535049,32.1585,12.00921,-0.16711,31.50801076,120.4017181,12.32549047,0.032674701,-0.01958885,0.591127394
