time,ins1000_lat,ins1000_lon,ins1000_alt,ins1000_roll,ins1000_pitch,ins1000_yaw,ins1000_ned_x,ins1000_ned_y,ins1000_ned_z,algo_pose_x,algo_pose_y,algo_pose_z,algo_roll,algo_pitch,algo_yaw,algo_vel_x,algo_vel_y,algo_vel_z,align_pose_x,align_pose_y,align_pose_z,align_roll,align_pitch,align_yaw,align_vel_x,align_vel_y,align_vel_z,algo_lat,algo_lon,algo_alt,loop_pose_x,loop_pose_y,loop_pose_z,loop_lat,loop_lon,loop_alt,loop_roll,loop_pitch,loop_yaw
1573539303,31.50810592,120.4019796,12.5404,0.329263337,1.642287534,169.2734575,0,0,0,1.73597,0.05496,-0.02669,2.503968096,0.610412913,2.653290054,1.425523184,0.044224826,-0.009434723,1.73597,0.05496,-0.02669,0.329263337,-1.642287534,4.945121235,1.503827606,-0.018640673,-0.00309304,31.50810592,120.4019796,12.54040001,,,,,,,,,
1573539303,31.50810398,120.40198,12.5455,0.311586051,1.642359757,168.8353098,-0.215104208,0.038947667,-0.005099997,1.93152,0.07094,-0.04094,2.353727983,0.862435325,3.058911905,1.531997476,0.044582194,-0.014054906,1.953903406,0.072041316,-0.021590003,0.311586051,-1.642359757,5.383268874,1.618528248,-0.017731289,-0.011796722,31.50810418,120.40198,12.52615001,,,,,,,,,
1573539303,31.50810205,120.4019804,12.5503,0.293741395,1.6536345,168.466734,-0.42909963,0.079795223,-0.009899986,2.14164,0.08743,-0.05664,2.068190355,1.177414513,3.439616186,1.649363316,0.044902719,-0.008625952,2.17092505,0.091124549,-0.016790014,0.293741395,-1.6536345,5.75184476,1.73703868,-0.020654682,-0.007723822,31.50810231,120.4019804,12.51045002,,,,,,,,,
1573539303,31.50810006,120.4019806,12.5239,0.28586888,1.677464715,168.0869492,-0.649747757,0.096894203,0.016500033,2.37105,0.1101,-0.06378,1.7990605,1.274608148,3.906131489,1.773764699,0.0453075,-0.005880293,2.392173277,0.085909853,-0.043190033,0.28586888,-1.677464715,6.131629509,1.844098983,-0.039078781,-0.011592713,31.50810027,120.4019808,12.50331004,,,,,,,,,
1573539303,31.50809769,120.4019811,12.5295,0.266654234,1.688759149,167.6374049,-0.9125297,0.147241194,0.010900067,2.61684,0.13202,-0.06957,1.609127152,1.276393296,4.331721662,1.901960706,0.032224352,-0.001818853,2.658690199,0.109529755,-0.037590067,0.266654234,-1.688759149,6.581173864,1.974426812,-0.051606289,-0.015753577,31.50809809,120.4019813,12.49752007,,,,,,,,,
1573539304,31.50809536,120.4019817,12.5356,0.288417654,1.646693102,167.2225163,-1.170876504,0.197588189,0.004800112,2.87993,0.15904,-0.05106,1.67794883,0.849905699,4.779181397,1.993544854,0.031430407,0.000510513,2.920794541,0.133596428,-0.031490112,0.288417654,-1.646693102,6.99606241,2.064160641,-0.056962768,-0.010434076,31.50809575,120.4019819,12.51603011,,,,,,,,,
1573539304,31.50809295,120.4019822,12.5418,0.250919976,1.621017592,166.8068204,-1.438093585,0.252684901,-0.001399833,3.15068,0.18288,-0.06402,1.829823441,0.960870533,5.202098745,2.058505302,0.043737838,-0.010102723,3.192202497,0.161495124,-0.025290167,0.250919976,-1.621017592,7.411758349,2.130889117,-0.043256095,-0.015296183,31.50809334,120.4019824,12.50307016,,,,,,,,,
1573539304,31.50809027,120.4019829,12.5475,0.195108366,1.650582804,166.3668763,-1.73524785,0.316331108,-0.007099755,3.42295,0.21584,-0.04823,2.087090117,0.584939084,5.617447324,2.131090474,0.024005522,-0.006292537,3.494256583,0.194884144,-0.019590245,0.195108366,-1.650582804,7.851702416,2.214963137,-0.070382081,-0.02357041,31.50809093,120.4019831,12.51886023,,,,,,,,,
1573539304,31.50808769,120.4019835,12.5531,0.217986564,1.700968491,165.9749574,-2.021314269,0.376177548,-0.012699668,3.70337,0.2499,-0.02234,2.62973754,0.076127974,6.029069452,2.202030251,0.022849511,-0.003626389,3.784896456,0.225609643,-0.013990332,0.217986564,-1.700968491,8.243621336,2.293238705,-0.069914485,-0.019813522,31.50808844,120.4019837,12.54475031,,,,,,,,,
1573539304,31.50808502,120.4019843,12.5593,0.127144634,1.737095989,165.6040587,-2.317359749,0.443623532,-0.018899561,3.98657,0.28865,0.00068,2.956996762,-0.36637919,6.403996997,2.257568462,0.041548455,-0.01014298,4.086230162,0.262890804,-0.007790439,0.127144634,-1.737095989,8.614520022,2.357184479,-0.056242885,-0.020539015,31.50808594,120.4019844,12.56777041,,,,,,,,,
1573539304,31.50808224,120.4019851,12.5373,-0.014755965,1.812189483,165.266408,-2.625601847,0.520568955,0.003100564,4.27579,0.32807,0.01122,3.28079894,-0.612844364,6.715706968,2.323675053,0.007287963,-0.009166517,4.400655359,0.308394475,-0.029790564,-0.014755965,-1.812189483,8.952170682,2.416349295,-0.080627527,-0.031549715,31.50808338,120.4019851,12.57831052,,,,,,,,,
1573539304,31.50807942,120.4019858,12.5426,-0.026236559,1.880333501,165.1041415,-2.938279094,0.589914837,-0.002199294,4.58839,0.35694,-0.01414,3.24100569,-0.251405554,6.889053754,2.41112605,-0.041357832,-0.007543588,4.718727617,0.34589049,-0.024490706,-0.026236559,-1.880333501,9.114437217,2.497979175,-0.109187342,-0.040835957,31.5080806,120.4019858,12.55295065,,,,,,,,,
1573539304,31.50807629,120.4019866,12.5492,-0.045991869,1.935785311,165.046977,-3.285328662,0.666860275,-0.008799117,4.92466,0.38748,-0.02978,2.856555224,-0.076400828,6.970577663,2.506297573,-0.058980233,-0.007011415,5.071762889,0.387484955,-0.017890883,-0.045991869,-1.935785311,9.171601673,2.582694335,-0.111373481,-0.035051229,31.50807761,120.4019864,12.53731081,,,,,,,,,
1573539305,31.50807376,120.4019873,12.5549,-0.094247486,1.95253678,165.0575111,-3.565851158,0.729556561,-0.014498958,5.26993,0.42232,-0.02856,2.294838242,-0.098338857,6.965170195,2.593801178,-0.072655559,-0.007548646,5.357174114,0.421604264,-0.012191042,-0.094247486,-1.95253678,9.161067645,2.637256588,-0.113328303,-0.038564303,31.50807454,120.4019872,12.538531,,,,,,,,,
1573539305,31.50807021,120.4019882,12.5626,-0.161366076,2.036145305,165.1486455,-3.959469677,0.815051503,-0.022198714,5.63504,0.45212,-0.02334,1.767250377,-0.183484879,6.900558034,2.689786779,-0.082691821,-0.013740249,5.757402685,0.467013683,-0.004491286,-0.161366076,-2.036145305,9.069933175,2.735772055,-0.120880836,-0.043269593,31.50807129,120.4019879,12.54375121,,,,,,,,,
1573539305,31.50806703,120.401989,12.5697,-0.259147579,2.011849342,165.3203902,-4.312063169,0.89104701,-0.029298474,6.0095,0.47874,-0.02684,1.232925317,-0.135675948,6.733951383,2.781460669,-0.111596706,-0.017069257,6.115857991,0.50710459,0.002608474,-0.259147579,-2.011849342,8.898188479,2.800042387,-0.128926127,-0.042007884,31.50806796,120.4019886,12.54025146,,,,,,,,,
1573539305,31.50806378,120.4019898,12.5774,-0.338947229,1.955494963,165.6304582,-4.672418154,0.966092583,-0.036998208,6.39703,0.5024,-0.03276,0.843756517,0.003097926,6.43100365,2.851478289,-0.144657547,-0.009376642,6.481939621,0.54546855,0.010308208,-0.338947229,-1.955494963,8.588120539,2.850495577,-0.15062303,-0.038781817,31.5080645,120.4019892,12.53433173,6.40345,0.50346,-0.03449,31.50806445,120.4019892,12.53260174,0.009884033,0.000505011,0.112522725
1573539305,31.50806021,120.4019905,12.5864,-0.382215484,1.904413153,166.1032711,-5.068254244,1.042088107,-0.045997894,6.7886,0.52407,-0.03548,0.503915842,0.068809704,6.005399936,2.911268656,-0.178079256,0.000902524,6.883417571,0.581203485,0.019307894,-0.382215484,-1.904413153,8.115307643,2.887986713,-0.172099541,-0.023534979,31.50806101,120.4019899,12.53161203,6.79133,0.52597,-0.03469,31.50806099,120.4019899,12.53240203,0.005355796,0.000919605,0.105231657
1573539305,31.50805708,120.4019912,12.5873,-0.387827032,1.731437157,166.6126285,-5.41530381,1.102884534,-0.046897596,7.17899,0.53988,-0.03568,0.29304468,0.22571874,5.49162578,2.888540237,-0.198475067,4.58E-06,7.234826092,0.606731083,0.020207596,-0.387827032,-1.731437157,7.605950235,2.82644135,-0.18473872,-0.01555737,31.50805752,120.4019904,12.53141236,7.17995,0.54052,-0.03562,31.50805751,120.4019904,12.53147236,0.003256342,0.004008183,0.096124041
1573539305,31.50805357,120.4019919,12.5959,-0.394341299,1.674041547,167.2695578,-5.804487196,1.166530801,-0.055497243,7.56354,0.54783,-0.03681,0.172423062,0.304618228,4.885836992,2.85449324,-0.205080482,0.008213404,7.628441191,0.630849729,0.028807243,-0.394341299,-1.674041547,6.94902093,2.787884956,-0.181643429,-0.023903938,31.50805408,120.4019909,12.5302827,,,,,,,,,
1573539306,31.50805036,120.4019924,12.6042,-0.478189676,1.689430947,167.936543,-6.160407045,1.220677633,-0.063796896,7.94567,0.55192,-0.03536,-0.005435676,0.257059913,4.220211018,2.832134899,-0.204118749,0.024947336,7.988005038,0.648868019,0.037106896,-0.478189676,-1.689430947,6.282035683,2.756111684,-0.179604295,-0.010858703,31.50805065,120.4019914,12.53173306,7.94687,0.55393,-0.03345,31.50805064,120.4019914,12.53364306,-0.000460586,0.003779597,0.073956455
1573539306,31.50804691,120.401993,12.6144,-0.532162965,1.65158475,168.6851813,-6.542937727,1.273874526,-0.073996504,8.32496,0.5513,-0.03175,-0.103368845,0.217567666,3.522894165,2.821248261,-0.223075669,0.022930771,8.373948668,0.663260594,0.047306504,-0.532162965,-1.65158475,5.533397437,2.727399285,-0.18852231,-0.009462592,31.50804725,120.4019918,12.53534344,,,,,,,,,
1573539306,31.50804399,120.4019934,12.6222,-0.594329923,1.682551329,169.3409525,-6.866702826,1.313772206,-0.081796155,8.69485,0.54565,-0.02656,-0.081512135,0.087975756,2.819166768,2.779681845,-0.217945682,0.017548084,8.700085952,0.670341277,0.055106155,-0.594329923,-1.682551329,4.877626192,2.696061492,-0.193598908,-0.021178899,31.50804392,120.4019921,12.54053384,8.69808,0.55098,-0.01914,31.5080439,120.4019922,12.54795384,-0.000746997,-0.001081846,0.049485647
1573539306,31.50804084,120.4019938,12.6297,-0.613516043,1.764115539,170.0644759,-7.215969972,1.351770002,-0.089295759,9.07073,0.53818,-0.01629,-0.074006577,-0.161395251,2.092669246,2.799745388,-0.215028243,0.016845807,9.051404182,0.672962826,0.062605759,-0.613516043,-1.764115539,4.154102818,2.709222793,-0.193891185,-0.027492518,31.50804054,120.4019924,12.55080426,,,,,,,,,
1573539306,31.50803739,120.4019942,12.6383,-0.621101744,1.87025092,170.8461327,-7.598500656,1.386917975,-0.097895306,9.44899,0.52561,-0.00605,-0.055206666,-0.400439613,1.368460573,2.848120701,-0.224132149,0.014269076,9.43552968,0.669398288,0.071205306,-0.621101744,-1.87025092,3.372446012,2.756380248,-0.211308933,-0.027463511,31.50803714,120.4019927,12.5610447,,,,,,,,,
1573539306,31.50803409,120.4019945,12.6022,-0.611017649,1.896842508,171.5695882,-7.964399518,1.412566501,-0.061794852,9.83252,0.50944,0.00563,-0.068271765,-0.514132644,0.658074374,2.838823704,-0.204889909,0.00258268,9.802151041,0.658058007,0.035104852,-0.611017649,-1.896842508,2.648990536,2.720729353,-0.203015742,-0.042345811,31.50803368,120.4019929,12.57272518,9.8379,0.51433,0.01098,31.50803364,120.401993,12.57807519,-0.001242617,-0.010672967,0.011726849
1573539306,31.50803087,120.4019947,12.6067,-0.631707859,2.036347114,172.2584698,-8.321428151,1.436315147,-0.066294388,10.21989,0.49015,0.01527,-0.089189109,-0.732269485,-0.030370391,2.898306285,-0.199474047,-4.13E-05,10.15975591,0.645721041,0.039604388,-0.631707859,-2.036347114,1.960108963,2.775955291,-0.208639101,-0.058878938,31.50803019,120.4019931,12.58236569,,,,,,,,,
1573539306,31.50802756,120.4019949,12.6135,-0.634488109,2.096436752,172.9465393,-8.68843585,1.45626402,-0.073093892,10.61464,0.46573,0.02455,-0.011574305,-0.898497158,-0.716132975,2.982864479,-0.187016869,-0.002122605,10.52690632,0.628598403,0.046403892,-0.634488109,-2.096436752,1.272039466,2.855761685,-0.202437219,-0.036435062,31.50802662,120.4019933,12.59164622,10.61276,0.46758,0.02762,31.50802664,120.4019933,12.59471622,0.0008874,-0.01741503,-0.012328311
1573539307,31.50802388,120.4019951,12.6221,-0.644293102,2.087546544,173.6241514,-9.096468583,1.47526296,-0.081693317,11.01634,0.43608,0.03452,0.044207362,-1.0308892,-1.346934674,3.082767002,-0.171086217,-0.004602181,10.9347774,0.60639806,0.055003317,-0.644293102,-2.087546544,0.594427286,2.973466309,-0.19803638,-0.052776733,31.50802299,120.4019934,12.6016168,,,,,,,,,
1573539307,31.50802033,120.4019953,12.6304,-0.723827465,2.063410332,174.2198039,-9.490087115,1.492362008,-0.089992738,11.43143,0.40325,0.04717,0.0619275,-1.153078197,-1.9396957,3.189608234,-0.167713221,-0.014788337,11.32811621,0.583759484,0.063302738,-0.723827465,-2.063410332,-0.001225136,3.083647556,-0.200552749,-0.059703715,31.50801924,120.4019935,12.61426741,11.43583,0.40567,0.0482,31.5080192,120.4019935,12.61529742,0.002802219,-0.021456257,-0.033713616
1573539307,31.50801665,120.4019954,12.6384,-0.758359266,2.030290574,174.7585399,-9.898119849,1.503761398,-0.097992113,11.86745,0.36678,0.0555,0.129576855,-1.216755117,-2.487197834,3.308212416,-0.166682965,-0.005383538,11.73522176,0.553998246,0.071302113,-0.758359266,-2.030290574,-0.539961134,3.191565406,-0.212755955,-0.042214624,31.50801529,120.4019936,12.62259809,,,,,,,,,
1573539307,31.50801253,120.4019955,12.6483,-0.746911839,1.988010089,175.2981732,-10.35493911,1.51421085,-0.107891381,12.31929,0.32555,0.06848,0.18770041,-1.260648854,-2.993421849,3.437081925,-0.163018737,-0.005415624,12.19076998,0.518377456,0.081201381,-0.746911839,-1.988010089,-1.079594443,3.327576248,-0.208872242,-0.05309244,31.5080112,120.4019936,12.63557883,12.32342,0.32698,0.07013,31.50801117,120.4019937,12.63722883,0.004024871,-0.023143481,-0.052136157
1573539307,31.50800854,120.4019956,12.6567,-0.819381897,1.987835805,175.7440147,-10.79734417,1.52181047,-0.116290644,12.78859,0.2812,0.07903,0.170320201,-1.315594429,-3.449622258,3.566399551,-0.137792898,-0.012666419,12.63169025,0.481373325,0.089600644,-0.819381897,-1.987835805,-1.525435987,3.460016277,-0.199154701,-0.053902921,31.50800695,120.4019937,12.64612962,,,,,,,,,
1573539307,31.50800441,120.4019957,12.631,-0.845939207,1.955165893,176.1225894,-11.25527215,1.527510195,-0.090589848,13.27234,0.23677,0.08032,0.303069872,-1.251143103,-3.812145753,3.702426747,-0.129286102,-0.025594622,13.0878631,0.440915282,0.063899848,-0.845939207,-1.955165893,-1.904010686,3.582466258,-0.203353478,-0.067571888,31.50800257,120.4019937,12.64742048,,,,,,,,,
1573539307,31.50799978,120.4019957,12.6391,-0.919012033,1.920948761,176.4770826,-11.76863942,1.532259993,-0.098688916,13.77619,0.18713,0.08239,0.279210359,-1.184728291,-4.155669771,3.842844361,-0.121270089,-0.026419528,13.59909756,0.393927539,0.071998916,-0.919012033,-1.920948761,-2.258503901,3.730210313,-0.198797255,-0.070374221,31.507998,120.4019937,12.64949142,13.77902,0.18992,0.07828,31.50799798,120.4019938,12.64538142,0.005687377,-0.019987649,-0.072396662
1573539308,31.50799532,120.4019957,12.6464,-0.970348802,1.852369786,176.717377,-12.26315735,1.535109901,-0.105987981,14.29799,0.13636,0.08418,0.264105869,-1.081570773,-4.407557052,3.981715969,-0.107236543,-0.032260145,14.09138717,0.346948334,0.079297981,-0.970348802,-1.852369786,-2.498798287,3.869315463,-0.208979123,-0.075260313,31.50799327,120.4019938,12.65128243,,,,,,,,,
1573539308,31.5079907,120.4019958,12.6537,-1.056198218,1.794968153,176.9803411,-12.77541584,1.537009866,-0.113286969,14.8402,0.08565,0.07984,0.188140809,-0.875439479,-4.657588854,4.111060507,-0.098791353,-0.023260168,14.6012314,0.297236946,0.086596969,-1.056198218,-1.794968153,-2.761762361,3.986858743,-0.199562586,-0.069302822,31.50798836,120.4019938,12.64694352,14.83926,0.09094,0.06958,31.50798838,120.4019939,12.63668352,0.004270861,-0.013017864,-0.081031557
1573539308,31.50798558,120.4019958,12.6622,-1.118998459,1.715499429,177.2324783,-13.34311356,1.536060008,-0.121785803,15.39271,0.03202,0.07381,0.181602551,-0.680425778,-4.889989357,4.23582239,-0.103531591,-0.01521507,15.1659458,0.239105633,0.095095803,-1.118998459,-1.715499429,-3.01389962,4.120417081,-0.222778794,-0.065141746,31.50798336,120.4019938,12.64091468,,,,,,,,,
1573539308,31.50798069,120.4019957,12.6703,-1.149063084,1.682630432,177.4729678,-13.88530923,1.532260313,-0.129884642,15.96099,-0.02709,0.06907,0.239426532,-0.53185923,-5.119390911,4.33496916,-0.102878387,-0.007830137,15.7050008,0.180707892,0.103194642,-1.149063084,-1.682630432,-3.254389112,4.210031495,-0.220875154,-0.065188723,31.5079782,120.4019938,12.63617593,15.95927,-0.02382,0.06438,31.50797822,120.4019938,12.63148593,0.006946638,-0.008539672,-0.088959994
1573539308,31.50797608,120.4019957,12.6775,-1.202745657,1.660677951,177.690124,-14.39645893,1.527510666,-0.137083506,16.54009,-0.08919,0.06752,0.330758077,-0.475568738,-5.337623264,4.429494089,-0.08951305,-0.012199345,16.21307206,0.124492409,0.110393506,-1.202745657,-1.660677951,-3.47154525,4.297141271,-0.216809394,-0.072127354,31.50797295,120.4019938,12.63462725,,,,,,,,,
1573539308,31.50797026,120.4019956,12.6244,-1.280032556,1.754301876,177.9975716,-15.04177143,1.51706136,-0.083982012,17.12814,-0.15251,0.06103,0.402349063,-0.444051641,-5.532833997,4.511443224,-0.098264807,-0.018915085,16.85404953,0.049091543,0.057292012,-1.280032556,-1.754301876,-3.778992877,4.370071166,-0.229321204,-0.108081441,31.50796762,120.4019937,12.62813865,17.12421,-0.14901,0.05176,31.50796766,120.4019938,12.61886864,0.00861738,-0.00639319,-0.096185976
1573539308,31.50796508,120.4019954,12.6293,-1.300371718,1.778990903,178.1917903,-15.61612185,1.506612053,-0.08888063,17.72687,-0.22007,0.05318,0.478875179,-0.399477501,-5.713089158,4.58825147,-0.083349998,-0.018294411,17.42442587,-0.019161051,0.06219063,-1.300371718,-1.778990903,-3.973211625,4.446987804,-0.228345187,-0.10481047,31.50796218,120.4019937,12.62029014,,,,,,,,,
1573539308,31.50795982,120.4019953,12.6353,-1.287812702,1.849451908,178.328713,-16.19934255,1.494262861,-0.094879172,18.33426,-0.29088,0.04996,0.578401259,-0.385970518,-5.817804577,4.663671031,-0.081511204,-0.01839491,18.00343599,-0.090197402,0.068189172,-1.287812702,-1.849451908,-4.110134319,4.52510376,-0.230249136,-0.107295634,31.50795667,120.4019936,12.6170717,18.32629,-0.28827,0.04482,31.50795674,120.4019936,12.61193168,0.012022893,-0.006080035,-0.101161859
1573539309,31.50795447,120.4019952,12.6409,-1.320390319,1.838660962,178.4314543,-16.7925423,1.480963722,-0.100477635,18.94803,-0.36214,0.04495,0.668917796,-0.332672991,-5.907299207,4.724087266,-0.073147339,-0.025947283,18.59227872,-0.163184095,0.073787635,-1.320390319,-1.838660962,-4.212875595,4.583956241,-0.230526601,-0.109571872,31.5079511,120.4019935,12.61206333,,,,,,,,,
1573539309,31.50794863,120.401995,12.6477,-1.35236372,1.793680659,178.5460781,-17.44007251,1.465764699,-0.107275894,19.57915,-0.4358,0.03876,0.721359206,-0.256128297,-5.97237865,4.794770845,-0.067032705,-0.028212507,19.23498416,-0.243533916,0.080585894,-1.35236372,-1.793680659,-4.327499336,4.648832283,-0.220500352,-0.097587333,31.50794537,120.4019934,12.60587508,19.57602,-0.43443,0.03519,31.5079454,120.4019934,12.60230507,0.013437028,-0.004207378,-0.103998117
1573539309,31.50794315,120.4019949,12.6544,-1.419224414,1.724893295,178.6146483,-18.04768647,1.451515615,-0.1139742,20.21467,-0.51084,0.03329,0.693288614,-0.156294429,-6.025617177,4.854927189,-0.065510543,-0.027152931,19.83807209,-0.318917719,0.0872842,-1.419224414,-1.724893295,-4.396069627,4.700811663,-0.220512163,-0.092125952,31.5079396,120.4019932,12.6004069,,,,,,,,,
1573539309,31.50793761,120.4019947,12.6615,-1.474154009,1.622103209,178.6840435,-18.66195314,1.436316585,-0.121072428,20.861,-0.58882,0.03265,0.601418686,-0.088574841,-6.075608266,4.888473879,-0.062529477,-0.010131427,20.44768319,-0.395916787,0.094382428,-1.474154009,-1.622103209,-4.465464766,4.728727875,-0.221917208,-0.082424383,31.50793373,120.4019931,12.59976882,,,,,,,,,
1573539309,31.50793162,120.4019945,12.6685,-1.486134948,1.667798236,178.6946087,-19.32611512,1.418267725,-0.128070446,21.50093,-0.66501,0.03055,0.511330139,-0.099042806,-6.087028505,4.904665513,-0.068332125,-0.003348638,21.10664873,-0.480777328,0.101380446,-1.486134948,-1.667798236,-4.476029965,4.748705774,-0.235137393,-0.096377464,31.50792791,120.401993,12.59767079,21.49604,-0.66233,0.02827,31.50792796,120.401993,12.59539078,0.007263188,-0.000995361,-0.106354422
1573539309,31.5079258,120.4019944,12.6489,-1.56703746,1.770511644,178.7264102,-19.97142768,1.405918526,-0.108468454,22.1473,-0.73819,0.02885,0.357964791,-0.150925394,-6.046885534,4.936124253,-0.045746428,0.001393385,21.74743487,-0.558068428,0.081778454,-1.56703746,-1.770511644,-4.507831472,4.780290875,-0.213801255,-0.098521291,31.50792205,120.4019929,12.59597285,22.14395,-0.73596,0.02963,31.50792208,120.4019929,12.59675283,0.004744462,-0.002232732,-0.105595047
1573539309,31.50792017,120.4019942,12.6549,-1.637559167,1.907139649,178.7119074,-20.5956734,1.392619379,-0.114466463,22.8003,-0.81054,0.03027,0.19382136,-0.259457135,-6.028483224,4.977976857,-0.028367227,-0.033306672,22.36716566,-0.634182505,0.087776463,-1.637559167,-1.907139649,-4.493328646,4.817666708,-0.199415174,-0.127648923,31.50791612,120.4019929,12.59739499,,,,,,,,,
1573539310,31.50791405,120.4019941,12.6606,-1.730302564,1.963100267,178.686597,-21.27424957,1.377420351,-0.120164231,23.46318,-0.88304,0.02695,0.044002721,-0.292600688,-5.992561874,5.022951228,-0.031725114,-0.033727409,23.04075915,-0.717659705,0.093474231,-1.730302564,-1.963100267,-4.468018319,4.860646009,-0.209997288,-0.12567376,31.50791011,120.4019928,12.59407723,23.46541,-0.88096,0.02394,31.50791009,120.4019928,12.59106723,-1.07E-05,-0.004386561,-0.104607924
1573539310,31.50790832,120.4019939,12.6677,-1.78816145,1.927188351,178.6288612,-21.90958315,1.364121204,-0.127262074,24.13499,-0.95555,0.02294,-0.082166542,-0.230302427,-5.928020999,5.078139075,-0.042647903,-0.021383061,23.67152138,-0.794890702,0.100572074,-1.78816145,-1.927188351,-4.410282448,4.905636351,-0.226049606,-0.109839106,31.50790402,120.4019927,12.59006957,,,,,,,,,
1573539310,31.5079021,120.4019938,12.6769,-1.822658942,1.845472366,178.5608153,-22.59924718,1.349872119,-0.136459661,24.80195,-1.02298,0.01788,-0.176102325,-0.079002643,-5.858079372,5.102085859,-0.015739993,-0.009303471,24.35624202,-0.878539712,0.109769661,-1.822658942,-1.845472366,-4.342236595,4.936247102,-0.214978309,-0.093797045,31.50789797,120.4019927,12.58501197,24.7959,-1.01903,0.01922,31.50789803,120.4019928,12.58635195,-0.005310586,-0.000712084,-0.102163105
1573539310,31.50789674,120.4019937,12.6847,-1.845945274,1.763502183,178.4700752,-23.19355574,1.337522909,-0.144257521,25.47373,-1.09057,0.01909,-0.334829479,0.064672533,-5.741365655,5.120034547,-0.017037742,-0.001700365,24.9462836,-0.950693002,0.117567521,-1.845945274,-1.763502183,-4.251496444,4.955035316,-0.221971063,-0.106739276,31.50789188,120.4019928,12.58622446,,,,,,,,,
1573539310,31.50789092,120.4019936,12.6913,-1.916454232,1.772368915,178.3769934,-23.83886838,1.32802354,-0.150855134,26.16108,-1.16382,0.02048,-0.422350094,0.026297664,-5.623104703,5.160648626,-0.011755862,-0.002598089,25.5873569,-1.025148776,0.124165134,-1.916454232,-1.772368915,-4.1584147,4.9760358,-0.209357463,-0.107712292,31.50788565,120.4019927,12.58761708,26.16494,-1.16505,0.02064,31.50788561,120.4019927,12.58777709,-0.007241742,0.000265686,-0.097981153
1573539310,31.50788413,120.4019935,12.7165,-1.997725971,1.75841306,178.2957506,-24.59173319,1.32232397,-0.176052267,26.85142,-1.23418,0.01935,-0.472684442,0.024311998,-5.504939017,5.19543853,-0.013844549,-0.015090178,26.33581807,-1.106658208,0.149362267,-1.997725971,-1.75841306,-4.077171866,5.018411505,-0.21084319,-0.098744346,31.50787939,120.4019927,12.58648978,26.84987,-1.23473,0.01985,31.5078794,120.4019927,12.58698978,-0.008562813,0.000269633,-0.095958852
1573539310,31.50787778,120.4019934,12.725,-2.033323656,1.768167129,178.2262648,-25.29581142,1.312824607,-0.184549503,27.5403,-1.30449,0.01882,-0.522003163,0.000535475,-5.418830516,5.216558619,-0.028211776,-0.00188835,27.03535805,-1.187033651,0.157859503,-2.033323656,-1.768167129,-4.007686055,5.028359709,-0.219353557,-0.097038647,31.50787314,120.4019927,12.58596256,27.71552,-1.22028,0.01557,31.50787165,120.4019938,12.58271325,-0.00791368,0.000120999,-0.090792548
1573539310,31.50787186,120.4019933,12.7339,-2.103883364,1.823384983,178.1668582,-25.95221193,1.305225126,-0.193446859,28.23724,-1.37649,0.0134,-0.515395855,-0.042356573,-5.332572662,5.254550779,-0.031280116,-0.006246114,27.6876542,-1.260716122,0.166756859,-2.103883364,-1.823384983,-3.948279429,5.059914432,-0.217318556,-0.098390046,31.50786682,120.4019927,12.58054544,28.44462,-1.2917,0.0151,31.50786504,120.4019938,12.58224629,-0.006491224,-0.001690586,-0.089044728
1573539311,31.50786545,120.4019932,12.7432,-2.174101078,1.843939483,178.0965871,-26.66294287,1.297625652,-0.202743917,28.9599,-1.45892,0.0116,-0.445781421,-0.109912532,-5.249758179,5.317057901,-0.051852885,-0.025254135,28.39400444,-1.339871494,0.176053917,-2.174101078,-1.843939483,-3.87800842,5.091273022,-0.228048128,-0.107202636,31.50786026,120.4019926,12.57874852,29.1646,-1.35194,0.01585,31.50785852,120.4019939,12.58299937,-0.008391239,-0.002209895,-0.087679608
1573539311,31.50785946,120.4019932,12.7514,-2.186064492,1.819754033,178.0395536,-27.32710486,1.289076227,-0.210941097,29.66364,-1.52999,0.01243,-0.486688519,-0.119542471,-5.185416267,5.339257521,-0.058472013,-0.023507443,29.0539269,-1.41528092,0.184251097,-2.186064492,-1.819754033,-3.820974843,5.105730601,-0.231108198,-0.112383863,31.50785388,120.4019926,12.57958159,29.87977,-1.42022,0.01656,31.50785205,120.401994,12.58371252,-0.008369794,-0.002742515,-0.086035465
1573539311,31.50785345,120.4019931,12.7612,-2.22152833,1.806217432,177.9702849,-27.99348443,1.282426691,-0.220738195,30.37709,-1.60803,0.01421,-0.502716325,-0.147451585,-5.107278577,5.383070801,-0.05578075,-0.008823186,29.71624705,-1.489023507,0.194048195,-2.22152833,-1.806217432,-3.751706132,5.144405432,-0.226256105,-0.086621824,31.50784741,120.4019925,12.58136479,30.64068,-1.47522,0.01872,31.50784517,120.4019942,12.58587595,-0.008719002,-0.00306844,-0.083912065
1573539311,31.50784693,120.401993,12.7725,-2.278899026,1.769944145,177.9242573,-28.71641202,1.276727108,-0.232034971,31.09896,-1.68654,0.01665,-0.569750697,-0.137512295,-5.045320972,5.41587143,-0.061018499,-0.016865948,30.43492327,-1.567517264,0.205344971,-2.278899026,-1.769944145,-3.705678552,5.158994042,-0.220127551,-0.094611824,31.50784086,120.4019925,12.5838081,31.36521,-1.53533,0.02352,31.50783861,120.4019943,12.5906793,-0.010647315,-0.002960396,-0.082268586
1573539311,31.50784086,120.401993,12.7808,-2.33701214,1.756082318,177.8548766,-29.38944429,1.271977464,-0.240331893,31.81092,-1.76228,0.01977,-0.667654142,-0.156297351,-4.970579403,5.435439838,-0.06722781,-0.028042714,31.10405366,-1.640039774,0.213641893,-2.33701214,-1.756082318,-3.636297898,5.182976072,-0.227582374,-0.107746335,31.50783441,120.4019924,12.58693145,32.08695,-1.58924,0.02565,31.50783209,120.4019945,12.59281272,-0.012935447,-0.002862531,-0.080444866
1573539311,31.50783426,120.401993,12.7782,-2.360051403,1.743736195,177.8318563,-30.12124209,1.27482739,-0.237728465,32.51217,-1.83235,0.02246,-0.760314881,-0.164315869,-4.882096273,5.453416541,-0.077581045,-0.015090432,31.8324162,-1.710921038,0.211038465,-2.360051403,-1.743736195,-3.613277539,5.222700679,-0.225539502,-0.097433733,31.50782805,120.4019924,12.58962483,32.82006,-1.64404,0.02584,31.50782546,120.4019947,12.59300628,-0.013735352,-0.002940775,-0.078421558
1573539311,31.50782811,120.401993,12.788,-2.371906422,1.719436272,177.7748755,-30.80314465,1.271027692,-0.247525196,33.22614,-1.90459,0.02311,-0.799048612,-0.144911391,-4.823688371,5.474853904,-0.081621748,-0.007615905,32.51046745,-1.783391972,0.220835196,-2.371906422,-1.719436272,-3.556296752,5.244106237,-0.231886065,-0.091863576,31.50782158,120.4019924,12.59027835,33.55813,-1.69423,0.02741,31.50781879,120.401995,12.59457995,-0.014816223,-0.002470272,-0.076742354
1573539312,31.50782146,120.4019929,12.7983,-2.406584269,1.682980087,177.7063583,-31.54048643,1.268177945,-0.25782158,33.94291,-1.97194,0.02418,-0.888825197,-0.111410464,-4.749317403,5.502738295,-0.068161455,-0.016339291,33.24377163,-1.860502384,0.23113158,-2.406584269,-1.682980087,-3.48777957,5.278833823,-0.222033098,-0.095680639,31.50781509,120.4019925,12.59135197,34.30111,-1.73969,0.02696,31.50781208,120.4019953,12.59413372,-0.016219695,-0.001386742,-0.074708541
1573539312,31.50781526,120.4019929,12.8071,-2.44193622,1.680858083,177.6371236,-32.22793291,1.267228085,-0.266618129,34.66678,-2.03326,0.02253,-0.959796897,-0.059719448,-4.662521316,5.519637099,-0.055644055,-0.015247353,33.92762568,-1.930696434,0.239928129,-2.44193622,-1.680858083,-3.418544865,5.295041791,-0.221470472,-0.099581108,31.50780853,120.4019926,12.5897057,35.04332,-1.77803,0.02504,31.50780539,120.4019957,12.59221758,-0.017558038,-0.000376203,-0.072454997
1573539312,31.50780904,120.4019929,12.8161,-2.477618597,1.690223119,177.5788527,-32.91759696,1.267228171,-0.275614593,35.38842,-2.08834,0.02075,-1.049292547,-0.030337269,-4.56298802,5.53456736,-0.049574331,-0.001018477,34.61378171,-2.000168754,0.248924593,-2.477618597,-1.690223119,-3.360273976,5.309730748,-0.223910973,-0.097623078,31.50780201,120.4019928,12.5879295,35.79252,-1.81598,0.02411,31.50779863,120.4019961,12.59129157,-0.018831176,-1.99E-05,-0.070097379
1573539312,31.50780279,120.4019929,12.8262,-2.502518203,1.710442536,177.4748977,-33.61058737,1.266278311,-0.285710964,36.11698,-2.14331,0.02121,-1.107555026,-0.035902615,-4.42418422,5.551385668,-0.044524739,0.013293253,35.30315148,-2.070921264,0.259020964,-2.502518203,-1.710442536,-3.256319009,5.325027081,-0.230115133,-0.087809584,31.50779542,120.401993,12.58839342,36.5441,-1.85154,0.02411,31.50779185,120.4019965,12.59129565,-0.019744598,-0.000202755,-0.067133739
1573539312,31.50779605,120.4019929,12.8363,-2.529054504,1.799367195,177.3693973,-34.35790822,1.268178295,-0.295806966,36.84771,-2.19612,0.02045,-1.16550984,-0.080395092,-4.294138419,5.581922967,-0.038005825,-0.013398168,36.04686243,-2.144311333,0.269116966,-2.529054504,-1.799367195,-3.150818552,5.356203687,-0.226700632,-0.11384873,31.50778882,120.4019932,12.58763743,37.29838,-1.8853,0.02392,31.50778506,120.401997,12.59110984,-0.020799273,-0.000989597,-0.064344183
1573539312,31.50778918,120.401993,12.8204,-2.540835849,1.774942729,177.3124545,-35.11964313,1.271028225,-0.2799028,37.58297,-2.24714,0.018,-1.188045748,-0.061308742,-4.141840299,5.593471038,-0.014585376,-0.013640584,36.8050098,-2.21820827,0.2532128,-2.540835849,-1.774942729,-3.093875812,5.38332704,-0.216312047,-0.110287342,31.50778217,120.4019935,12.58519156,38.05064,-1.91486,0.02205,31.50777828,120.4019975,12.5892441,-0.02124311,-0.000888943,-0.061063336
1573539312,31.50778236,120.401993,12.8312,-2.566575404,1.770446296,177.1399769,-35.87583427,1.276727997,-0.290698574,38.31384,-2.29217,0.01767,-1.253308003,-0.064935154,-3.943391791,5.614044685,-0.000456686,0.004468506,37.55792867,-2.288711415,0.264008574,-2.566575404,-1.770446296,-2.921398222,5.411023152,-0.20954398,-0.091989734,31.50777557,120.4019938,12.58486574,38.80645,-1.94072,0.02148,31.50777147,120.401998,12.58867848,-0.022198874,-0.001073952,-0.057079407
1573539312,31.507776,120.4019931,12.8428,-2.638203452,1.764349416,176.9441989,-36.58102131,1.286227551,-0.30229455,39.04868,-2.33396,0.0173,-1.347248072,-0.033368457,-3.714410746,5.624429103,0.021355698,0.003577491,38.26048566,-2.350296276,0.27560455,-2.638203452,-1.764349416,-2.725620179,5.436428279,-0.203229116,-0.088667302,31.50776894,120.4019941,12.58450003,39.56797,-1.96316,0.02099,31.50776462,120.4019986,12.58819297,-0.023392327,-0.000615654,-0.052622231
1573539313,31.50776962,120.4019933,12.8521,-2.641850335,1.747010449,176.6921241,-37.28842592,1.298576946,-0.311590435,39.78816,-2.37384,0.01491,-1.346501681,-0.019643125,-3.426817293,5.625884748,0.028453037,-0.014694211,38.965536,-2.409269175,0.284900435,-2.641850335,-1.747010449,-2.473545346,5.434389093,-0.204931421,-0.113789959,31.50776227,120.4019945,12.58211443,40.32448,-1.98149,0.0195,31.50775781,120.4019992,12.58670753,-0.023675471,-0.000497448,-0.047081892
1573539313,31.50776273,120.4019934,12.862,-2.58925992,1.717699428,176.3380282,-38.05237855,1.314726135,-0.321485902,40.52269,-2.40913,0.01286,-1.300039834,0.003038556,-3.065914903,5.649593059,0.035824267,-0.009560065,39.72722949,-2.470157899,0.294795902,-2.58925992,-1.717699428,-2.119449484,5.478085935,-0.20074866,-0.092106009,31.50775565,120.4019949,12.58006889,41.08655,-1.99424,0.01693,31.50775097,120.4019998,12.58414221,-0.022648465,0.000165221,-0.040167317
1573539313,31.50775631,120.4019937,12.8722,-2.613758589,1.581614793,175.9279232,-38.7642183,1.336575002,-0.331681594,41.26397,-2.43482,0.00918,-1.315480655,0.132724921,-2.616912102,5.636390042,0.069137172,0.01216706,40.43764933,-2.520126414,0.304991594,-2.613758589,-1.581614793,-1.70934451,5.466298531,-0.189473965,-0.080526338,31.50774897,120.4019954,12.57639346,41.84766,-1.99549,0.01372,31.50774413,120.4020006,12.58093697,-0.022961453,0.002395279,-0.031810864
1573539313,31.50774989,120.401994,12.882,-2.645997644,1.62637346,175.4215338,-39.47605805,1.366973392,-0.341477204,42.00038,-2.44842,0.00674,-1.353602238,0.127891081,-2.078160127,5.638165445,0.085424237,0.004704318,41.1489304,-2.561588894,0.314787204,-2.645997644,-1.62637346,-1.20295505,5.483826024,-0.183689548,-0.099162867,31.50774235,120.4019961,12.5739581,42.60866,-1.98721,0.0118,31.50773731,120.4020015,12.57902181,-0.023607009,0.002281235,-0.0219489
1573539313,31.50774296,120.4019944,12.89,-2.710859601,1.586624359,174.802097,-40.2444458,1.407821209,-0.349472373,42.74089,-2.4526,0.00106,-1.407147309,0.165517401,-1.454062288,5.661663919,0.113772336,-0.021447149,41.91752444,-2.598351388,0.322782373,-2.710859601,-1.586624359,-0.583518314,5.514138928,-0.169196486,-0.108439113,31.5077357,120.4019968,12.56828283,43.37307,-1.96932,0.0062,31.50773047,120.4020025,12.57342677,-0.024476663,0.003033751,-0.010337966
1573539313,31.5077355,120.401995,12.8918,-2.747367972,1.469177799,174.2651451,-41.07159909,1.467667976,-0.351267067,43.48412,-2.44789,-0.00666,-1.422521883,0.236108096,-0.736380474,5.663751886,0.135753974,-0.019446592,42.74649894,-2.622131241,0.324577067,-2.747367972,-1.469177799,-0.046566414,5.559971337,-0.137881107,-0.091895685,31.50772904,120.4019976,12.56056767,44.13556,-1.93993,-0.00093,31.50772366,120.4020036,12.56630181,-0.02471543,0.004052567,0.002610128
1573539313,31.50772898,120.4019956,12.9014,-2.755565156,1.428186755,173.5087083,-41.79452669,1.525614843,-0.360862338,44.22467,-2.42987,-0.01183,-1.420798661,0.302234072,0.067304903,5.676973499,0.134245366,0.018040156,43.47158651,-2.63730229,0.334172338,-2.755565156,-1.428186755,0.709870437,5.585751389,-0.154766688,-0.059344308,31.50772241,120.4019986,12.55540257,44.90099,-1.89917,-0.00588,31.50771682,120.4020049,12.56135695,-0.024717384,0.005172364,0.017137713
1573539314,31.50772194,120.4019964,12.9112,-2.681995762,1.343615209,172.638542,-42.57511108,1.598760886,-0.370657137,44.969,-2.4024,-0.0167,-1.34687684,0.380002605,0.934120443,5.680096513,0.143812775,-0.006469837,44.25556867,-2.643159458,0.343967137,-2.681995762,-1.343615209,1.580036706,5.591607739,-0.143706453,-0.098171072,31.50771576,120.4019997,12.55053759,45.66921,-1.85056,-0.01134,31.50770998,120.4020062,12.5559022,-0.023240248,0.006377885,0.032409526
1573539314,31.50771542,120.4019973,12.9153,-2.741353237,1.365081914,171.7413854,-43.29803863,1.680456447,-0.37475223,45.71414,-2.3619,-0.02783,-1.364988762,0.355596036,1.852374686,5.691529775,0.189127032,-0.03063088,44.98304849,-2.634702608,0.34806223,-2.741353237,-1.365081914,2.477193287,5.618620154,-0.121569266,-0.105815719,31.50770911,120.4020009,12.53941268,46.44338,-1.78744,-0.02235,31.50770309,120.4020077,12.54489758,-0.02351196,0.006358699,0.049034036
1573539314,31.50770836,120.4019984,12.9217,-2.783297053,1.280117131,170.6967397,-44.08084056,1.783050873,-0.381146818,46.46859,-2.30944,-0.03872,-1.378395808,0.437916594,2.858895869,5.719933692,0.184988984,-0.010866118,45.77220336,-2.611484566,0.354456818,-2.783297053,-1.280117131,3.521838992,5.646006445,-0.127029331,-0.076109625,31.50770239,120.4020023,12.52852793,47.2197,-1.70891,-0.03293,31.50769619,120.4020093,12.53432307,-0.023614859,0.007717821,0.067166564
1573539314,31.50770229,120.4019994,12.9277,-2.7244538,1.125057739,169.7462845,-44.75387282,1.881845504,-0.387142085,47.22581,-2.24396,-0.04954,-1.288809242,0.601517613,3.931688618,5.74477898,0.170597199,-0.012126623,46.45176414,-2.580989485,0.360452085,-2.7244538,-1.125057739,4.472294219,5.676259027,-0.14932595,-0.081355775,31.50769565,120.4020037,12.51771328,48.01339,-1.62027,-0.04654,31.50768915,120.4020111,12.52071878,-0.021517421,0.0107392,0.086337938
1573539314,31.50769523,120.4020008,12.9322,-2.630292648,1.071825905,168.5165674,-45.53667474,2.011988432,-0.391636481,47.99811,-2.16655,-0.06516,-1.132825802,0.680268513,5.10494114,5.738579278,0.188602136,0.007842657,47.24369405,-2.530363066,0.364946481,-2.630292648,-1.071825905,5.70201134,5.654883526,-0.123039414,-0.073514853,31.50768879,120.4020054,12.50209883,48.80772,-1.51676,-0.06226,31.50768212,120.402013,12.50500459,-0.018747541,0.012304177,0.107363524
1573539314,31.50768766,120.402002,12.8882,-2.639519415,1.227848568,167.2672734,-46.37602431,2.127882162,-0.347630371,48.76926,-2.07062,-0.07821,-1.085237152,0.569549837,6.32477086,5.740925203,0.208534516,0.013759402,48.09044861,-2.49960962,0.320940371,-2.639519415,-1.227848568,6.951305335,5.660629928,-0.125440633,-0.091591666,31.50768196,120.4020072,12.48905446,49.60562,-1.39207,-0.07453,31.50767507,120.4020152,12.49274052,-0.018105421,0.010430083,0.129102431
1573539314,31.50768216,120.4020033,12.8921,-2.684728079,1.382928951,166.1554834,-46.98585582,2.258025086,-0.351525847,49.54098,-1.95475,-0.09026,-1.056655259,0.393592442,7.67208699,5.757356959,0.199996361,-0.012374576,48.71028794,-2.431559256,0.324835847,-2.684728079,-1.382928951,8.063095337,5.662589005,-0.12848548,-0.116941648,31.50767514,120.4020092,12.47701019,50.38935,-1.24806,-0.08553,31.50766817,120.4020175,12.48174644,-0.017640443,0.007210913,0.153153436
1573539314,31.50767467,120.4020054,12.8946,-2.647526957,1.620250668,164.6134379,-47.81633543,2.453714458,-0.354019579,50.30707,-1.82179,-0.10413,-0.941003502,0.209000914,9.053918838,5.802649739,0.201270499,-0.053325537,49.55625577,-2.320522551,0.327329579,-2.647526957,-1.620250668,9.605140795,5.69971438,-0.117434134,-0.139185542,31.50766839,120.4020114,12.46314595,51.19421,-1.09107,-0.1026,31.50766109,120.40202,12.46468262,-0.015425229,0.004464754,0.177484518
1573539315,31.50766768,120.4020076,12.9023,-2.677747525,1.573136388,163.1437317,-48.59137584,2.659853274,-0.361713615,51.10087,-1.67309,-0.12134,-0.898759717,0.289188336,10.43348464,5.881736819,0.188537488,-0.032920472,50.34811901,-2.193504958,0.335023615,-2.677747525,-1.573136388,11.07484702,5.759496599,-0.123081458,-0.093901128,31.5076614,120.4020138,12.44594203,51.98329,-0.90891,-0.114,31.50765417,120.4020228,12.45328879,-0.015560597,0.005725086,0.202851154
1573539315,31.50766219,120.4020094,12.9094,-2.659226599,1.400013861,161.9644389,-49.20009857,2.835593747,-0.368808854,51.88175,-1.50033,-0.13287,-0.859784797,0.495087258,11.88977389,5.899259844,0.171623713,-0.015462816,50.97144841,-2.07997729,0.342118854,-2.659226599,-1.400013861,12.25413984,5.75541035,-0.128595511,-0.090106989,31.50765455,120.4020165,12.4344181,52.78692,-0.71042,-0.12884,31.50764714,120.4020257,12.43845516,-0.014655656,0.009653435,0.228435309
1573539315,31.50765476,120.4020122,12.9171,-2.577516408,1.378832259,160.2943232,-50.02392549,3.094929705,-0.3765023,52.6674,-1.31423,-0.14772,-0.73987692,0.57823213,13.3701479,5.91141136,0.151198465,-0.005701177,51.81720874,-1.90494759,0.3498123,-2.577516408,-1.378832259,13.92425553,5.749417945,-0.138800514,-0.098916198,31.50764767,120.4020192,12.41957431,53.57928,-0.49413,-0.1421,31.50764023,120.4020288,12.42520156,-0.012962991,0.011036875,0.25482804
1573539315,31.50764839,120.4020148,12.9233,-2.534507463,1.390768164,158.7679461,-50.73022123,3.340966397,-0.382696575,53.44273,-1.10602,-0.16212,-0.669061514,0.62734689,14.92209548,5.936542051,0.170019893,-0.019837832,52.54469603,-1.73131016,0.356006575,-2.534507463,-1.390768164,15.45063262,5.760086729,-0.11010005,-0.105104698,31.5076409,120.4020223,12.40518053,54.36909,-0.25706,-0.1572,31.50763336,120.4020321,12.41010804,-0.01140761,0.011842909,0.282320774
1573539315,31.50764159,120.4020178,12.9276,-2.544155898,1.35420182,157.0173541,-51.48419466,3.629750791,-0.386990351,54.21593,-0.87549,-0.18134,-0.635539584,0.701614668,16.56245106,5.959871439,0.158160679,-0.035280925,53.32392465,-1.519945217,0.360300351,-2.544155898,-1.35420182,17.20122465,5.772236153,-0.116585689,-0.11944049,31.50763417,120.4020255,12.38596683,55.12714,0.00907,-0.16956,31.5076268,120.4020357,12.39775435,-0.011577951,0.012510127,0.311860716
1573539315,31.50763468,120.4020209,12.8945,-2.517802713,1.26825741,155.3446939,-52.25036442,3.920435106,-0.353883925,54.95582,-0.61671,-0.19407,-0.61563283,0.782797161,18.29647502,5.975292254,0.160208817,-0.016277017,54.11547892,-1.307918597,0.327193925,-2.517802713,-1.26825741,18.87388481,5.811876676,-0.112411062,-0.096690934,31.50762777,120.402029,12.37324295,55.88532,0.29775,-0.18049,31.50762026,120.4020395,12.38683077,-0.010739436,0.013366156,0.342532986
1573539315,31.50762847,120.4020241,12.8993,-2.523522751,1.174210225,153.6086105,-52.93891954,4.232968259,-0.358678025,55.69477,-0.33339,-0.20401,-0.600141956,0.863755672,20.06407832,5.974615648,0.174267834,-0.004439436,54.83201428,-1.066335867,0.331988025,-2.523522751,-1.174210225,20.60996819,5.809726528,-0.094676652,-0.089628656,31.50762139,120.4020327,12.36330916,56.62774,0.61078,-0.1858,31.50761388,120.4020436,12.38152716,-0.010455292,0.014455851,0.373976979
1573539316,31.50762191,120.4020279,12.9026,-2.537565385,1.203915316,151.6840033,-53.66628208,4.59394882,-0.361971673,56.41424,-0.02707,-0.20835,-0.598660917,0.797368439,21.88461553,5.937733856,0.174956219,0.004139486,55.59203994,-0.780461376,0.335281673,-2.537565385,-1.203915316,22.53457543,5.77608879,-0.092123341,-0.111271355,31.50761522,120.4020367,12.3589753,57.34138,0.94948,-0.1842,31.50760778,120.4020479,12.3831334,-0.010540038,0.01266858,0.406499585
1573539316,31.50761594,120.4020317,12.9054,-2.495217431,1.416032868,149.7947174,-54.32822632,4.949229711,-0.364765781,57.10155,0.30383,-0.20299,-0.530713916,0.515863459,23.79871145,5.914941449,0.183542362,-0.004995862,56.2864059,-0.493667734,0.338075781,-2.495217431,-1.416032868,24.42386131,5.790411045,-0.099592814,-0.12778687,31.50760935,120.4020409,12.36434125,58.03082,1.3121,-0.17525,31.50760193,120.4020524,12.39208953,-0.009247364,0.007214567,0.44048914
1573539316,31.50761005,120.4020357,12.9083,-2.467098007,1.483785051,147.8442376,-54.98130026,5.328259347,-0.367659857,57.76816,0.66432,-0.1941,-0.470225561,0.343980522,25.79774488,5.926219841,0.220448176,-0.031464069,56.97433899,-0.182352609,0.340969857,-2.467098007,-1.483785051,26.37434109,5.822625349,-0.077986568,-0.136098895,31.5076037,120.4020454,12.37323712,58.71455,1.703,-0.16633,31.50759615,120.4020573,12.40101572,-0.008296077,0.004317455,0.475969065
1573539316,31.50760428,120.40204,12.9108,-2.536466955,1.427056531,145.8463811,-55.62106875,5.735787471,-0.370153935,58.42743,1.05556,-0.18599,-0.542499126,0.264313931,27.83833078,5.909736283,0.27290957,-0.023594965,57.65190506,0.158656349,0.343463935,-2.536466955,-1.427056531,28.37219765,5.827050676,-0.044349802,-0.113827279,31.50759814,120.4020502,12.38135302,59.38341,2.12347,-0.1593,31.50759053,120.4020624,12.40805187,-0.009352828,0.003048682,0.512213421
1573539316,31.50759821,120.4020448,12.9181,-2.535008663,1.32644244,143.61185,-56.29410077,6.19936262,-0.377447573,59.07238,1.47223,-0.17345,-0.538834019,0.278236893,29.96258045,5.911679368,0.246505336,0.032547891,58.36821129,0.552076488,0.350757573,-2.535008663,-1.32644244,30.60672867,5.85289403,-0.093949323,-0.077638015,31.50759273,120.4020552,12.39389888,60.04277,2.57255,-0.14628,31.50758502,120.4020678,12.42107805,-0.009620985,0.003316554,0.549871841
1573539316,31.50759195,120.4020501,12.8984,-2.445309126,1.272632445,141.6167028,-56.98819941,6.698085906,-0.357740881,59.70853,1.91464,-0.1572,-0.421261646,0.214279931,32.11918687,5.865264421,0.26190619,0.029812018,59.10901758,0.978343862,0.331050881,-2.445309126,-1.272632445,32.60187594,5.842748952,-0.070502513,-0.113104452,31.50758742,120.4020605,12.41015477,60.69274,3.04363,-0.13383,31.50757962,120.4020734,12.43353425,-0.007598196,0.002718781,0.588073667
1573539316,31.5075862,120.4020555,12.9009,-2.391303654,1.473127926,139.346864,-57.6257502,7.212008415,-0.36023457,60.33131,2.38031,-0.14522,-0.356313376,-0.031615973,34.27952791,5.881951141,0.301328059,-0.010111975,59.79509474,1.425429421,0.33354457,-2.391303654,-1.473127926,34.8717147,5.873659377,-0.035744242,-0.132450602,31.50758226,120.4020661,12.42214063,61.33206,3.54082,-0.12434,31.50757433,120.4020793,12.44303046,-0.006333126,-0.001249411,0.626441086
1573539316,31.50758101,120.4020608,12.9035,-2.488775592,1.388318622,137.2035371,-58.20120904,7.7192813,-0.36282873,60.94965,2.87977,-0.13917,-0.455433564,-0.020047839,36.47571527,5.924625822,0.327001676,-0.021104451,60.41872593,1.872153931,0.33613873,-2.488775592,-1.388318622,37.01504163,5.903417424,-0.026361489,-0.125629844,31.50757716,120.402072,12.42819656,61.94547,4.06411,-0.12307,31.5075693,120.4020854,12.44430655,-0.007615518,-0.00060599,0.665412169
1573539317,31.50757599,120.4020664,12.9062,-2.534772012,1.271127487,135.0663317,-58.7578185,8.247453094,-0.365522947,61.54202,3.39656,-0.13855,-0.510175221,0.07581429,38.67607085,5.928904492,0.286907901,0.013690392,61.02570885,2.341569813,0.338832947,-2.534772012,-1.271127487,39.152247,5.905841511,-0.063394761,-0.103341978,31.50757232,120.402078,12.42882236,62.55068,4.6107,-0.12574,31.50756437,120.4020918,12.44164268,-0.008607248,0.00139468,0.704372659
1573539317,31.50757075,120.4020726,12.9113,-2.371641134,1.277767418,132.8027431,-59.33882117,8.834521783,-0.370616761,62.12807,3.93062,-0.13595,-0.315905971,0.080949544,40.84751606,5.916981115,0.265428228,0.051754016,61.6628938,2.86712579,0.343926761,-2.371641134,-1.277767418,41.41583557,5.890249818,-0.072006196,-0.089426811,31.50756754,120.4020842,12.4314282,63.13793,5.17529,-0.12237,31.50755961,120.4020983,12.44501875,-0.005479481,0.001361624,0.742866195
1573539317,31.50756611,120.4020785,12.9161,-2.353553441,1.391667973,130.7021371,-59.85329675,9.400691609,-0.375411127,62.6902,4.48712,-0.13123,-0.278854571,-0.063794933,43.00864551,5.899139286,0.303488418,0.019139002,62.23178484,3.378590726,0.348721127,-2.353553441,-1.391667973,43.51644158,5.868573952,-0.024229701,-0.120060259,31.507563,120.4020906,12.43615393,63.73047,5.77192,-0.11844,31.50755484,120.4021052,12.44895501,-0.004703845,-0.001285997,0.781152928
1573539317,31.50756168,120.4020847,12.9177,-2.492302751,1.611971572,128.6188524,-60.34448777,9.987760334,-0.377005589,63.26218,5.07776,-0.13152,-0.399079214,-0.288297914,45.14853118,5.964086601,0.291890072,-0.033407842,62.77961498,3.913193797,0.350315589,-2.492302751,-1.611971572,45.59972631,5.913269237,-0.023268391,-0.148053233,31.50755841,120.4020974,12.43586988,64.26968,6.37621,-0.12107,31.50755055,120.4021121,12.44633086,-0.006494387,-0.005117482,0.818960271
1573539317,31.50755771,120.4020906,12.9219,-2.482764736,1.575731721,126.7280936,-60.78467472,10.5463306,-0.381200494,63.78785,5.67261,-0.13366,-0.372444364,-0.271131459,47.23542448,6.008354368,0.224178202,0.001225009,63.27382973,4.424581201,0.354510494,-2.482764736,-1.575731721,47.49048509,5.948438097,-0.07025862,-0.108757129,31.50755423,120.4021042,12.43373548,64.78947,6.99979,-0.12125,31.50754645,120.4021192,12.44615664,-0.006114652,-0.004970428,0.856036052
1573539317,31.50755209,120.4020989,12.896,-2.48148162,1.378558306,124.7125207,-61.40781055,11.33573862,-0.355293147,64.29349,6.28682,-0.1322,-0.330976002,-0.156067479,49.16272396,6.042837702,0.215964853,0.009377714,63.97331592,5.147203059,0.328603147,-2.48148162,-1.378558306,49.50605804,6.028899801,-0.053995062,-0.096799516,31.50755025,120.4021112,12.43520101,65.29201,7.64657,-0.1152,31.50754253,120.4021265,12.45221238,-0.005725463,-0.003362699,0.890130115
1573539317,31.5075484,120.4021052,12.9006,-2.555288841,1.301154603,123.1187203,-61.81695143,11.93325687,-0.35988809,64.77906,6.92415,-0.12794,-0.410006502,-0.10935211,50.932353,6.054956211,0.218438081,-0.006823274,64.44056589,5.700467715,0.33319809,-2.555288841,-1.301154603,51.09985839,6.040787146,-0.047880341,-0.116150584,31.50754647,120.4021184,12.43946646,65.78074,8.31732,-0.10961,31.50753875,120.402134,12.45780812,-0.007425993,-0.002408879,0.921713962
1573539318,31.50754399,120.4021133,12.9027,-2.754508689,1.343631257,121.2784152,-62.30592452,12.69796625,-0.361981839,65.25404,7.58319,-0.12461,-0.608418557,-0.186469776,52.56480154,6.096688413,0.207119669,-0.022253749,65.00408379,6.412031286,0.335291839,-2.754508689,-1.343631257,52.94016354,6.07765831,-0.051780762,-0.13509374,31.50754281,120.4021258,12.44280193,66.25513,9.00392,-0.10713,31.50753512,120.4021417,12.46029384,-0.010737351,-0.003335521,0.950801678
1573539318,31.50754026,120.4021204,12.9043,-2.845191992,1.252298966,119.8108461,-62.71950032,13.37623027,-0.363576383,65.72294,8.25801,-0.12315,-0.725266065,-0.135459347,54.0764935,6.169058086,0.15575431,-0.024255432,65.48387994,7.045184241,0.336886383,-2.845191992,-1.252298966,54.40773259,6.137049891,-0.095554787,-0.128155749,31.50753922,120.4021333,12.44426746,66.71891,9.71193,-0.10442,31.5075316,120.4021496,12.4630096,-0.013095914,-0.002729506,0.977756018
1573539318,31.50753663,120.4021277,12.9051,-2.863593931,1.070891821,118.525424,-63.1219882,14.0696935,-0.364370906,66.18503,8.95438,-0.12219,-0.779613707,0.026267893,55.40855791,6.243726332,0.123718796,-0.017005702,65.95417565,7.694576029,0.337680906,-2.863593931,-1.070891821,55.69315477,6.190584721,-0.113350038,-0.117327698,31.5075357,120.4021411,12.44523306,67.18425,10.44577,-0.10315,31.50752809,120.4021578,12.46428552,-0.014534413,0.000272924,1.001764162
1573539318,31.50753308,120.4021351,12.9054,-2.837414295,0.849928116,117.3849974,-63.51560574,14.77550611,-0.364665388,66.65072,9.67631,-0.12169,-0.80129038,0.240052967,56.5897432,6.314497478,0.105403581,0.00235014,66.41689013,8.357147923,0.337975388,-2.837414295,-0.849928116,56.83358132,6.227919386,-0.126830686,-0.097289487,31.50753218,120.4021492,12.44573885,67.64079,11.18686,-0.10676,31.50752467,120.4021661,12.46068149,-0.014599036,0.004431998,1.022826866
1573539318,31.50752938,120.4021432,12.9041,-2.857790641,0.734254053,116.2965641,-63.92585488,15.54591532,-0.363359445,67.10515,10.40175,-0.12591,-0.873925935,0.365658945,57.63014511,6.353376491,0.085396902,0.020511948,66.90265868,9.082312482,0.336669445,-2.857790641,-0.734254053,57.92201465,6.240365941,-0.135617875,-0.106070624,31.50752876,120.4021573,12.44152464,68.08394,11.93773,-0.11136,31.50752137,120.4021744,12.45608745,-0.015768812,0.006716755,1.041598243
1573539318,31.50752578,120.4021511,12.8857,-2.914530031,0.778588808,115.595193,-64.32501598,16.29542566,-0.344953547,67.54891,11.13461,-0.13155,-0.910483526,0.327988032,58.56751568,6.401262693,0.063531897,0.003493663,67.37529036,9.787801407,0.318263547,-2.914530031,-0.778588808,58.62338568,6.31004293,-0.132758325,-0.127870972,31.50752545,120.4021654,12.43589044,68.51459,12.69533,-0.117,31.5075182,120.4021828,12.45045341,-0.016232072,0.005880811,1.058594696
1573539318,31.50752195,120.4021601,12.8796,-2.879205615,0.794417685,114.6252957,-64.74967903,17.14753062,-0.338846999,67.98336,11.8755,-0.13934,-0.892320059,0.311459512,59.43957877,6.468073462,0.048840119,-0.019801868,67.883629,10.5927942,0.312156999,-2.879205615,-0.794417685,59.59328307,6.375250826,-0.141205719,-0.134966802,31.50752222,120.4021736,12.42810628,68.93974,13.46627,-0.12231,31.50751508,120.4021913,12.44514946,-0.015726569,0.005293598,1.074417395
1573539318,31.50751871,120.402168,12.876,-2.98248284,0.70165134,114.0450065,-65.10892392,17.89894094,-0.335241266,68.415,12.63211,-0.14602,-1.01549744,0.381931842,60.06702054,6.546962001,0.018503628,-0.001660851,68.3167389,11.30419435,0.308551266,-2.98248284,-0.70165134,60.17357223,6.421168207,-0.138022112,-0.109069213,31.50751903,120.402182,12.42143224,69.3662,14.24583,-0.13165,31.50751197,120.4021999,12.43581567,-0.017705267,0.00697048,1.085925899
1573539319,31.50751547,120.402176,12.8731,-3.019700357,0.683178978,113.6891774,-65.46816875,18.65510106,-0.332335411,68.84938,13.38874,-0.15363,-1.054125477,0.444288257,60.44172365,6.58008558,-0.047048538,0.024362733,68.7503272,12.02032014,0.305645411,-3.019700357,-0.683178978,60.52940132,6.444980212,-0.199789972,-0.1094301,31.50751582,120.4021904,12.41382835,69.78117,15.02691,-0.13976,31.50750895,120.4022085,12.42771188,-0.018282159,0.008315625,1.093317445
1573539319,31.50751196,120.4021846,12.8688,-2.900111445,0.741846373,113.414974,-65.85735057,19.47205803,-0.328028947,69.28653,14.14408,-0.16074,-0.933334756,0.431301686,60.73240982,6.624927814,-0.084925356,0.011648126,69.21982452,12.79391787,0.301338947,-2.900111445,-0.741846373,60.80360469,6.477756319,-0.209561424,-0.136357355,31.50751259,120.4021988,12.4067246,70.21129,15.82299,-0.14488,31.50750582,120.4022173,12.42259841,-0.016538017,0.007806542,1.099009209
1573539319,31.50750896,120.402192,12.8643,-2.82755713,0.773822508,113.3161189,-66.18998454,20.17787089,-0.323523297,69.73216,14.91921,-0.16786,-0.867121612,0.401702282,60.86024438,6.690760413,-0.083813281,0.003110792,69.62186565,13.46263312,0.296833297,-2.82755713,-0.773822508,60.90245979,6.529002827,-0.20921942,-0.130066488,31.50750929,120.4022074,12.3996111,70.64089,16.62606,-0.15176,31.50750269,120.4022262,12.41572509,-0.015375261,0.007336037,1.102087404
1573539319,31.50750545,120.4022007,12.8613,-2.752662567,0.737007915,113.1267373,-66.57916623,21.00907721,-0.32051655,70.17568,15.70044,-0.17411,-0.807636472,0.45776439,61.06800511,6.734450337,-0.079698565,0.028114629,70.09279823,14.25040774,0.29382655,-2.752662567,-0.737007915,61.09184138,6.566801837,-0.208028283,-0.106789533,31.50750602,120.402216,12.39336773,71.07505,17.44588,-0.1571,31.50749954,120.4022352,12.41039199,-0.014489817,0.008054095,1.106359631
1573539319,31.5075022,120.4022089,12.8588,-2.708801389,0.791064415,113.0017503,-66.93951958,21.78518648,-0.318010162,70.62449,16.49759,-0.17874,-0.78258183,0.419143107,61.22814949,6.780765029,-0.070382404,0.013284074,70.52949896,14.98626955,0.291320162,-2.708801389,-0.791064415,61.2168284,6.588239204,-0.193235837,-0.122839198,31.50750272,120.4022248,12.38874458,71.50227,18.2559,-0.16347,31.50749644,120.4022442,12.40402892,-0.013578194,0.007590937,1.109553031
1573539319,31.50749871,120.4022175,12.8431,-2.674333985,0.839103767,112.8832133,-67.32648347,22.60499348,-0.302303223,71.06802,17.28315,-0.18753,-0.738772261,0.378551202,61.38422584,6.825722417,-0.076676205,-0.00196184,70.99707671,15.76292624,0.275613223,-2.674333985,-0.839103767,61.33536546,6.64478157,-0.201347028,-0.137268015,31.50749945,120.4022335,12.37996147,71.92991,19.07464,-0.17151,31.50749335,120.4022532,12.39599601,-0.012861353,0.00658722,1.112947968
1573539319,31.5074952,120.4022265,12.8401,-2.602125353,0.871062329,112.7590339,-67.71566493,23.45329907,-0.299296027,71.51393,18.0778,-0.19543,-0.663761397,0.352335466,61.51355121,6.876604062,-0.086221468,-0.001252108,71.46973153,16.56771317,0.272606027,-2.602125353,-0.871062329,61.45954481,6.689082191,-0.203352482,-0.123862728,31.50749618,120.4022423,12.37206854,72.35844,19.89988,-0.1803,31.50749025,120.4022623,12.38721327,-0.01139699,0.006028181,1.115875291
1573539320,31.50749194,120.4022348,12.8389,-2.529898366,0.697172768,112.6648729,-68.07712685,24.24745754,-0.298089196,71.96082,18.87788,-0.20577,-0.584790019,0.4982383,61.6282127,6.895815803,-0.093882762,0.000256421,71.90935336,17.32142071,0.271399196,-2.529898366,-0.697172768,61.55370585,6.69962727,-0.206450796,-0.105141251,31.50749289,120.4022512,12.36173577,72.789,20.72838,-0.19072,31.50748714,120.4022714,12.37680069,-0.009966921,0.008692273,1.118507901
1573539320,31.5074887,120.4022432,12.8352,-2.507803208,0.559448318,112.6171568,-68.43637111,25.04066611,-0.294382274,72.40777,19.67618,-0.22028,-0.551274376,0.668222272,61.68924952,6.891948529,-0.096246296,-0.005749859,72.34667313,18.07440656,0.267692274,-2.507803208,-0.559448318,61.60142197,6.69636825,-0.196049072,-0.113775933,31.50748961,120.40226,12.34723313,73.22074,21.55928,-0.2053,31.50748402,120.4022806,12.36222827,-0.009349518,0.011669407,1.120088847
1573539320,31.50748521,120.4022521,12.831,-2.409497858,0.472255497,112.5527143,-68.82333478,25.89277167,-0.290174695,72.85793,20.47275,-0.23397,-0.439437528,0.743348657,61.74562459,6.862878247,-0.11393931,0.032325552,72.81750422,18.88319753,0.263484695,-2.409497858,-0.472255497,61.66586439,6.659587716,-0.213905576,-0.089765421,31.50748629,120.4022688,12.33355064,73.64844,22.39366,-0.21484,31.50748094,120.4022898,12.35269596,-0.007510948,0.012558795,1.121650228
1573539320,31.50748199,120.4022605,12.8268,-2.301778381,0.556781646,112.4847081,-69.18036136,26.6812306,-0.285967572,73.30279,21.27387,-0.24167,-0.311964553,0.636803446,61.80786261,6.850143292,-0.107209742,0.011030243,73.25213913,19.6316813,0.259277572,-2.301778381,-0.556781646,61.73387065,6.645184274,-0.202107185,-0.114989724,31.50748303,120.4022777,12.32585824,74.07658,23.22849,-0.22341,31.50747786,120.402299,12.34413379,-0.005416383,0.010994357,1.123427209
1573539320,31.50747857,120.4022694,12.8201,-2.289739792,0.701964198,112.4341673,-69.55956338,27.53143634,-0.279259821,73.74641,22.07845,-0.25356,-0.304547804,0.501724251,61.85287557,6.85799399,-0.082757955,-0.019948013,73.71505667,20.43936399,0.252569821,-2.289739792,-0.701964198,61.78441139,6.647964718,-0.184287631,-0.132524093,31.50747978,120.4022866,12.31397598,74.50455,24.05814,-0.23633,31.50747477,120.4023081,12.33122174,-0.00511225,0.008730557,1.12477236
1573539320,31.50747536,120.4022778,12.803,-2.242378248,0.649428335,112.34331,-69.91548087,28.33129471,-0.262152414,74.19512,22.87802,-0.26709,-0.251576037,0.538465412,61.92240039,6.882762171,-0.108849902,-0.011645338,74.14973645,21.19930094,0.235462414,-2.242378248,-0.649428335,61.87526873,6.653835115,-0.203573108,-0.107671394,31.50747648,120.4022954,12.30045388,74.92389,24.87792,-0.2475,31.50747176,120.4023172,12.32005969,-0.004056322,0.009494095,1.126878486
1573539320,31.50747192,120.4022868,12.7998,-2.105765298,0.630227322,112.3190148,-70.29690036,29.18150059,-0.258944375,74.63709,23.66434,-0.27648,-0.08945596,0.599027562,61.95809653,6.875997321,-0.118018034,0.007973459,74.6148602,22.00676039,0.232254375,-2.105765298,-0.630227322,61.89956393,6.658817205,-0.193968442,-0.107248166,31.50747323,120.4023042,12.29107179,75.3499,25.70532,-0.25738,31.50746868,120.4023263,12.31018787,-0.001284045,0.010539436,1.128194824
1573539320,31.50746873,120.4022952,12.796,-2.077964043,0.81386808,112.2745137,-70.65060031,29.97755932,-0.255136762,75.08569,24.46411,-0.28526,-0.027408767,0.441609347,62.0056237,6.942615147,-0.110184955,0.007917462,75.04695097,22.76314041,0.228446762,-2.077964043,-0.81386808,61.94406505,6.721978492,-0.182901439,-0.126407416,31.50746993,120.402313,12.28229996,75.781,26.53272,-0.26758,31.50746557,120.4023354,12.29999626,-3.28E-05,0.007905867,1.129827471
1573539321,31.50746554,120.4023036,12.7932,-2.078405898,0.89618264,112.2571133,-71.0043002,30.77931781,-0.252329003,75.53657,25.26384,-0.2964,-0.002575553,0.355906402,62.04738465,6.974845961,-0.13265875,-0.02323077,75.47961583,23.5251912,0.225639003,-2.078405898,-0.89618264,61.96146542,6.764205215,-0.190635156,-0.131812666,31.50746661,120.4023219,12.27116828,76.20357,27.36795,-0.2755,31.50746253,120.4023446,12.29208471,0.000154018,0.006250937,1.131204022
1573539321,31.50746231,120.4023121,12.7897,-2.024807468,0.876244762,112.2006538,-71.36243514,31.58677606,-0.248821045,75.98748,26.07003,-0.30628,0.079229678,0.366972626,62.1211462,7.018031878,-0.139665758,-0.03199821,75.91726733,24.29246599,0.222131045,-2.024807468,-0.876244762,62.01792492,6.809946321,-0.190872874,-0.137187735,31.50746329,120.4023308,12.26129677,76.62784,28.20599,-0.28479,31.50745949,120.4023538,12.28280333,0.001447878,0.006450577,1.132933897
