time,ins1000_lat,ins1000_lon,ins1000_alt,ins1000_roll,ins1000_pitch,ins1000_yaw,ins1000_ned_x,ins1000_ned_y,ins1000_ned_z,algo_pose_x,algo_pose_y,algo_pose_z,algo_roll,algo_pitch,algo_yaw
1570519589.32,31.50769499,120.40174519,719.1938131820633,-0.7921503031985113,-0.9614109998311771,0.16709097175593596,0.0,0.0,0.0,2.51445396956,0.136043726428,-0.0179719615152,1.0111986928187553,5.788787060020984,0.04261210572081038
1570519589.52,31.50769848,120.40174554,717.1770017432027,-0.6885357648578029,-0.973358872838218,0.10899196450267834,0.38696578956355343,0.03324815218145627,0.035200011931374536,2.95614493267,0.160541401602,-0.02640302897,0.9723749008588785,5.883482875164672,0.012190080527184694
1570519589.72,31.5077015,120.40174571,717.423373595109,-0.8146967515198054,-1.064924001627246,0.11071465884667113,0.721818708672392,0.04939725455778127,0.03090004092880727,3.25275220399,0.170958828138,-0.0251441033181,1.0364759775699732,5.779806676267751,0.027108930413367115
1570519589.92,31.5077045,120.40174584,717.6525567131613,-1.078202403161887,-0.9844678540225628,0.11240647989538952,1.0544540587078595,0.061746567034708294,0.0269000877543234,3.57625770663,0.190836074685,-0.0254420048264,0.9588810377686351,5.771583728285664,-0.012386968469628537
1570519590.12,31.507707640000003,120.40174609,717.8931989871163,-0.9864016332307287,-0.8699552467169458,0.1106320793964474,1.4026123927880232,0.08549524288242699,0.022700154327164324,3.87849287014,0.217909401778,-0.0162325787292,0.6301567826151194,5.567014909116746,-0.03870457796411195
1570519590.32,31.50771094,120.40174634,718.2197849303408,-0.9521729243891122,-0.9271881660491633,0.1223080861716857,1.7685112793321531,0.10924391695884883,0.017000247615490238,3.9995312188,0.220847195538,-0.00507000282329,0.6463272132940026,5.237714937687743,-0.03514054764651809
1570519590.52,31.50771516,120.40174663999998,717.6353679793074,-0.791000223626778,-0.9738195974186059,0.029643472265475118,2.2364183368093498,0.1377423230818136,0.027200394300684883,4.22556448326,0.230539957765,-0.0113355266635,0.6429965998288516,5.416790260438196,-0.07760385630357672
1570519590.72,31.50771875,120.40174692999999,718.0077905461424,-0.6762939523639829,-0.9624504917667182,0.017141208180915597,2.6344719764368616,0.16529078205391762,0.020700548102610794,4.66111738434,0.251336886898,-0.0174757141146,0.717872095595052,5.5106685653636065,-0.031975014093356
1570519590.92,31.507722469999997,120.40174721,718.3401060673183,-0.6305675951748985,-1.0311505106080672,0.02859547094440276,3.046939814440117,0.19188929130354415,0.014900733824466883,5.19675518559,0.274315017138,-0.0144145478725,0.802969725257613,5.390604064393186,-0.04055294622876893
1570519591.119,31.50772629,120.40174746,718.4776159381497,-0.6766700143965493,-1.134146615854665,0.05253915437507142,3.4704954974303592,0.21563795672381525,0.01250095111729399,5.73856185116,0.301157885529,-0.0121091742787,0.8419889952665413,5.378679436941953,-0.058913573394703316
1570519591.319,31.507730160000005,120.40174770999998,719.113599090745,-0.7570102252101625,-1.134038878684768,0.06479393715595397,3.899595108516457,0.23938662052802118,0.0014012004413437307,6.25352061025,0.324649739172,-0.0151012880405,0.8849192368242785,5.37191423078663,-0.06490977147685247
1570519591.519,31.50773464,120.40174789,718.8844159726926,-0.802431185138598,-1.2604025376180545,0.020287077269491638,4.3963305665407155,0.25648565331204765,0.005401524973474459,6.66396388623,0.345470895937,-0.0125784701818,0.8091734519397268,5.379740863798186,-0.0810193685475823
1570519591.719,31.50773858,120.40174816,719.1938131820633,-0.7451143332341345,-1.214565535396458,0.01935859661802073,4.833191668413212,0.28213420847445725,1.8453699368592424e-06,6.98407367256,0.358211622806,-0.012668706139,0.7971955965827088,5.51244730724086,-0.08540501196017729
1570519591.919,31.50774252,120.40174846,719.9271991598307,-0.6534125414703164,-1.1572723782112104,0.018059912949952812,5.270052776044912,0.31063259973329005,-0.01279780666496766,7.27089241209,0.366904054786,-0.0175324917504,0.86610160556551,5.526589885480519,-0.057738628072391766
1570519592.119,31.50774649,120.40174867,720.3168104605196,-0.8482548866495581,-1.1801736820067428,0.02019725395546157,5.710240234932448,0.33058147045521524,-0.019597425592820183,7.63989782507,0.382461485377,-0.0159989265402,0.9616593388396767,5.4754177969973,-0.07844727983047173
1570519592.319,31.50775043,120.40174890000002,720.7064217612086,-0.9967891293807417,-1.0544955320186657,-0.025207389051136123,6.14710134139087,0.3524302318216257,-0.02639701642055492,8.16288357621,0.411253059993,-0.0172006532851,0.9038601217702542,5.465840670168244,-0.07609215105197764
1570519592.519,31.507754819999995,120.40174922,719.932928737782,-0.7099182152101507,-1.134843469135563,-0.06173045112882355,6.633857730390517,0.3828285057543892,-0.012896525828590466,8.52944757304,0.437342833802,-0.0184331752655,0.6942466364470423,5.3357286890086355,-0.06397637303146377
1570519592.719,31.507758739999996,120.40174945,720.454320331351,-0.7676874185418496,-0.9970507424943068,-0.016240226295033,7.068501272093005,0.40467726377524116,-0.021996055369784884,8.91677867692,0.452022409082,-0.0171874088777,0.9401688140810753,5.494574866214573,-0.04142661065582871
1570519592.919,31.50776269,120.40174962000002,720.9699823469688,-1.1107258967750067,-1.1010371074236733,-0.09246963307418359,7.506471168932645,0.4208263401795511,-0.030995551837385893,9.3324436514,0.470754508778,-0.0196490546293,1.189183697339512,5.445947152000449,-0.06261952951585283
1570519593.119,31.507766679999996,120.40174999,721.8637965073729,-0.7328619710846046,-1.0890165494324677,-0.061796296004795824,7.948876212576808,0.45597434412000637,-0.04659501088798512,9.70337680721,0.503446573471,-0.0212154533598,0.8783122589696433,5.475741158642706,-0.0410793274482659
1570519593.319,31.507770719999996,120.40175027999999,722.5570754394812,-0.6413122562923093,-0.8597898173170107,-0.05248423880830948,8.396825177717183,0.4835227739815766,-0.05869443167571964,10.1497658155,0.516319809038,-0.0201452882794,1.686267744680359,5.646146756814673,-0.02316001513953718
1570519593.518,31.50777535,120.40175043000002,719.8813625362202,-0.9965083518641296,-0.9745760110453755,-0.06028586277834914,8.910192348210643,0.4977719458664609,-0.011993732794060019,10.6011665912,0.526414976134,-0.0185451334586,2.718386680184226,5.488041335384482,-0.03772866940760401
1570519593.718,31.507779749999997,120.40175077000002,720.5058865329129,-0.8125647367921298,-1.0665514832982834,-0.11849957787443456,9.398057554932292,0.530070101122263,-0.022893026443782105,11.0507485045,0.556519478679,-0.0164180535835,2.639909202302793,5.505094511188924,-0.05619379532434122
1570519593.918,31.5077842,120.40175105999998,721.2736499783881,-0.80172624878601,-0.7224272481956793,-0.06370085129341145,9.891466689198095,0.557618519535962,-0.03629227627782683,11.5345647261,0.575406219981,-0.0192470659139,3.0876010819388067,5.669458642656613,-0.028163653086452363
1570519594.118,31.50778883,120.40175132,721.8981739750808,-0.9847692425457527,-0.5513291250887123,-0.1442312819981322,10.404833943293637,0.5823170985554889,-0.04719145319565854,12.0007149641,0.59345595445,-0.0154282766994,3.3480361704060404,5.494552588256522,-0.04573099575459724
1570519594.318,31.50779372,120.40175173999998,722.5685345953838,-0.6058566161589953,-0.9864093221789977,-0.1781487582944306,10.947029600120308,0.6222148120131812,-0.05889053811166267,12.4728618045,0.626902148404,-0.00907623535331,3.1100232974956756,5.142187927366109,-0.03978790306032849
1570519594.518,31.50779887,120.40175206000002,719.8469850685124,-0.5490082649869205,-0.8830500104971509,-0.13327934972387864,11.518053549005312,0.6526130550048417,-0.01138952587339137,12.9819447676,0.647199432576,-0.0145393902153,3.327657655172065,5.544695406864816,0.032672587105950446
1570519594.718,31.507803869999996,120.40175224999999,720.2938921487145,-0.9845654871822408,-0.8033681561867323,-0.1420805352701548,12.07244582599214,0.6706619956528987,-0.01918849378244314,13.5058359613,0.663976202249,-0.0185230342722,3.6353856265638154,5.625052404481445,0.036082879818748664
1570519594.918,31.507809089999995,120.40175265,721.3252161799498,-0.7084344352988889,-1.284612537556478,-0.186882442858901,12.65123138641344,0.7086598068157941,-0.03718736452701599,14.033727133,0.70451678987,-0.015188689379,3.1127050334146977,5.4037558716387535,0.007140125070324221
1570519595.118,31.50781402,120.40175302999998,721.7434753703955,-0.38826154571384125,-1.3067549965487166,-0.12163523297720759,13.197862178650784,0.7447577194711084,-0.04448624732188122,14.5859511497,0.732248148465,-0.0138823240501,3.0925233924620508,5.736327342804943,0.051562347934357815
1570519595.318,31.507819490000003,120.40175331999998,722.0070359561556,-0.6285393740711656,-0.872190040381314,-0.22439911437766416,13.80436732879657,0.7723061108839961,-0.049084956246455036,15.1409710774,0.747206124227,-0.0191225943331,3.4034872976613144,6.028893237104149,0.08117831787079724
1570519595.518,31.50782501,120.40175377999999,720.0188724070517,-0.5144426993696438,-0.9632848361293935,-0.1446446800567265,14.416416315521204,0.8160035765468394,-0.014383591108097171,15.6935955516,0.77851588297,-0.0229384053045,3.130991370177031,5.522441859611651,0.12748511949220406
1570519595.718,31.50783036,120.40175407,720.2996217266657,-0.5715081541986281,-1.032136157785118,-0.16675612202421133,15.009616051831095,0.8435519610847853,-0.019282214037058765,16.2547515943,0.808337496624,-0.0191281341955,3.1342740898998516,5.607904064748525,0.10488896858123889
1570519595.917,31.50783571,120.40175437000002,720.4944273770102,-0.6626476413372167,-0.8381433873123401,-0.27017279774289077,15.602815786727199,0.872050291602652,-0.02268078005465135,16.8260083382,0.838557590901,-0.0210884302068,3.1840633134730547,5.631834779244694,0.1480948982308921
1570519596.117,31.50784112,120.4017547,721.4054302712682,-0.5940950353735078,-0.9065028871359284,-0.22448338611090649,16.20266826128687,0.9033984519447964,-0.03857927436103381,17.392249518,0.874143358387,-0.0225560163772,3.034368926338018,5.502134476231836,0.1881243241134873
1570519596.317,31.50784659,120.40175497,721.9898472223017,-0.7076727615299596,-1.1248044427192685,-0.2910201056734284,16.809173431182856,0.9290469368212988,-0.048777694496820345,17.9526525536,0.901613183585,-0.0153713169069,3.2626049339408194,5.491151305318862,0.19213958075725374
1570519596.517,31.50785227,120.40175542999998,718.6265849648838,-0.49046081872192154,-1.078200609704068,-0.24751088091916262,17.43896289157953,0.9727443719110132,0.009924008829228725,18.5345223649,0.936008363272,-0.00810028251645,3.163912227623224,5.650469611400775,0.2273867683047676
1570519596.717,31.50785766,120.40175565,719.0849512009884,-0.7314498496226215,-0.849684009146603,-0.269622389246878,18.036597777433798,0.9936431217025863,0.0019256812009782465,19.1177847077,0.961338110945,-0.0129768983258,3.3743539653905947,5.797366121209005,0.2566255459988334
1570519596.917,31.50786308,120.40175599,719.8355259126097,-0.5479698824670409,-0.8379233479826154,-0.2824716310756605,18.63755903373107,1.0259412154652763,-0.011172579707801944,19.6973705247,1.00084641296,-0.00774176950714,3.2242058472360187,5.532675619502303,0.2056374012705386
1570519597.117,31.507868549999998,120.40175628999998,719.8756329582689,-0.5247062488242966,-0.9410636101849441,-0.29362860474100994,19.244064179033735,1.0544395210819992,-0.01187076708913537,20.2792795126,1.03636634491,-0.0038994444148,3.0189389221140104,5.476598597216012,0.22591774255620983
1570519597.317,31.50787404,120.40175656999999,719.8756329582689,-0.604912077229799,-1.0098755048014552,-0.2811753083410019,19.85278689253106,1.0810379329548736,-0.011868889108272995,20.8625251298,1.05686051948,-0.00940688487229,3.0654911164543592,5.5921581190162035,0.2572204146233158
1570519597.517,31.507879789999997,120.40175698,717.3775369714986,-0.5941864848181354,-1.0552095584383392,-0.18935274301119104,20.490337863893664,1.119985621565878,0.031733142704689854,21.4438003087,1.08736832371,-0.0199933713001,2.805553720209896,5.60137462474483,0.24765675787528244
1570519597.717,31.50788527,120.40175726000001,717.8645510973597,-0.6398079712966424,-1.1241121763902917,-0.20000816699619436,21.09795181791444,1.1465840274050607,0.023235136577079984,22.0316064977,1.11775223899,-0.021331087256,2.781270538859303,5.65040718766304,0.2316844385375137
1570519597.917,31.507890749999998,120.40175763000002,717.8244440517005,-0.39987612357854824,-1.0204000995245979,-0.13394926187709055,21.705565742835674,1.1817319367776857,0.023937189148959703,22.6074556798,1.14716703029,-0.0186620106233,2.6563064180119382,5.763592129665666,0.23201324696485415
1570519598.117,31.507896279999997,120.40175790999999,717.6181792454536,-0.47977431229014855,-0.9633845448787051,-0.1793130671362218,22.31872358024537,1.20833033111305,0.027539318586271122,23.1763893025,1.16803235788,-0.0252032502701,2.8938250272116726,5.709288573547695,0.24903929423281956
1570519598.316,31.5079016,120.40175813,718.0880046374607,-0.652290501807831,-1.1120846481011342,-0.09681163384827708,22.90859698388857,1.2292290592618809,0.019341422472479053,23.760005577,1.19690333823,-0.0373670454412,2.892873816402322,5.625188310066713,0.24174837152430134
1570519598.516,31.507907880000005,120.40175873,716.2258918032857,-0.5841649330410453,-1.2491973797484384,-0.02801208714367511,23.60491355950806,1.2862256757152117,0.051843982579274694,24.3496199133,1.22881051944,-0.0358978758731,2.775477229185285,5.71353508318424,0.19362648832889087
1570519598.716,31.50791343,120.40175910999999,716.5410185906076,-0.33213521927401296,-1.0314462047291244,-0.019928918748394232,24.220288998536148,1.322323512615844,0.046346307338650305,24.9570333405,1.26211124239,-0.0388607383522,2.672739735887016,5.866169355716118,0.2315465213605701
1570519598.916,31.507919,120.4017593,716.6097735260232,-0.6303542746985906,-0.779183593026447,0.01574513173596505,24.837881990899554,1.3403723900255287,0.04514869469715421,25.5497550507,1.28097099823,-0.0429546398532,3.0343061015426174,5.7966916775161765,0.21456036859903305
1570519599.116,31.507924609999996,120.40175966000001,716.8561453779295,-0.48146868024939143,-0.813531147338859,0.026336294334469282,25.4599101356968,1.3745703299437153,0.040851164660027806,26.1360927621,1.32117201457,-0.0410931211881,2.7953058532646273,5.4708764256969,0.1907847241605132
1570519599.316,31.507930210000005,120.40175991,716.8103087543191,-0.6991531461212387,-0.6530462241943816,0.02690253243168278,26.08082947713697,1.398318869402785,0.041653687697076336,26.7194895572,1.34939194242,-0.045036958308,2.8296713683374475,5.5207137303126705,0.20295843605947986
1570519599.516,31.5079364,120.4017605,716.4550749213379,-0.5509171514174928,-0.7786415248624435,0.12979392966786812,26.767167085847515,1.4543655197385732,0.04785655670348987,27.3125789739,1.38280783249,-0.0456174409581,2.727184785420483,5.3362070421130205,0.11904969278164457
1570519599.716,31.507942060000005,120.40176078,716.7816608645625,-0.6769674359640304,-0.9619771618824922,0.09736615927085769,27.394739162522562,1.4809638874043225,0.04215923675199029,27.8895991221,1.40543251883,-0.0430195560156,2.795686512079879,5.401214443223658,0.15603925077063202
1570519599.916,31.50794766,120.40176113,717.050951028274,-0.5514272793458785,-0.9961820070581207,0.1537782145946323,28.0156585287319,1.514211863642279,0.03746195313700973,28.4858925392,1.43515719123,-0.0438741869981,2.6781136689113287,5.567151175834178,0.10255241676842548
1570519600.116,31.507953280000002,120.40176140999999,717.2686749904237,-0.5973933858730948,-0.9272787052365711,0.18818015414694567,28.638795461705996,1.5408102246180357,0.03366473735835562,29.0864710792,1.46304831477,-0.0512197750899,2.6842837781885844,5.617072587780851,0.10245239705547247
1570519600.316,31.50795894,120.4017617,717.6926637588205,-0.6434231293260101,-1.0646936328122818,0.1778832886364973,29.26636755131657,1.568358526847172,0.026267604369204278,29.6813265666,1.49044973281,-0.0555996426934,2.6968620017193703,5.586165708621464,0.10537654720045013
1570519600.516,31.507965099999996,120.40176227999999,717.5379651541352,-0.4935786087067062,-0.8131346205937251,0.11809375974497177,29.949378826056346,1.6234552058071454,0.028970800314533918,30.2874405732,1.5241730513,-0.049334797789,2.6702180132915974,5.734440578478786,0.1011431547882571
1570519600.716,31.50797075,120.40176262999998,718.0020609681911,-0.31057892794880615,-0.7787824854988065,0.1739978734044024,30.57584213754251,1.6567031658216722,0.02087379413327284,30.8912642145,1.54979879068,-0.0535419469692,2.803704421776436,5.586184776715391,0.08110096683344803
1570519600.915,31.507976390000003,120.4017629,718.2713511319025,-0.41368314551301427,-0.8703930369612001,0.1521109660758891,31.201196650259206,1.6823515681284684,0.01617684062020075,31.5156644233,1.57166669518,-0.0558527199352,3.0232769603213563,5.560924005574614,0.07641933467956158
1570519601.115,31.50798199,120.40176318,718.6380441207864,-0.48251152298539635,-0.7555561320671773,0.18652762581488583,31.822116034875545,1.708949912294531,0.009779929316458436,32.1371326042,1.60808438478,-0.0587278049913,2.8812877597620288,5.586733873640274,0.05451202822782259
1570519601.315,31.50798758,120.40176345,719.2110019159171,-0.49369981785790135,-0.6295271252259373,0.17459933459534943,32.44192665395636,1.734598310760302,-0.0002169301809544777,32.7494507856,1.63772009372,-0.0643483459917,2.843006957560434,5.548200654910019,0.03440500472393916
1570519601.515,31.50799369,120.40176419999999,718.2312440862435,-0.39016702569292755,-0.6069959669183598,0.10519904895659667,33.11939393922126,1.8058440097602215,0.016886586018978633,33.3602048285,1.67191234363,-0.0625771271916,2.761463285453558,5.395311143471183,0.03695028869692004
1570519601.715,31.5079993,120.40176450000001,718.4718863601984,-0.3442213758884201,-0.5497728998733418,0.09332465314589042,33.74142210013303,1.8343422310934443,0.012689866993754961,33.9457205701,1.69574063094,-0.0667545706433,2.8765026226622497,5.394590241508663,0.04692971665617938
1570519601.915,31.508004879999998,120.40176484000001,718.9932779537675,-0.17256489819402962,-0.5613013526300542,0.13835505971601325,34.360123935801,1.8666402244960043,0.003593192644215648,34.5308937307,1.73063897406,-0.0685537062455,2.773195331692703,5.326403068443644,0.0038717109835773333
1570519602.115,31.50801047,120.40176499,719.7495822433401,-0.5846751386223522,-0.5039171477362244,0.05986680916318375,34.97993457796966,1.8808892781675706,-0.009603421860713723,35.1500802643,1.7503535494,-0.0710082325107,3.1461320634518435,5.369861945562645,0.017776885976788316
1570519602.315,31.50801608,120.40176531000002,720.09908649837,-0.3321947380745852,-0.6532525024035172,-0.021024619504710445,35.6019627560605,1.9112873774634158,-0.015699955371749397,35.7550273154,1.78734104901,-0.0593250408841,2.77076217257591,5.226356702315729,0.009768440035403165
1570519602.515,31.50802198,120.40176608000002,718.2713511319025,-0.05539859415033474,-0.5273348812655951,-0.41227290047317583,36.25614547941541,1.9844329328395345,0.016203765945849824,36.3750628096,1.81464604104,-0.0635685221547,2.8550381280410044,5.368187408291784,0.09511496732805694
1570519602.715,31.50802786,120.40176624,718.8099314593256,-0.08726934516477793,-0.5507813521020688,-0.9162934916256033,36.90811085553057,1.9996319132067146,0.006807524740690241,36.9501111701,1.84957160415,-0.0679699584072,3.1186541734274242,5.346942730319512,0.3782126349779518
1570519602.915,31.50803343,120.40176629999999,719.5375878591417,-0.07137052466920309,-0.6656464004375521,-1.5237156939489989,37.52570393299406,2.005331460825577,-0.005888855067492926,37.5516984801,1.89684536712,-0.0665450372165,3.1408018459349933,5.293186732907863,0.8702282131702643
1570519603.115,31.50803869,120.40176634,719.5891540607035,0.21679576422350194,-0.54597745391852,-2.2013605440403157,38.108924618191196,2.009131124284644,-0.0067853824754564585,38.1215710255,1.95153046077,-0.0576503908898,3.1282659537256263,5.414331400923517,1.4100710428355414
1570519603.314,31.50804454,120.40176621999998,720.0131428291003,0.3158040684988347,-0.6447309274052508,-3.1535107612426283,38.757563631936904,1.9977316758765475,-0.014181460369702137,38.6981302643,2.00932530919,-0.0631750442279,3.4349160894928175,5.318861705231174,2.1267901430511915
1570519603.514,31.50805072,120.40176629999999,720.3626470841301,0.2856874992075342,-0.5972482706361032,-4.208054615939801,39.44279253251912,2.0053310962415436,-0.02027724183609081,39.2813771712,2.07691119363,-0.0679996664711,3.5086141014863417,5.373857566982536,2.988426034889201
1570519603.714,31.508056309999997,120.40176592999998,720.9069569895045,0.415482122723043,-0.771718415163975,-5.471227905452988,40.0626031592431,1.970183065638409,-0.029773375611068076,39.8817073849,2.16455680035,-0.0667469905471,3.518935070138435,5.306279108966665,3.8895658216222233
1570519603.914,31.50806161,120.40176535000002,721.159058419362,0.25015495320081876,-0.9380437165820085,-6.710069697966567,40.650258999994165,1.9150862314023076,-0.03416965831663887,40.5046288744,2.2628294608,-0.0639173422208,3.616026833098791,5.495421216887565,5.11171322135923
1570519604.114,31.508067140000005,120.40176454000002,721.4856443625865,0.006381881331183595,-1.0564496496563023,-8.154962652816174,41.263416892052476,1.838140695299444,-0.03986572793852261,41.117439189,2.38450626979,-0.0661574057983,3.550736539638003,5.573910198106838,6.381371859458542
1570519604.314,31.508072950000003,120.40176363000002,722.0414134238634,0.34222858088853547,-1.1549984187555338,-9.962785346031946,41.90762077919606,1.7516957303182963,-0.04956153502301319,41.7407124985,2.53083958902,-0.0649826919799,3.186099150310487,5.6392220247112075,7.766024701904823
1570519604.514,31.508078990000005,120.40176276,720.9527936131149,0.18262833698194966,-1.1906977313848772,-11.987519242282245,42.57732652380974,1.669050535264871,-0.03055710290515279,42.350916701,2.68165210527,-0.0649585676596,3.258283499346143,5.678341670585374,9.426584789304753
1570519604.714,31.50808407,120.40176133999998,721.1304105296055,-0.024312390123101647,-1.0190442666560118,-14.073559082349348,43.1405890879577,1.5341584910046748,-0.03365333714333829,42.9776786626,2.86512377043,-0.0690407836114,3.045428349506305,5.863848637915863,11.345518749432484
1570519604.914,31.50808969,120.40175954,721.2851091342908,-0.038647785997091184,-0.9318881843997083,-16.490026154567087,43.763726013567194,1.363168610431659,-0.03634911464095225,43.5793695226,3.07958295067,-0.0688683267668,2.72607427886178,5.643971561911378,13.484694316628632
1570519605.114,31.50809502,120.40175755,721.6174246554666,0.2360697265897949,-1.1920307193702382,-19.16071414264103,44.35470821175055,1.174129832356872,-0.0421450544262747,44.1763213878,3.31823638865,-0.0810473897926,2.4612618594747215,5.5381075194811675,15.688968375568415
1570519605.314,31.508100119999998,120.40175515000001,721.8695260853242,-0.05460708137839518,-1.0965248080235945,-22.079986283933202,44.92018835536166,0.9461434067814878,-0.04654111844269693,44.7517104012,3.57887131475,-0.0946616209934,2.702517859918601,5.773644477162658,18.384669574006377
1570519605.514,31.508105690000004,120.40175256,718.8844159726926,0.009586454514083194,-1.1012330951823541,-25.020417750153314,45.53778097482824,0.700108075918008,0.00556324606388614,45.2968906575,3.88228230369,-0.101759752947,2.367600373348143,5.759312861608597,21.147453424168283
1570519605.713,31.508110340000005,120.40174979,718.9589004860596,0.17483693812207507,-1.1257110367858902,-28.04641179699058,46.0533657969075,0.4369738113590049,0.004266940059025615,45.8072914364,4.21258344665,-0.108933993192,2.159187070612712,5.722009734801117,24.15764728368654
1570519605.913,31.50811528,120.40174629,718.6724215884942,0.08202385944225293,-1.095879539450781,-31.414612678014525,46.60110533100706,0.10449373181202759,0.009270920291491791,46.3182189718,4.56207025213,-0.133787128491,2.182255460453806,5.904831096312133,27.336792200880684
1570519606.113,31.508119780000005,120.40174261999998,719.0161962655727,-0.15277970744669434,-1.1641297982479668,-34.675733353178366,47.10005843649653,-0.24413534479624666,0.0032746038757807128,46.7911293989,4.9545450736,-0.150343444943,1.8935590594078922,5.857851888255357,30.4944214715528
1570519606.313,31.50812385,120.40173890999999,719.319863896992,-0.2447043785206211,-0.9806880686093722,-37.91874011577582,47.55133381219913,-0.5965641622841389,-0.0020220107911832486,47.2085837442,5.37453473382,-0.125981999252,1.8069417586669059,5.698248782024351,33.70341990225298
1570519606.513,31.50812867,120.40173407999998,718.9073342844978,-0.03314654611249047,-0.8465186435201629,-41.70867123206145,48.08576796147945,-1.0553865432980185,0.005182070192113031,47.6306455997,5.81949559042,-0.116623393906,1.5073209682599369,5.4657477237617185,37.02268603555348
1570519606.713,31.50813232,120.4017298,719.0391145773779,0.045939472829213956,-0.5889055581906507,-45.08835494861999,48.490474398120654,-1.4619620398783262,0.0028852284773286385,48.0345160911,6.28975813329,-0.130716261935,1.4894201216795857,5.474857721804425,40.549923802739784
1570519606.913,31.50813603,120.40172467,719.394348410359,-0.3093776737248344,-0.45506963777960924,-48.83831198477522,48.90183360473718,-1.9492826446343496,-0.0033114894285013463,48.3981807808,6.79065315379,-0.139054112848,1.4715720688967382,5.2490757383441355,44.06604272276494
1570519607.113,31.508139250000003,120.40171975999999,719.950117471636,-0.36742485285651133,-0.47384837363889776,-52.27271123428126,49.258862412092384,-2.415704483920516,-0.01300857101497499,48.7178208533,7.30789495048,-0.134971562764,1.1117035829722,5.091879743398329,47.59786187732981
1570519607.313,31.508142580000005,120.40171410999999,720.3339991943736,-0.2993384245785123,-0.34044779562710065,-55.89671078440145,49.628087869955166,-2.9524220526308174,-0.019705472076609,49.022582431,7.86216109715,-0.136232872936,0.8023033081264285,5.240171704696704,51.22168368065834
1570519607.513,31.50814546,120.40170899000002,719.7209343535836,-0.43611993365770024,-0.20646464238768647,-58.84081886166676,49.94741789446809,-3.438792625410148,-0.009002725617371254,49.2954447997,8.40788519487,-0.148856335282,0.9951546348443895,5.297505979740363,54.71579873202545
1570519607.713,31.50814861,120.40170227999998,720.7350696509652,-0.07275175910544616,0.009529434092550268,-62.39523716572763,50.29668540741051,-4.076204064116039,-0.02669959537812261,49.5450589448,8.9908534379,-0.148756447224,0.8038729744977743,5.306171528539403,58.06610657768833
1570519607.913,31.50815089,120.40169645,721.2679204004368,-0.12436730460799411,0.151683877950161,-65.2826607277923,50.54948859912106,-4.630020542360473,-0.03599721037768333,49.7653277657,9.5787118878,-0.128469292388,1.1187697518487016,5.173731923197619,61.180554942470515
1570519608.112,31.508153149999995,120.40168975000002,721.9726584884477,-0.18461333795673004,0.02677661057234239,-68.51483687764383,50.80007431635757,-5.266482008609541,-0.048294718279663584,49.9574773305,10.1712141071,-0.123602834796,1.3179658803544698,4.930986448328351,64.22372106210302
1570519608.312,31.5081549,120.40168358,722.55134586153,-0.26581767307933923,0.23229033156823356,-71.42758920640595,50.99411201436975,-5.852596520147584,-0.058392653577097775,50.1111841044,10.8091672631,-0.117918685906,1.2218508762954756,4.96665367188147,67.29516160338301
1570519608.512,31.5081573,120.40167634,721.5028330964404,-0.2631021997581058,-0.07046809698878914,-74.4844681484281,51.26022057765748,-6.540354796837061,-0.04008984579126462,50.249726026,11.4759540344,-0.125495832568,1.1156970204742969,4.770808613928968,70.30173930214995
1570519608.712,31.50815868,120.40166947,721.9726584884477,-0.3096262984567991,-0.07151088097634177,-77.29257846669195,51.41323334763702,-7.192965264792777,-0.04828790763988522,50.3649598511,12.133549222,-0.1291661082,1.1397796193591698,4.954920202487099,73.38087390771794
1570519608.912,31.508159830000004,120.40166253,722.6716669985074,-0.23906916217193014,-0.03577892480007332,-79.88249975357569,51.5407441511599,-7.8522253395956,-0.06048609668488325,50.4271016565,12.7642960185,-0.121155325656,1.1595458839393515,5.055895065697534,76.2254818723156
1570519609.112,31.508160819999997,120.40165512000002,723.5368332691548,-0.05390003464616198,-0.07761517849756365,-82.36965788276552,51.65051450307357,-8.55613271849394,-0.07558430088922563,50.4669316631,13.415898975,-0.11770262702,1.2275158595244904,4.944379814783874,78.8824727975998
1570519609.312,31.508161440000002,120.40164835000002,723.9951995052596,-0.18435053261779716,-0.12082542938983554,-84.4230859431618,51.719259761654925,-9.199243787633062,-0.08358284583076525,50.4877659555,14.088298528,-0.10671638932,1.379078292169199,4.937105285166632,81.30982363957088
1570519609.512,31.50816274,120.40164013999998,722.4539430363576,-0.41340291935887324,-0.2629541735856101,-86.48984484053548,51.863402257837194,-9.979146454603743,-0.056680500475042805,50.4824513507,14.7484078325,-0.103930708608,1.4195967041380444,4.99679526420435,83.53878014131895
1570519609.712,31.508163260000003,120.40163273,723.2217064818329,0.07538233185868247,-0.37390345182465184,-88.26610725619673,51.92105986494698,-10.68305384365353,-0.07007889044568216,50.4458492213,15.4094929059,-0.0968830679599,1.0767670144397519,4.893357325844173,85.53457302611864
1570519609.912,31.508163529999997,120.40162529,723.8118530108177,0.22632860689965734,-0.3568770916964034,-89.82244067332769,51.950997881082685,-11.389811081934086,-0.08037742372506074,50.4085148136,16.0581108489,-0.0967653840461,1.5244840783452518,5.05245875885707,87.37310330854781
1570519610.112,31.508163580000005,120.40161747,724.3618924941433,-0.054015028552727884,-0.26794698139808687,-91.1586343445526,51.956542723016476,-12.132666161893447,-0.0899760089554249,50.362972337,16.6706731025,-0.0963504701833,1.7852119365507573,5.022264994991514,89.027456939559
1570519610.312,31.508163560000003,120.40161038,724.9176615554202,-0.23358528910719928,-0.07731265650524352,-92.14732157141934,51.95432603920837,-12.806175447695034,-0.09967471243583148,50.3107070883,17.2778685132,-0.108026783926,1.7274560838235944,5.02052998483373,90.3384830089205
1570519610.511,31.50816406,120.40160296000002,723.2560839495408,0.06763782287027884,-0.11178069899266176,-92.86081554203142,52.00976592198022,-13.511032681167508,-0.07067280629846096,50.2273373261,17.9034446609,-0.0918292126689,1.3858435820787538,4.668233816196468,91.40467445737153
1570519610.711,31.508163990000003,120.40159416,723.8863375241847,-0.02210705840881678,-0.07361936735357234,-93.44439644887319,52.00200563760122,-14.34698214919461,-0.08167104557714921,50.1716574019,18.5415696021,-0.091652040387,1.7779323668506555,4.692451459530261,92.33080957960715
1570519610.911,31.508163880000005,120.40158647000001,724.6770192814652,-0.19126777789196237,-0.10338685248930064,-93.65481620562313,51.98981015271814,-15.077488010195118,-0.09546946115560218,50.1088049773,19.1727699557,-0.0924281262739,1.7388398634692535,4.641907995147463,92.90751163391003
1570519611.111,31.508163880000005,120.40157828999999,725.2786249663526,0.10800040316084018,-0.32068386040676555,-93.82562581029194,51.989811392108834,-15.8545410360087,-0.10596757935206824,50.0487494415,19.8020880696,-0.0928813143901,1.5675021667319184,4.617570737737244,93.15676280443722
1570519611.311,31.50816391,120.40157089,725.6854250008954,0.5833885316398887,-0.46665063538804896,-93.88466245042171,51.993138898629375,-16.557498529912607,-0.11306576704815186,49.9973798657,20.4271235937,-0.078733196903,1.6716430138467335,4.818528731981942,93.32288176032138
1570519611.511,31.50816403,120.40156246999999,725.3874869474274,0.33559656535334653,-0.5641204409390712,-93.9403505063191,52.0064455725794,-17.357350116014153,-0.1078635343401082,49.951369846,21.1141694284,-0.0806840468471,2.203773696054416,5.084944474222475,93.48222483907652
1570519611.711,31.50816392,120.40155470000002,725.9719038984609,0.20802501864918052,-0.3818539871079752,-94.02875138444608,51.994250282787405,-18.095455518596737,-0.11806158344617756,49.8733966515,21.824603438,-0.0732460079231,2.0221655897842754,5.123872208080234,93.56386974077252
1570519611.911,31.508163829999997,120.40154652999999,726.4474588684195,0.20085074796672162,-0.17103846911667897,-94.19031116837546,51.98427266524463,-18.871558621411864,-0.12635941938713913,49.7994679356,22.5021943132,-0.0664345625962,1.8160532204150055,5.075696641263886,93.67828058922576
1570519612.111,31.50816373,120.4015391,726.9516617281346,0.17766170227477857,-0.1960252869515746,-94.31207409302544,51.97318619456431,-19.577365981108823,-0.1351573833046693,49.7249101494,23.193986247,-0.0638138437044,1.7610587605785306,4.767445112123899,93.81458488412586
1570519612.311,31.50816354,120.40153131000001,727.6563998161455,-0.047638266291045964,-0.23699664636467122,-94.40883472862788,51.952120805658055,-20.31737130572865,-0.14745524403440413,49.6446061479,23.9023860952,-0.0671997592759,1.784846528715211,4.708632410287534,93.98461070354784
1570519612.511,31.50816366,120.40152333000002,727.6678589720482,0.06416447327591471,-0.4029851663313386,-94.40915888382835,51.965427728618884,-21.075425436129663,-0.14765267785855585,49.5414379984,24.6217467788,-0.0601693838613,1.461675849546557,4.756775438342546,94.00956144342535
1570519612.711,31.50816346,120.40151566000002,728.3324900143999,-0.17836458443026157,-0.41248619307629747,-94.51386315482681,51.943253631591176,-21.80403145826135,-0.15925041184281952,49.4418628774,25.3271770974,-0.0528446349233,1.5274754113529836,4.887460218127903,94.11476344348438
1570519612.91,31.50816331,120.401508,728.985661900849,-0.17052885016475805,-0.40409673202368973,-94.53009706670686,51.926623504076076,-22.531687532682703,-0.1706480212242063,49.341977635,25.9992924548,-0.0475211515546,1.243290359071379,4.9194507708325235,94.16177973069414
1570519613.11,31.50816317,120.40150032999999,729.6961295668112,-0.14278697515872973,-0.4761677865018183,-94.66807003485087,51.911102222322484,-23.26029355439941,-0.18304553556569658,49.2492581339,26.6632302598,-0.0436382027086,1.155296003866329,4.854899026433602,94.167947872267
1570519613.31,31.508162970000004,120.40149269,730.2690873619421,-0.21838986988820996,-0.40640580969596996,-94.73265817550302,51.88892825875752,-23.98604975929697,-0.19304303119018584,49.1657005483,27.3245523702,-0.0390199246615,1.2286246542393922,4.951281628345054,94.31932617633053
1570519613.51,31.508162980000005,120.40148501,729.7018591447625,-0.26362148079542824,-0.48937493253747416,-94.73230689152003,51.89003866762427,-24.71560560796896,-0.18314023913389121,49.0744369581,27.9976015477,-0.0331358407265,1.128625926545703,4.879671812423152,94.38159098157051
1570519613.71,31.50816283,120.40147754,730.3378422973577,-0.16120535490748383,-0.412235231062448,-94.78142780725173,51.87340869655926,-25.425212788266975,-0.19423758786070877,48.9790596092,28.6771666352,-0.026977017058,1.0145146391538509,4.930316219125633,94.45677535027542
1570519613.91,31.508162629999998,120.40147013,730.9566367160991,-0.19357114087354058,-0.413573695227822,-94.78974332147394,51.85123483505753,-26.129120328970735,-0.20503492730031425,48.8792983666,29.3631320327,-0.0269960290483,1.055095991924078,4.940610622552966,94.54025248798688
1570519614.11,31.50816246,120.40146237,731.6155381804995,-0.07089114765089766,-0.6194023596311825,-94.88720991993046,51.83238746649382,-26.86627586036534,-0.2165320209626067,48.7741848127,30.0447896027,-0.0292991305661,1.0038913455021061,4.90580440828226,94.56403859223859
1570519614.31,31.50816221,120.40145545000001,732.2343325992407,-0.3191488976234076,-0.6869321195007859,-94.9342529170729,51.804669655018934,-27.52363623981653,-0.22732944743138006,48.6735215398,30.7178566804,-0.0353875526168,1.0994212900429734,5.088016459189737,94.66781387278729
1570519614.51,31.50816226,120.4014481,730.4638930122866,-0.21679610469477117,-0.6255528515829655,-94.85402665500644,51.810215194544426,-28.221843885135357,-0.19642635340550285,48.5756821348,31.3647061215,-0.0356063181215,0.8767613311218195,5.151579262040398,94.6340434584871
1570519614.71,31.50816211,120.40144100000002,731.1056057428331,-0.03877226714154327,-0.6018745851683135,-94.96834336798855,51.79358536676602,-28.896303205817347,-0.20762347078372656,48.4802857569,31.9917119538,-0.0389802132414,0.8741348983441206,5.134014700056417,94.73890828365417
1570519614.91,31.50816183,120.40143364,731.4665691537655,-0.3364427271155324,-0.46884055305540306,-94.99180852150633,51.76254141172717,-29.595461060807263,-0.21392052184164,48.3918710176,32.6084085657,-0.0380218770857,1.0836562454698142,5.105627715774321,94.79668143228727
1570519615.11,31.508161640000004,120.40142669,731.9650424355293,-0.24956420250929687,-0.4084822612482172,-95.07324865057564,51.74147647177508,-30.255671256489876,-0.22261759928388258,48.2951366716,33.2048319587,-0.0344388541412,0.87725472732182,4.9521588434029695,94.80007322491893
1570519615.31,31.508161470000005,120.40142013000002,732.6182143219784,-0.09304990366463683,-0.45838029310342226,-95.12233553494663,51.72262905579978,-30.878833699348395,-0.23401476788811948,48.2125287493,33.7644062034,-0.0313169747294,0.8476284537751742,4.893636466554203,94.84894328838794
1570519615.509,31.508161409999996,120.40141311,730.5612958374588,-0.31528124729503465,-0.5657087571483775,-95.1373407405175,51.715978054179445,-31.54569323873734,-0.19811156122523954,48.1186016462,34.3495326605,-0.0277452087849,1.032852985207228,4.906499658274243,94.86663831498284
1570519615.709,31.50816119,120.40140642000001,731.0311212294661,-0.3356220109962939,-0.46944561677015145,-95.18608929620673,51.6915868029529,-32.181204941579914,-0.20630858843786015,48.0195918633,34.9203125157,-0.0200091723772,0.8543072497377362,5.029970062285968,94.85356676160256
1570519615.909,31.50816108,120.40139977999999,731.6040790245969,0.07941501261968546,-0.49113970715056227,-95.27721212310752,51.67939222220289,-32.81196690905023,-0.2163054769255126,47.927971493,35.4791876366,-0.0179834821995,0.660158934829022,4.938964402150483,94.8427546310743
1570519616.109,31.50816083,120.40139326000002,732.125470618166,-0.08046333570246024,-0.36069077355259516,-95.35755923944399,51.651674649781775,-33.43132960996862,-0.22540249037411897,47.8595660017,36.0357451964,-0.0167225913033,1.0516219412611796,4.991857152583813,94.93448355473836
1570519616.309,31.508160570000005,120.40138681,732.423408671634,-0.21209805178655397,-0.31828083805653806,-95.40578532662066,51.62284827756093,-34.04404270506494,-0.23059948626050897,47.7762784817,36.5722776936,-0.0104898155357,0.955430066260529,4.908943308342725,94.93556324894622
1570519616.509,31.508160570000005,120.40138022,730.9394479822452,0.03595835716739478,-0.233490115102535,-95.69858296698585,51.622850132346855,-34.6700547354318,-0.2046961159543237,47.6872962095,37.1013969715,-0.00530003232023,0.81107688472522,4.81520300252542,94.93956816563983
1570519616.709,31.508160370000002,120.40137393000002,731.3061409711288,0.4447540786327017,-0.2766044714445778,-96.08116164352057,51.60067649805113,-35.26756873303923,-0.21109302354048864,47.6180755258,37.6236420013,-0.000556847269473,0.9381779927177073,4.8173920544283435,95.10543251297347
1570519616.909,31.50815992,120.40136780000002,731.9077466560162,0.06254338473005816,-0.23988667050952583,-96.60744017938904,51.550783262771304,-35.84988377441459,-0.2215901854005189,47.5573542865,38.1406763603,-0.00156802322131,1.3962276206681314,4.895437433689053,95.4643217514457
1570519617.109,31.508159530000004,120.40136146000002,732.423408671634,0.26502587960915913,-0.08034246019369475,-97.3793058374739,51.50754282633246,-36.45214758478532,-0.2305871258785004,47.4491563519,38.6806087215,2.5578800485e-05,1.140109596462446,4.852120144412878,95.90423238667451
1570519617.309,31.50815909,120.40135577000001,732.9104227974951,0.4747273613619258,-0.27445929265494623,-98.25665358144083,51.4587582775851,-36.99266515089014,-0.239084411542148,47.3358583643,39.212544372,0.00530166393692,1.1472705203045492,4.780813732066604,96.58878487423503
1570519617.509,31.508158460000004,120.40134959,732.3088171126078,0.276679440549869,-0.2053095520150933,-99.2229666659566,51.38890686322086,-37.579729875257456,-0.22858154795856223,47.2287537444,39.7486891496,0.000601574527225,1.5026681073735202,4.890639695775675,97.44135113712967
1570519617.709,31.508157740000005,120.40134390999998,732.8244791282256,0.20688270949371182,-0.03806617279330842,-100.43440810678786,51.30907640477074,-38.11929762836433,-0.23757899374135505,47.099138108,40.2774366878,0.000667785638538,1.3661788767936607,4.97860434537443,98.44059946798387
1570519617.908,31.508156889999995,120.40133827,733.5865129957494,0.12589994676840394,-0.35361804511374123,-101.72150980365411,51.21483179265023,-38.65506569696806,-0.2508765331515903,46.9608690549,40.7921200778,0.00023419307653,1.2821771025011315,4.7266745597446445,99.58759300098352
1570519618.108,31.508155920000004,120.40133254000001,733.9474764066819,0.11919288825022287,-0.25541740962936965,-103.16384538777287,51.10728176911418,-39.199383269817545,-0.257174079822601,46.8106429283,41.3186321682,0.000410997141647,1.2102184944897703,5.023102355635438,100.82735841316426
1570519618.308,31.50815492,120.40132746,734.4574088443484,0.07298686512291142,-0.1866940442464854,-104.63307013368117,50.99640520549318,-39.68195461105291,-0.2660719892919161,46.6457836499,41.8227415325,0.000216062534083,1.1709486723984823,5.037107174669724,102.21625144844845
1570519618.508,31.508153659999998,120.40132174999998,734.9215046584044,-0.11436008306334419,-0.17204000383124715,-106.41588055079148,50.85670048849455,-40.22437246155705,-0.274169714958429,46.470595808,42.317214052,0.00280903893456,1.2012612740518613,4.925715102318129,103.68622501235255
1570519618.708,31.508152249999995,120.40131653,735.6491610582204,-0.1978072022381496,-0.19649282325523368,-108.53801011220779,50.700363883646965,-40.72024322594847,-0.2868678197933008,46.2576422315,42.7874153287,0.00148107136374,1.0527960053776855,4.913099591291079,105.39911363184191
1570519618.908,31.50815066,120.40131149,736.0387723589095,-0.2941284813092621,-0.10321496487139278,-110.72538201122912,50.52406906457474,-41.19901508174844,-0.2936661536948719,46.0331967227,43.2623617111,0.00534433863059,0.9019863655074998,4.887082650582682,107.39525083798418
1570519619.108,31.5081488,120.40130656999999,736.6117301540402,-0.787874974518574,-0.0700658803141329,-113.10245995471368,50.31783706153989,-41.666387782835194,-0.30366475725478637,45.7865704704,43.7514750587,0.00640642670446,0.9463878899945339,4.882830123815842,109.57941770249604
1570519619.308,31.50814681,120.40130171999999,737.2076062609763,-1.0341382327482238,-0.09260835466568716,-115.4830626379673,50.097190854613736,-42.12711096618355,-0.3140634773876023,45.5111614418,44.2054224657,0.00901882357612,0.4921561930003718,4.711307757177631,111.8409646387257
1570519619.508,31.50814477,120.40129681,736.382547035988,-0.9405355382456028,-0.24723778544583688,-117.5457224915117,49.871000572861035,-42.59353368223203,-0.29966216127472833,45.2205690702,44.6862187971,-0.012047906598,0.12471194069763991,4.737668654866092,114.17245005991833
1570519619.708,31.5081422,120.40129143000001,737.0643668121936,-0.7207171915936879,-0.563783525435296,-120.20535603257126,49.586045117452684,-43.104604149432106,-0.31156096307671177,44.9281054408,45.1070513507,0.00542992298018,0.1694731333795893,4.874347089782275,116.55051662371174
1570519619.908,31.5081396,120.40128662,737.6086767175678,-0.8012056088909584,-0.6974879183644885,-122.4669153364585,49.29776308819137,-43.56152790473962,-0.3210601053635962,44.609408931,45.5527606357,0.00844798038311,0.34268098342629,5.1853851063923,118.99723761724901
1570519620.108,31.50813682,120.40128184000001,738.0498542198186,-1.0097288997630551,-0.7113213109118667,-124.40353168240286,48.989522927631604,-44.01560192673902,-0.3287593740386008,44.2597970012,45.9851600018,0.0155329684914,0.39854471550200904,5.410296274101536,121.29856924799368
1570519620.307,31.508133979999997,120.40127699000001,738.4165472087024,-0.7363765967730478,-0.5642843148136044,-126.15901983793054,48.67463009702692,-44.47632559796402,-0.3351586018349231,43.8990914772,46.4097981679,0.0255665441485,0.10964301828390736,5.440613520561768,123.29453193353577
1570519620.507,31.508130679999997,120.40127150999999,736.8409132720926,-0.5185993272395352,-0.4607902311182574,-127.90304923557922,48.30873319363313,-44.99689568443649,-0.30765774624116915,43.5285008252,46.8094050453,0.0252568765918,0.33873314928150833,5.3699872827754636,125.09156864695358
1570519620.707,31.508127400000003,120.40126671999998,737.127392169658,-0.4078167311517665,-0.4922707674884096,-129.79484347932998,47.94505384901534,-45.451919961409345,-0.3126572777167773,43.1424026708,47.2275810334,0.0225641112564,0.6559196720875274,5.230042710887877,126.87800969107381
1570519620.907,31.508123990000005,120.40126199,737.6602429191296,-0.10819971541773989,-0.4663011195493112,-131.79068643300224,47.566960329752696,-45.901244704837275,-0.3219569049598334,42.7310930041,47.6457054182,0.0160725980468,0.7843044546576777,5.281970658140001,128.76658415196331
1570519621.107,31.508120329999997,120.40125744999999,738.0956908434291,-0.15263718283382838,-0.35848369665965135,-133.86865458198804,47.161147120073956,-46.332520678612035,-0.32955681525048774,42.3012969257,48.0693313528,0.0169338604162,1.0392302257220418,5.311192869964393,130.768307446135
1570519621.307,31.508116440000002,120.40125303999999,738.5311387677285,-0.38642835635952844,-0.4372340667376158,-136.06162760593136,46.729831825821485,-46.7514475402251,-0.3371569492926412,41.8495165219,48.4646391416,0.0179116153091,1.1250169435271211,5.227685209655672,132.8124424742951
1570519621.507,31.508112189999995,120.40124809,736.9669639870215,-0.39143933774594575,-0.4147780839804865,-138.20246817441088,46.258600277623955,-47.221671287899674,-0.30985693772340994,41.3703917125,48.845896737,0.0193464161317,0.8824741642281569,5.2841779231588815,134.99711618131076
1570519621.707,31.50810798,120.40124387999998,737.4196006451747,-0.2652235186793512,-0.5013845768237782,-140.50157134887175,45.791803826922845,-47.62159952559803,-0.3177573482564924,40.8616486871,49.2153288383,0.0152479029104,0.8396027728829314,5.286109790103681,137.18691097875478
1570519621.907,31.508103529999996,120.40123994,737.9008851930846,-0.6068369875307936,-0.5453368580536165,-142.7793314336845,45.2983964450045,-47.995879458887366,-0.32615808299404137,40.3560846877,49.550074064,0.0174084946281,0.8978368422005721,5.291728329498311,139.44701443845716
1570519622.107,31.50809892,120.40123620999998,738.336333117384,-0.919675964490134,-0.47949334919245035,-145.06866656814876,44.78724842395897,-48.35021069840046,-0.3337590320536492,39.8186915283,49.875172531,0.0200324265839,0.7516719727967931,5.350507667746917,141.71244126632016
1570519622.307,31.50809416,120.40123254,738.5712458133877,-0.9612697551472511,-0.5897501426570565,-147.29357773088742,44.25946859120732,-48.698842363505115,-0.3378600814853172,39.2554986543,50.1795139029,0.0279332782908,0.3128446379189082,5.254782514259813,143.95033177494358
1570519622.507,31.5080893,120.40122856999999,737.219065416879,-0.6063486663012004,-0.4747353426951651,-149.1786878507699,43.7206008702189,-49.07597220496445,-0.31426092485934376,38.6851218382,50.4709665845,0.0198312382126,0.3226805848220592,5.315346986246204,146.21745056945227
1570519622.706,31.508084319999995,120.4012253,737.7805640561071,-0.6524218059217369,-0.3294342126855098,-151.20858105005598,43.16842766017303,-49.386606366870865,-0.32406230644098244,38.1150323721,50.7353562288,0.0121585958826,0.5617166136679597,5.330538495414754,148.2710841095936
1570519622.906,31.508078860000005,120.40122221,738.1186091552344,-1.2324207716543891,-0.5338462528515201,-153.49221994388412,42.56303269160111,-49.68014180451065,-0.32996411330635667,37.5416801515,50.9797743942,0.0161003851332,0.8180106091395747,5.091242875770548,150.35557313597928
1570519623.106,31.50807336,120.40121914000001,737.981099284403,-0.948153665524226,-0.5930081542229779,-155.70313398937367,41.95320252567882,-49.97177734606825,-0.32756589315728846,36.9429039439,51.1792499892,0.0204239224431,0.12168390974213333,5.208479644344495,152.4100966308767
1570519623.306,31.508068269999995,120.40121660999999,738.4910317220694,-0.8106079965654232,-0.6241008901934736,-157.9150766993337,41.38883236456867,-50.21211584149953,-0.3364677092829993,36.332700844,51.3841967902,-0.0124436597649,0.25743534723273775,5.222728456614154,154.5522623418744
1570519623.506,31.50806258,120.4012138,738.1014204213805,-0.8084493832655347,-0.6959247739365307,-160.11522364123883,40.757935160219645,-50.47905298192303,-0.32966968311623646,35.7160478059,51.5657189515,0.00233481288864,0.4215174752850688,5.2936333379817295,156.8006186623996
1570519623.706,31.50805701,120.40121176999999,738.1186091552344,-1.1205005756978716,-0.6507164270082781,-162.49521339809957,40.140343062934456,-50.671894539549704,-0.32997208890059326,35.0885395679,51.7188395758,0.0110929444384,0.4851823163434631,5.342402847434136,159.1075856511999
1570519623.906,31.508051360000003,120.40120982,738.0212063300621,-0.9262084490571169,-0.6162726821968306,-164.78983009427205,39.51388064399631,-50.85713659640591,-0.32827454229677144,34.4506255329,51.8378253569,0.0101091034738,0.12327493203454433,5.296881118646542,161.4020428564764
1570519624.106,31.50804555,120.40120816999999,738.4967613000207,-1.0423089755732675,-0.9288167257108062,-166.74928832466827,38.869677595807396,-51.0138805329303,-0.33657726546481115,33.792575764,51.957801661,0.00406137979816,0.27882716393498685,5.247161500666733,163.76307102651373
1570519624.306,31.508039700000005,120.40120671000001,738.7660514637322,-1.1313680302959959,-0.9589389127832335,-168.68451379080005,38.22103930146608,-51.15257554612034,-0.34128009092949085,33.1366600865,52.0467826605,0.0053129040171,0.1833484995086927,5.517995222333849,165.78841928023994
1570519624.506,31.508033550000004,120.40120505,738.0498542198186,-1.1734420263031384,-1.1096651655490897,-170.46611218334994,37.53913746039009,-51.31026948257135,-0.32878289213903855,32.4934688209,52.108901423,0.0122726093708,0.08850487827596935,5.591077065012185,167.7008158726849
1570519624.706,31.50802759,120.4012039,738.1243387331856,-1.1108462824354315,-0.9454060727819026,-172.07680649742016,36.878302374126946,-51.419516303954396,-0.33008588323240673,31.8367716914,52.1558243121,0.0121112195784,0.050182020071556116,5.718089137306858,169.5079447312018
1570519624.906,31.50802162,120.40120293999999,738.6056232810955,-1.1842892202730377,-0.6446438323070834,-173.52624190252013,36.2163584567253,-51.510714264839145,-0.3384889557441557,31.1764747018,52.1983742966,0.0089716861555,0.18331200647510004,5.672900361829886,171.1945886401055
1570519625.105,31.508015509999996,120.40120204999998,738.6571894826573,-1.012894663864588,-0.8254533266921409,-174.75375555631274,35.538891477798344,-51.5952626477176,-0.3393920996390385,30.5260831556,52.2183532886,0.0170643005928,0.11896633014761016,5.307463491601737,172.6307865893643
1570519625.305,31.508009360000003,120.40120131999998,738.5425979236312,-1.0486820043992993,-0.7881993543397121,-175.91219505698996,34.856989271062616,-51.66461193108833,-0.3373953166909054,29.8615222166,52.2310290864,0.0174964589362,0.21525922897256783,5.426907359940431,173.93241191716527
1570519625.505,31.50800331,120.40120049999999,738.6801077944625,-1.275552869157911,-0.9392344826663265,-176.8374948044679,34.186174978988426,-51.74251070280829,-0.3397983309415089,29.1958281218,52.2327634597,0.00734162915988,0.35149892335957855,5.4324634111970225,175.16231586527783
1570519625.705,31.507996729999995,120.40119985000001,739.1098261408107,-1.0126598816368826,-1.3786121793979027,-177.76435183067323,33.456595047697405,-51.80426076434248,-0.3473017139733017,28.528048901,52.2115452312,0.00839134230854,0.0596535770173844,5.463240199729631,176.12533721359733
1570519625.905,31.50799045,120.40119936,738.8348063991479,-0.9571989033848171,-1.3168027258931647,-178.48763573556764,32.760278517163435,-51.850811460351984,-0.3425049649287448,27.8483295797,52.1896216223,0.00955879388129,0.18649181082914346,5.956762948268701,177.05213149776282
1570519626.105,31.50798411,120.40119895,739.1442036085184,-1.114418820904279,-1.3983323014290328,-178.84029255028045,32.05730929355603,-51.8897627254966,-0.34790823502308044,27.181235,52.1686519137,-0.00319637475708,0.3545267637718132,5.917743538526586,177.86389035729496
1570519626.305,31.50797777,120.40119854,739.2645247454959,-1.2723517473855004,-1.2487572435926007,-178.931708984922,31.35434005264186,-51.928713969905615,-0.3500114264167653,26.5126743805,52.1520489553,-0.00629445269244,0.2755737275611579,6.017661178871344,178.30292639539596
1570519626.505,31.50797108,120.40119774,737.7748344781559,-0.8917226533241718,-0.9424102428996055,-178.86959263536605,30.61256340162322,-52.0047130171021,-0.32401442613290676,25.8338770965,52.132630387,-0.0143722444334,0.039770708777590195,5.916711151147029,178.45864501877594
1570519626.705,31.50796463,120.40119723999999,737.7862936340584,-0.9040482520504995,-0.999328022358237,-178.83466481526517,29.897397567827383,-52.052213821001885,-0.3242174446028585,25.1640126316,52.1454414977,-0.0119198278126,0.41988986562887215,5.615141307236223,178.46761816688746
1570519626.905,31.50795816,120.4011968,738.0498542198186,-1.0301978503378857,-0.9979527147530718,-178.82211805701195,29.180014158839406,-52.09401500818418,-0.32882043809718553,24.4633362165,52.1427610687,-0.0208034385124,0.5364137833990977,5.630543544542292,178.40761056574374
1570519627.105,31.50795166,120.40119625000001,738.3306035394328,-0.8707264818491713,-1.102814751250566,-178.8341691254967,28.459304449017967,-52.146265611707435,-0.3337232828703165,23.7646668527,52.1306443069,-0.0220263591433,0.3644394216502269,5.64041621800688,178.4088318158161
1570519627.305,31.50794513,120.40119573999999,738.4108176307511,-0.8019800119107635,-1.1265878315685167,-178.85758260872655,27.735268350957348,-52.194716433782204,-0.33512608720852377,23.0576621641,52.1317069388,-0.0206533161745,0.4585043592422272,5.68920059503181,178.42379156957668
1570519627.505,31.507938420000002,120.40119517,735.6606202141231,-1.109845215139775,-1.1019242100131932,-178.99230650415979,26.991273948457767,-52.24886662669587,-0.2871288504755949,22.3372971475,52.1229054159,-0.0225166545132,0.631287856263892,5.821411199075194,178.46322601715963
1570519627.704,31.507931519999996,120.40119459,735.7580230392954,-0.9037666510770591,-1.207398524461313,-179.0622130948924,26.226212861011152,-52.30396728409406,-0.2888316046501256,21.6149809751,52.0965178328,-0.0229762888448,0.3506254490138089,5.702930085394711,178.45221701553004
1570519627.904,31.507924970000005,120.40119402999998,735.6262427464153,-0.6051205150234275,-1.1411094255167051,-179.07716927294422,25.49995921165479,-52.35716783298044,-0.2865341245133095,20.8958440987,52.076894984,-0.030976544477,0.32785352074045254,5.762299296189825,178.49805361555957
1570519628.104,31.50791843,120.40119363999999,735.769482195198,-0.8672299105853456,-1.047921453756247,-179.15548172503566,24.774814284331008,-52.394219355638576,-0.28903668925620885,20.1810136841,52.0639737408,-0.0483137557969,0.6505389401196044,5.797734758004604,178.5307851871997
1570519628.304,31.507911869999997,120.40119328,735.8382371306137,-1.1076694554807545,-1.2309592992525253,-179.30049109454754,24.047451769033135,-52.42842104753983,-0.29023920287470695,19.4703423681,52.0358090919,-0.0543221477347,0.49834903299368954,5.630544212835453,178.59118965089903
1570519628.504,31.50790515,120.40119247999999,733.1625242273527,-0.9336955521128633,-1.2105550786776504,-179.485885718159,23.302348735820672,-52.50442003033544,-0.2435413548758465,18.7632028606,52.0048220482,-0.052499582877,0.14141634644007,5.7422640338685,178.67671704782336
1570519628.704,31.50789834,120.40119203,733.466191858772,-0.9786183842761554,-1.291552810220957,-179.59932069388233,22.547266670087083,-52.547171416025456,-0.24884372844686986,18.0593277597,51.9820120222,-0.0622093785882,0.2994841546173725,5.710866498900985,178.82083385065542
1570519628.904,31.507891930000003,120.40119167999998,733.3802481895024,-1.1487195860641513,-1.2351543217369563,-179.74695161302793,21.836535917214796,-52.58042307720364,-0.24734593764050317,17.3584784707,51.9532408291,-0.0666063854258,0.3800844655086665,5.782344678104194,178.92755965922333
1570519629.104,31.50788559,120.40119119999999,733.0937692919371,-0.8265412054674118,-1.2022717105504606,-179.86526403777464,21.133566706746578,-52.62602396318791,-0.24234793928876464,16.6739507068,51.9054209824,-0.0704542521796,0.07276005911492014,5.717001018193732,178.96627662522044
1570519629.304,31.507879299999995,120.40119088,732.9046932195439,-0.9512983310196559,-1.2604827711231112,-179.9895351525892,20.436141350421867,-52.65642571340536,-0.23904996912415122,15.9982020006,51.874305222,-0.0880245199533,0.3124615938494032,5.677623273934422,179.04223670535592
1570519629.504,31.507872679999995,120.40119030000001,732.0853635725068,-1.0514392969483177,-1.3774132049375107,179.76051281262164,19.702126195311408,-52.711526145421864,-0.2247518338501333,15.3402379701,51.8433991699,-0.0994152784743,0.2664111445859192,5.675364226422984,179.14811401354214
1570519629.704,31.50786688,120.40118995999998,731.884828344211,-1.015707184576629,-1.172572367711471,179.5863647804882,19.059031297330552,-52.743827522769976,-0.2212535292657467,14.6910533275,51.8053424495,-0.0965530843372,0.038613671227572706,5.802853614778772,179.25786699897787
1570519629.904,31.507860770000004,120.40118959,731.8962875001135,-0.843196802899727,-1.046722625772306,179.46907251836774,18.381564102852828,-52.77897894223578,-0.22145523572901915,14.0566575713,51.7709289996,-0.0983996489917,0.022954613229353264,5.614426619251092,179.38763142686344
1570519630.103,31.507854320000003,120.40118926,731.9306649678214,-0.8317867357451691,-0.898278776867563,179.3876706737566,17.666398216766176,-52.81033077868903,-0.22205700456109412,13.4328995898,51.7472762561,-0.0982259151972,0.24884675494989206,5.533054009880787,179.5393504544538
1570519630.303,31.50784817,120.40118891,732.0509861047989,-0.7413402547419102,-0.691370571638588,179.40854297473956,16.984495880124054,-52.84358235484633,-0.2241585896423688,12.8028554464,51.7183244883,-0.0960803687059,0.31838952392240216,5.350938268471418,179.66520499500115
1570519630.503,31.5078416,120.40118853,730.2003324265264,-0.7968646504916844,-0.8985744594400495,179.31863935134106,16.25602451991974,-52.87968372492377,-0.1918601966061022,12.1833668374,51.6941511309,-0.0907921010782,0.4353999667402703,5.221902537456513,179.67417504479545
1570519630.703,31.50783564,120.40118823000002,730.1774141147212,-0.8308800238626824,-0.9447023848882118,179.30778066356018,15.595189065245455,-52.9081854524853,-0.19146161652099458,11.5538706755,51.6685095068,-0.0943352191109,0.41581751325547395,5.282494943817595,179.64333339687215
1570519630.903,31.50782899,120.40118789999998,730.3149239855525,-0.7945099925721271,-1.3225212155193369,179.33302001844368,14.857847497947285,-52.939537437271795,-0.19386312424158447,10.9170964944,51.6397730522,-0.0985380229252,0.3517766432791572,5.338517792899507,179.65931918879804
1570519631.103,31.50782266,120.40118757,730.3091944076012,-0.7247226656518568,-1.3797882295030133,179.27527733434815,14.155987030217954,-52.970889220730236,-0.19376446666969382,10.2642083339,51.6105377437,-0.101287492141,0.3517441584680394,5.628521053255809,179.68708958060085
1570519631.303,31.50781664,120.40118724,730.1888732706237,-0.5769809526072391,-1.1611371965510864,179.2609377424298,13.48849888215213,-53.0022408185241,-0.19166565765995003,9.61171566741,51.5819629187,-0.106853662452,0.3630820330032045,5.8347911734233255,179.7154799979675
