time,ins1000_lat,ins1000_lon,ins1000_alt,ins1000_roll,ins1000_pitch,ins1000_yaw,ins1000_ned_x,ins1000_ned_y,ins1000_ned_z,algo_pose_x,algo_pose_y,algo_pose_z,algo_roll,algo_pitch,algo_yaw,algo_vel_x,algo_vel_y,algo_vel_z,align_pose_x,align_pose_y,align_pose_z,align_roll,align_pitch,align_yaw,align_vel_x,align_vel_y,align_vel_z,algo_lat,algo_lon,algo_alt,loop_pose_x,loop_pose_y,loop_pose_z,loop_lat,loop_lon,loop_alt,loop_roll,loop_pitch,loop_yaw
1573524797,31.50808952,120.4019901,13.9435,0.049767438,1.540940315,173.4649237,0,0,0,0.91985,0.10142,0.0273,-0.337488939,0.473476534,2.372003233,0.855343324,0.103697497,0.034380796,0.91985,0.10142,0.0273,0.049767438,-1.540940315,3.517918823,1.367337016,-0.028648438,-0.025453727,31.50808952,120.4019901,13.94350001,,,,,,,,,
1573524797,31.50808852,120.4019902,13.9444,0.033573207,1.563296163,173.2123559,-0.110878481,0.010449378,-0.000899999,0.77486,0.08676,0.02107,-0.09226799,0.69911375,2.724728153,0.643062604,0.07594197,0.025910599,1.031124786,0.106018804,0.028199999,0.033573207,-1.563296163,3.770486619,1.422557547,-0.02948216,-0.027902312,31.50809082,120.4019899,13.93727001,,,,,,,,,
1573524797,31.50808694,120.4019904,13.9457,-0.007745341,1.595554484,172.8558015,-0.286066482,0.027548361,-0.002199993,0.72475,0.07995,0.01837,0.857320528,0.920003591,2.97876503,0.540479001,0.059912217,0.019006404,1.206969949,0.113873066,0.029499993,-0.007745341,-1.595554484,4.127041028,1.510525496,-0.033048257,-0.031575901,31.50809127,120.4019898,13.93457001,,,,,,,,,
1573524797,31.5080854,120.4019906,13.9466,-0.037923396,1.639747143,172.5451159,-0.456819342,0.045597289,-0.003099982,0.77026,0.08516,0.01926,1.892370575,0.922488475,3.221320689,0.551027152,0.045300684,0.017017164,1.378436121,0.122909398,0.030399982,-0.037923396,-1.639747143,4.437726663,1.589948297,-0.045300746,-0.037241728,31.50809086,120.4019899,13.93546001,,,,,,,,,
1573524797,31.50808394,120.4019908,13.9475,-0.077838812,1.671561875,172.3142995,-0.618701926,0.061746331,-0.003999969,0.82192,0.09034,0.02071,2.835676138,0.887631424,3.42699381,0.562356598,0.020939718,0.019592271,1.54094431,0.130515365,0.031299969,-0.077838812,-1.671561875,4.668543095,1.665764999,-0.058910507,-0.038687062,31.5080904,120.40199,13.93691001,,,,,,,,,
1573524798,31.50808257,120.4019909,13.9483,-0.082180636,1.70591301,172.1770011,-0.770605445,0.075995483,-0.004799953,0.89232,0.09727,0.02218,3.124764081,0.819448683,3.55258029,0.603593539,0.005973917,0.020018548,1.693387268,0.136749323,0.032099953,-0.082180636,-1.70591301,4.805841505,1.734929549,-0.072116384,-0.039268649,31.50808977,120.4019901,13.93838001,,,,,,,,,
1573524798,31.50808131,120.4019914,13.9391,-0.119962166,1.726267871,172.0498663,-0.91031233,0.118742946,0.004400066,0.97162,0.10436,0.02431,3.180961185,0.775657068,3.58048315,0.650319328,-0.000649834,0.025331006,1.835150506,0.172084059,0.022899934,-0.119962166,-1.726267871,4.932976225,1.796991003,-0.068259794,-0.034892221,31.50808906,120.4019902,13.94051001,,,,,,,,,
1573524798,31.50807949,120.4019916,13.9409,-0.133160672,1.748343769,172.0382093,-1.112111166,0.137741819,0.002600099,1.0695,0.11327,0.02701,3.087869028,0.737798135,3.560392428,0.712018493,-0.019658877,0.02529612,2.037669617,0.180434916,0.024699901,-0.133160672,-1.748343769,4.944633295,1.880251839,-0.089258041,-0.041992778,31.50808818,120.4019903,13.94321001,,,,,,,,,
1573524798,31.50807794,120.4019917,13.9422,-0.156745505,1.769641479,172.0949848,-1.283972811,0.153890861,0.001300131,1.18107,0.12324,0.02928,2.837021398,0.691235023,3.48401259,0.783698903,-0.022233812,0.026619517,2.210143036,0.187515635,0.025999869,-0.156745505,-1.769641479,4.887857772,1.946782898,-0.091557177,-0.046891809,31.50808718,120.4019905,13.94548001,1.21112,0.12912,0.02946,31.50808691,120.4019906,13.94566001,0.044185059,0.011206089,0.060752727
1573524798,31.50807616,120.4019919,13.9438,-0.179215413,1.791176754,172.2211575,-1.481336507,0.17098985,-0.000299824,1.29518,0.13273,0.03109,2.505641579,0.608067023,3.340039689,0.862213539,-0.017652815,0.02590823,2.408133155,0.194202684,0.027599824,-0.179215413,-1.791176754,4.761685098,2.026277613,-0.09625861,-0.045558458,31.50808615,120.4019907,13.94729002,1.32532,0.13876,0.03218,31.50808589,120.4019907,13.94838002,0.039916038,0.010208581,0.058024095
1573524798,31.50807411,120.4019921,13.9456,-0.212936646,1.823487021,172.4042914,-1.708637395,0.190938673,-0.002099766,1.41701,0.14233,0.03385,2.26590549,0.562626347,3.14738795,0.939093742,-0.023432801,0.024358096,2.636168969,0.202159872,0.029399766,-0.212936646,-1.823487021,4.578551176,2.111693853,-0.114013003,-0.051144872,31.50808506,120.4019908,13.95005003,,,,,,,,,
1573524798,31.50807217,120.4019923,13.9473,-0.211495557,1.84669684,172.5879948,-1.923741649,0.207087717,-0.003799705,1.541,0.15063,0.03636,2.066587044,0.524884444,2.934671025,1.012515455,-0.028509261,0.021438356,2.851825054,0.206964519,0.031099705,-0.211495557,-1.84669684,4.394847735,2.197546555,-0.121384535,-0.055593814,31.50808395,120.401991,13.95256004,,,,,,,,,
1573524798,31.50807036,120.4019925,13.9486,-0.209257022,1.858470401,172.7717341,-2.124431699,0.221336876,-0.00509964,1.66802,0.16042,0.0392,1.84000675,0.49543218,2.700320127,1.090343181,-0.004398582,0.030786247,3.052986915,0.210630606,0.03239964,-0.209257022,-1.858470401,4.211108487,2.277190216,-0.115112274,-0.059002587,31.50808281,120.4019912,13.95540005,,,,,,,,,
1573524798,31.50806804,120.4019927,13.9501,-0.254808958,1.913255361,173.0003547,-2.381669775,0.241285701,-0.006599549,1.80271,0.17026,0.04308,1.719490137,0.43425711,2.45696847,1.200360239,0.006639094,0.033954758,3.310918419,0.217012053,0.033899549,-0.254808958,-1.913255361,3.982487811,2.411546812,-0.114241305,-0.069960335,31.5080816,120.4019913,13.95928007,,,,,,,,,
1573524798,31.50806603,120.4019928,13.9514,-0.311783157,1.96754101,173.2173063,-2.604535523,0.258384691,-0.00789946,1.96183,0.18175,0.04802,1.619091856,0.397871576,2.180939435,1.325691522,0.013937684,0.042209825,3.53437524,0.222356802,0.03519946,-0.311783157,-1.96754101,3.765536219,2.530978866,-0.112339866,-0.065347351,31.50808017,120.4019916,13.96422009,1.99909,0.18693,0.04973,31.50807984,120.4019916,13.9659301,0.027766045,0.007289702,0.038347641
1573524799,31.50806371,120.401993,13.9549,-0.337404885,1.886073055,173.4580469,-2.8617736,0.275483686,-0.01139935,2.13907,0.19301,0.05309,1.558139089,0.507785314,1.936907523,1.421414215,0.004942813,0.044971152,3.792156744,0.225892369,0.03869935,-0.337404885,-1.886073055,3.524795684,2.61816781,-0.127571264,-0.041343716,31.50807858,120.4019918,13.96929012,,,,,,,,,
1573524799,31.5080616,120.4019935,13.93,-0.359846317,1.712939454,173.5961805,-3.095727182,0.320131049,0.013500764,2.31162,0.20238,0.05831,1.520815168,0.690312012,1.701928912,1.454761067,0.005032872,0.046312964,4.028136037,0.258163697,0.013799236,-0.359846317,-1.712939454,3.386662059,2.636017523,-0.128251118,-0.043421159,31.50807703,120.401992,13.97451016,,,,,,,,,
1573524799,31.50805945,120.4019937,13.9324,-0.329979896,1.646174935,173.8148753,-3.334115916,0.334380213,0.011100884,2.47195,0.20953,0.06172,1.535402514,0.785041016,1.458008864,1.467203682,-0.005356203,0.044856154,4.266944326,0.259845518,0.016199116,-0.329979896,-1.646174935,3.16796722,2.660899578,-0.136207139,-0.059249804,31.50807559,120.4019921,13.9779202,,,,,,,,,
1573524799,31.50805703,120.4019938,13.9335,-0.330684314,1.726975222,174.0555801,-3.60244184,0.349579322,0.010001031,2.63648,0.21452,0.06535,1.524021671,0.745005161,1.202954834,1.526946378,0.006249493,0.05889362,4.535698306,0.260900224,0.017298969,-0.330684314,-1.726975222,2.927262419,2.731704909,-0.127571737,-0.072895223,31.50807411,120.4019923,13.98155024,,,,,,,,,
1573524799,31.50805426,120.401994,13.9356,-0.388329101,1.816484236,174.3297013,-3.909575231,0.367628267,0.007901213,2.80579,0.22032,0.06978,1.416199918,0.670348606,0.934285225,1.60933553,0.024827654,0.074072584,4.84335596,0.262758186,0.019398787,-0.388329101,-1.816484236,2.653141249,2.841384166,-0.11254281,-0.057259576,31.50807259,120.4019924,13.98598029,2.81563,0.22141,0.06853,31.5080725,120.4019924,13.98473029,0.023617447,0.011728562,0.016320096
1573524799,31.50805193,120.4019942,13.9394,-0.46320927,1.779110136,174.5581751,-4.167922093,0.382827378,0.00410138,2.9808,0.22622,0.07393,1.272701191,0.706583263,0.664516186,1.677244671,0.021856992,0.072551585,5.102144711,0.264338141,0.02319862,-0.46320927,-1.779110136,2.424667445,2.919579243,-0.115038839,-0.044194574,31.50807102,120.4019926,13.99013034,,,,,,,,,
1573524799,31.50804927,120.4019943,13.9438,-0.512850991,1.697548721,174.8106951,-4.462858855,0.39802649,-0.00029842,3.16477,0.23126,0.07762,1.161374987,0.791206878,0.405682119,1.714653183,0.011200421,0.062328929,5.397472642,0.263992189,0.02759842,-0.512850991,-1.697548721,2.172147429,2.967962092,-0.130035907,-0.051909643,31.50806936,120.4019927,13.99382041,,,,,,,,,
1573524799,31.50804657,120.4019945,13.9468,-0.532735774,1.70892696,175.0507837,-4.762230754,0.411325717,-0.003298202,3.34799,0.23304,0.08021,1.086218545,0.773284268,0.14714177,1.746947074,0.005919136,0.056229731,5.697129563,0.261515541,0.030598202,-0.532735774,-1.70892696,1.932058861,3.012095009,-0.134101703,-0.066805541,31.50806771,120.4019929,13.99641047,,,,,,,,,
1573524799,31.50804355,120.4019946,13.9497,-0.566444095,1.788922784,175.3137395,-5.097083768,0.424624946,-0.00619794,3.53767,0.23506,0.08306,1.007776797,0.717161236,-0.105999087,1.788493259,0.013102686,0.060309291,6.032218414,0.257171348,0.03349794,-0.566444095,-1.788922784,1.669103036,3.072721549,-0.129652707,-0.068640696,31.50806601,120.401993,13.99926055,3.55171,0.23587,0.08339,31.50806588,120.401993,13.99959055,0.015650005,0.012273789,-0.001704044
1573524799,31.50804103,120.4019947,13.9526,-0.587724847,1.834966924,175.5312131,-5.376497541,0.435074341,-0.009097709,3.73394,0.23584,0.08747,0.872388777,0.653537143,-0.345691062,1.84002903,0.003090346,0.058781194,6.311794873,0.252899315,0.036397709,-0.587724847,-1.834966924,1.451629418,3.128421634,-0.136042164,-0.065205986,31.50806424,120.4019931,14.00367063,,,,,,,,,
1573524800,31.50803819,120.4019948,13.9558,-0.607551669,1.846740407,175.748864,-5.691392428,0.44552374,-0.012297434,3.92324,0.23618,0.09098,0.773727098,0.63308251,-0.584750179,1.8656132,0.016054327,0.052394635,6.626803261,0.246759737,0.039597434,-0.607551669,-1.846740407,1.233978596,3.179615108,-0.129816077,-0.075986195,31.50806253,120.4019932,14.00718072,,,,,,,,,
1573524800,31.50803629,120.4019955,13.9776,-0.666583986,1.902019161,175.7704964,-5.902061559,0.505370224,-0.034097237,4.11622,0.23624,0.09335,0.625944144,0.60611213,-0.819483538,1.889935317,0.013146715,0.048384576,6.840330386,0.295434694,0.061397237,-0.666583986,-1.902019161,1.212346142,3.19658665,-0.123561463,-0.076880247,31.5080608,120.4019933,14.00955081,4.1146,0.23634,0.09243,31.50806081,120.4019933,14.00863081,0.010262603,0.010715052,-0.014525488
1573524800,31.50803338,120.4019956,13.9808,-0.651960334,1.915008444,175.9882819,-6.224717941,0.51486968,-0.037296929,4.30437,0.2337,0.09462,0.600633356,0.60376874,-1.061434761,1.903518175,-1.28E-05,0.039102886,7.163039512,0.287937964,0.064596929,-0.651960334,-1.915008444,0.994560698,3.243480758,-0.135888089,-0.070876856,31.5080591,120.4019934,14.01082091,,,,,,,,,
1573524800,31.50803045,120.4019957,13.9856,-0.64413061,1.8018585,176.229984,-6.549591895,0.524369137,-0.042096602,4.48736,0.23052,0.09715,0.58073961,0.721801872,-1.319947896,1.864140028,0.012422377,0.05378461,7.487963135,0.280324513,0.069396602,-0.64413061,-1.8018585,0.752858533,3.237971119,-0.122504636,-0.05051679,31.50805745,120.4019935,14.01335101,4.49939,0.23107,0.09746,31.50805734,120.4019935,14.01366102,0.010829236,0.013086775,-0.023190416
1573524800,31.50802755,120.4019957,13.9904,-0.672008582,1.698908374,176.4367046,-6.871139496,0.532918651,-0.046896261,4.68483,0.228,0.10049,0.583471145,0.842171335,-1.541659091,1.830601532,0.014771776,0.056815099,7.809515016,0.271937519,0.074196261,-0.672008582,-1.698908374,0.546137979,3.20293288,-0.123696378,-0.053435289,31.50805567,120.4019935,14.01669112,,,,,,,,,
1573524800,31.50802467,120.4019958,13.9942,-0.715156135,1.710141025,176.6421952,-7.190469525,0.539568276,-0.050695907,4.91491,0.22629,0.10353,0.614139688,0.911343798,-1.74965604,1.838819578,0.016189289,0.059294341,8.128752399,0.261769991,0.077995907,-0.715156135,-1.710141025,0.340647391,3.190438192,-0.111460506,-0.0580337,31.5080536,120.4019937,14.01973126,,,,,,,,,
1573524800,31.5080218,120.4019959,13.9985,-0.744653144,1.664944846,176.8829559,-7.508690771,0.547167847,-0.054995538,5.14079,0.22356,0.10636,0.661025508,1.010850922,-1.982550176,1.854718932,0.014731256,0.064834988,8.446932535,0.252609454,0.082295538,-0.744653144,-1.664944846,0.099886669,3.175954605,-0.113068342,-0.046368683,31.50805156,120.4019938,14.02256141,5.1787,0.22394,0.10551,31.50805122,120.4019938,14.02171144,0.013840581,0.018543987,-0.034755802
1573524800,31.50801894,120.4019959,14.0037,-0.796720005,1.573173071,177.0778984,-7.825803233,0.551917585,-0.060195155,5.36701,0.21865,0.10895,0.730250883,1.132618261,-2.189782211,1.860720403,0.016717813,0.07416766,8.763855425,0.240661394,0.087495155,-0.796720005,-1.573173071,-0.095055821,3.154559104,-0.112491157,-0.033383406,31.50804952,120.4019938,14.02515156,,,,,,,,,
1573524800,31.50801695,120.401996,14.0074,-0.816781873,1.539227698,177.2268015,-8.046451416,0.55476743,-0.063894878,5.6087,0.21418,0.11175,0.816879101,1.215015179,-2.41533948,1.881422049,0.014353821,0.063300546,8.98434775,0.231893472,0.091194878,-0.816781873,-1.539227698,-0.24395892,3.138310359,-0.110148128,-0.036685849,31.50804734,120.4019939,14.02795174,,,,,,,,,
1573524800,31.50801329,120.401996,14.0124,-0.881986434,1.551149556,177.5122762,-8.452266662,0.559517174,-0.068894352,5.85501,0.20777,0.11417,0.912713961,1.275185786,-2.654575475,1.909704106,0.021835575,0.060434126,9.389850465,0.215276548,0.096194352,-0.881986434,-1.551149556,-0.529433683,3.123069379,-0.108780158,-0.059242049,31.50804512,120.401994,14.03037192,5.91095,0.21085,0.11452,31.50804462,120.401994,14.03072197,0.018804328,0.02320731,-0.046751468
1573524801,31.50801047,120.401996,14.0154,-0.914282807,1.574896033,177.6952209,-8.764943983,0.561417079,-0.071893929,6.10943,0.20383,0.11644,1.039298284,1.298500438,-2.8719485,1.98260398,0.02813867,0.063234507,9.70219436,0.200716049,0.099193929,-0.914282807,-1.574896033,-0.712378389,3.132047379,-0.112829681,-0.052706437,31.50804283,120.4019941,14.03264213,,,,,,,,,
1573524801,31.50800847,120.4019959,14.0115,-0.911266835,1.599758191,177.9471505,-8.986700941,0.549067813,-0.06799362,6.33687,0.19696,0.11615,1.14681193,1.314634586,-3.06321742,2.035226704,0.019333017,0.052411029,9.922993919,0.176711725,0.09529362,-0.911266835,-1.599758191,-0.964307991,3.129045476,-0.124307368,-0.055659814,31.50804078,120.4019941,14.03235232,,,,,,,,,
1573524801,31.50800562,120.4019959,14.015,-0.931493822,1.600889651,178.1416663,-9.302704618,0.548117886,-0.071493164,6.5748,0.19101,0.11653,1.339918678,1.411902051,-3.28351594,2.099222595,0.041172712,0.06229798,10.23850956,0.159130262,0.098793164,-0.931493822,-1.600889651,-1.158823719,3.174581954,-0.115703146,-0.057198928,31.50803863,120.4019942,14.03273252,6.59325,0.19283,0.11704,31.50803847,120.4019942,14.03324254,0.025870476,0.025721106,-0.057805184
1573524801,31.50800273,120.4019959,14.0188,-0.963398185,1.601907621,178.3132798,-9.623143434,0.54716796,-0.075292687,6.80694,0.18526,0.11848,1.43890197,1.507980757,-3.487533374,2.155020727,0.05780811,0.067995806,10.55845419,0.141315356,0.102592687,-0.963398185,-1.601907621,-1.330437198,3.227313331,-0.108618885,-0.0562748,31.50803654,120.4019943,14.03468273,,,,,,,,,
1573524801,31.50799981,120.4019959,14.0226,-1.028397064,1.487705401,178.4738246,-9.946908605,0.545268087,-0.079092188,7.02925,0.17967,0.12152,1.398027424,1.597461638,-3.680791663,2.150768501,0.068629334,0.07015212,10.88167056,0.122376737,0.106392188,-1.028397064,-1.487705401,-1.490982032,3.236201411,-0.101543408,-0.044663814,31.50803453,120.4019943,14.03772294,,,,,,,,,
1573524801,31.5079969,120.4019958,14.0264,-1.03668846,1.385736118,178.6236142,-10.26956499,0.542418272,-0.082891675,7.2572,0.17382,0.12287,1.493998445,1.73726901,-3.869270152,2.143393274,0.069406866,0.06491314,11.20372969,0.102547855,0.110191675,-1.03668846,-1.385736118,-1.640771681,3.219857418,-0.113866508,-0.045847232,31.50803248,120.4019944,14.03907317,7.26448,0.17393,0.12278,31.50803241,120.4019944,14.03898317,0.02953111,0.03096432,-0.067871498
1573524801,31.507994,120.4019958,14.0296,-1.046530743,1.340584577,178.7155868,-10.59111259,0.53861851,-0.086091149,7.47845,0.16683,0.12333,1.673345846,1.841445942,-3.984435998,2.125721249,0.0854215,0.07692681,11.52463156,0.081828703,0.113391149,-1.046530743,-1.340584577,-1.732744209,3.196616456,-0.106415459,-0.042948376,31.50803048,120.4019945,14.03953339,,,,,,,,,
1573524801,31.50799112,120.4019958,14.0324,-1.045873814,1.329537244,178.7615355,-10.91044262,0.535768693,-0.088890609,7.69912,0.15885,0.1237,1.888962936,1.869919837,-4.067800923,2.135062165,0.096384972,0.074973303,11.84336895,0.062174901,0.116190609,-1.045873814,-1.329537244,-1.778692956,3.201043089,-0.102915474,-0.050272817,31.50802849,120.4019945,14.03990362,,,,,,,,,
1573524801,31.50798821,120.4019957,14.0352,-1.103147163,1.363630773,178.7949232,-11.23309901,0.532918878,-0.091690045,7.90474,0.15099,0.12575,2.103809557,1.866107848,-4.126427204,2.145877879,0.113600511,0.089067459,12.16542807,0.042346018,0.118990045,-1.103147163,-1.363630773,-1.812080674,3.232413126,-0.083035145,-0.045843322,31.50802663,120.4019945,14.04195385,,,,,,,,,
1573524801,31.50798528,120.4019957,14.0386,-1.171505827,1.36326283,178.8284942,-11.55797297,0.531019004,-0.095089464,8.12539,0.14197,0.12762,2.495059044,1.927799275,-4.197025347,2.174998978,0.105552904,0.089990916,12.48975169,0.023349039,0.122389464,-1.171505827,-1.36326283,-1.845651617,3.264018004,-0.087407162,-0.047264647,31.50802464,120.4019945,14.04382409,,,,,,,,,
1573524802,31.50798232,120.4019957,14.0417,-1.216943028,1.363160815,178.8623356,-11.88617328,0.528169189,-0.098188857,8.36638,0.13479,0.12981,2.519682185,1.955030516,-4.245398451,2.218941015,0.098354692,0.088645236,12.81734706,0.003228351,0.125488857,-1.216943028,-1.363160815,-1.879493007,3.291467069,-0.095878413,-0.04786206,31.50802247,120.4019946,14.04601437,8.36188,0.13424,0.12977,31.50802251,120.4019946,14.04597436,0.048697356,0.034741903,-0.074204931
1573524802,31.50797991,120.4019955,14.0368,-1.238857413,1.386960314,178.9649614,-12.15339041,0.512020143,-0.093288354,8.58462,0.12707,0.13144,2.756725534,1.972219432,-4.303101633,2.23886789,0.099016229,0.088085125,13.08334377,-0.026963282,0.120588354,-1.238857413,-1.386960314,-1.982118794,3.301871321,-0.100672654,-0.051623812,31.5080205,120.4019946,14.04764463,,,,,,,,,
1573524802,31.50797692,120.4019955,14.0396,-1.261671274,1.421512024,178.9986865,-12.48491707,0.507270436,-0.096087711,8.81017,0.11866,0.13241,2.97905565,1.986648496,-4.355338557,2.254843971,0.103404579,0.0916158,13.41416088,-0.049156311,0.123387711,-1.261671274,-1.421512024,-2.015843902,3.326518678,-0.10319728,-0.058226264,31.50801846,120.4019947,14.04861491,,,,,,,,,
1573524802,31.50797391,120.4019954,14.0423,-1.284464983,1.456078008,179.0323981,-12.81866131,0.502520729,-0.098787047,9.04088,0.11045,0.13396,3.106612193,1.987387093,-4.411754592,2.281685187,0.099261689,0.089386578,13.74719248,-0.07146606,0.126087047,-1.284464983,-1.456078008,-2.049555533,3.357769916,-0.106498781,-0.060344193,31.50801638,120.4019947,14.0501652,,,,,,,,,
1573524802,31.50797086,120.4019954,14.045,-1.318794815,1.502027344,179.0658151,-13.15684068,0.497771023,-0.101486355,9.28185,0.10251,0.1365,3.150891266,1.972557677,-4.475684527,2.325859954,0.110543079,0.101248511,14.08465308,-0.094009253,0.128786355,-1.318794815,-1.502027344,-2.082972538,3.397004862,-0.096443152,-0.060198907,31.50801421,120.4019948,14.05270551,9.27255,0.10152,0.13669,31.50801429,120.4019948,14.0528955,0.056851731,0.034521643,-0.078122328
1573524802,31.50796778,120.4019953,14.0482,-1.375685175,1.52503619,179.1106361,-13.49834641,0.493021315,-0.10468564,9.50504,0.09354,0.13954,3.20391259,1.94193933,-4.535336541,2.332215241,0.107088523,0.101195682,14.42543541,-0.11672753,0.13198564,-1.375685175,-1.52503619,-2.127793573,3.421245454,-0.098222273,-0.063650369,31.50801219,120.4019948,14.05574581,,,,,,,,,
1573524802,31.50796562,120.4019953,14.0507,-1.387197645,1.571068378,179.1328473,-13.73784393,0.490171492,-0.107185126,9.73517,0.08298,0.14281,3.215821865,1.878680706,-4.593091549,2.351886614,0.092544411,0.100506089,14.66445095,-0.132179354,0.134485126,-1.387197645,-1.571068378,-2.15000474,3.442993577,-0.112098154,-0.060249183,31.50801012,120.4019948,14.05901612,,,,,,,,,
1573524802,31.50796154,120.4019952,14.0549,-1.409916567,1.628764805,179.1776694,-14.19022814,0.481622013,-0.111384133,9.97428,0.07058,0.14557,3.240961955,1.828742877,-4.656046388,2.393235076,0.090547767,0.086739615,15.11575808,-0.164528224,0.138684133,-1.409916567,-1.628764805,-2.194826799,3.503331518,-0.112007808,-0.070081258,31.50800796,120.4019948,14.06177646,,,,,,,,,
1573524802,31.50795868,120.4019951,14.0577,-1.3978077,1.606338321,179.2124976,-14.50734061,0.475922356,-0.114183418,10.21699,0.05688,0.14702,3.277000755,1.818603389,-4.729218129,2.418022418,0.09359798,0.084509648,15.43213096,-0.186911194,0.141483418,-1.3978077,-1.606338321,-2.229655068,3.535365585,-0.110305552,-0.071142994,31.50800577,120.4019948,14.06322681,10.22061,0.05556,0.14718,31.50800573,120.4019948,14.06338682,0.057487192,0.031340611,-0.082828016
1573524802,31.50795516,120.4019951,14.0612,-1.408712602,1.595219747,179.2468642,-14.89763287,0.468322818,-0.117682516,10.46392,0.04363,0.14877,3.295040326,1.802953769,-4.795965804,2.444713142,0.091732548,0.095501392,15.82148221,-0.21504323,0.144982516,-1.408712602,-1.595219747,-2.264021672,3.568570724,-0.11318764,-0.067871086,31.50800354,120.4019948,14.06497718,,,,,,,,,
1573524803,31.50795192,120.401995,14.0649,-1.419612053,1.60717173,179.2924084,-15.25687916,0.461673218,-0.121381662,10.71609,0.02949,0.15111,3.205269286,1.760760693,-4.858124591,2.477043812,0.094409876,0.096229856,16.17988051,-0.240592539,0.148681662,-1.419612053,-1.60717173,-2.309565837,3.606129815,-0.109011383,-0.063284195,31.50800126,120.4019948,14.06731756,,,,,,,,,
1573524803,31.50794921,120.4019951,14.0565,-1.464978237,1.607333367,179.3261532,-15.55735982,0.474972461,-0.112980933,10.96652,0.01681,0.1532,3.124696241,1.77172803,-4.922063483,2.508699279,0.105137711,0.095582358,16.48064466,-0.243127531,0.140280933,-1.464978237,-1.607333367,-2.343310649,3.626675974,-0.100084794,-0.066932695,31.507999,120.4019948,14.06940795,,,,,,,,,
1573524803,31.50794592,120.4019951,14.06,-1.544618554,1.561338212,179.3485783,-15.92215003,0.469272808,-0.116480029,11.22554,0.0053,0.15442,2.838982906,1.782318347,-4.968350461,2.540452108,0.110123571,0.090517046,16.8446292,-0.268020015,0.143780029,-1.544618554,-1.561338212,-2.365735715,3.666487602,-0.096688862,-0.068356756,31.50799666,120.4019948,14.07062837,11.21852,0.00655,0.15381,31.50799672,120.4019948,14.07001835,0.047697663,0.030847211,-0.086767337
1573524803,31.5079426,120.401995,14.0639,-1.60120232,1.515657007,179.3828289,-16.2902666,0.463573153,-0.120379098,11.47239,-0.00471,0.15551,2.661223801,1.815917284,-5.019532694,2.549832852,0.105099614,0.092889609,17.21193549,-0.293087583,0.147679098,-1.60120232,-1.515657007,-2.399986372,3.696592742,-0.103825195,-0.055116251,31.50799443,120.4019949,14.07171877,,,,,,,,,
1573524803,31.50793926,120.4019949,14.0683,-1.634975564,1.458500111,179.40612,-16.66060074,0.455973611,-0.124778136,11.71894,-0.01813,0.15754,2.591752957,1.838186584,-5.072861924,2.551378986,0.095588386,0.094224957,17.58135628,-0.320169127,0.152078136,-1.634975564,-1.458500111,-2.423277412,3.715937103,-0.115853146,-0.060229759,31.5079922,120.4019949,14.07374918,,,,,,,,,
1573524803,31.5079359,120.4019949,14.0718,-1.63501166,1.493044882,179.4170878,-17.03315244,0.448374067,-0.12827715,11.97827,-0.03172,0.15944,2.654990494,1.811713919,-5.143669024,2.569153797,0.10085755,0.096025529,17.95299156,-0.347367396,0.15557715,-1.63501166,-1.493044882,-2.434245254,3.739477563,-0.114349605,-0.064844306,31.50798986,120.4019949,14.07564963,,,,,,,,,
1573524803,31.50793251,120.4019948,14.0753,-1.65796281,1.527480149,179.4277518,-17.4090305,0.440774524,-0.13177613,12.21995,-0.04707,0.16207,2.707934507,1.747129393,-5.173040327,2.568076819,0.108735904,0.101762716,18.32794858,-0.374740745,0.15907613,-1.65796281,-1.527480149,-2.444909249,3.765545777,-0.106435008,-0.063103102,31.50798768,120.4019948,14.07828006,12.22429,-0.05139,0.1631,31.50798764,120.4019948,14.07931006,0.046509837,0.029858062,-0.090291939
1573524803,31.5079291,120.4019947,14.0799,-1.704079113,1.550012391,179.415341,-17.78712614,0.434124923,-0.136375084,12.48245,-0.06508,0.16638,2.625787431,1.679572901,-5.191770097,2.587392961,0.099902905,0.105337136,18.7051701,-0.40128219,0.163675084,-1.704079113,-1.550012391,-2.432498448,3.789977342,-0.105469139,-0.059100052,31.5079853,120.4019948,14.08259053,,,,,,,,,
1573524803,31.50792567,120.4019946,14.0843,-1.727205118,1.618839482,179.4254522,-18.16743934,0.427475324,-0.140774008,12.75554,-0.08115,0.16996,2.54933336,1.58496352,-5.221230075,2.614384523,0.096815632,0.096680022,19.08460612,-0.427940357,0.168074008,-1.727205118,-1.618839482,-2.442609605,3.812572199,-0.107519101,-0.072007251,31.50798284,120.4019948,14.08617103,,,,,,,,,
1573524803,31.50792222,120.4019946,14.0876,-1.762346356,1.698555277,179.4008078,-18.54997011,0.420825722,-0.144072904,13.02495,-0.09694,0.17246,2.494037353,1.508299156,-5.24193296,2.645148326,0.099380487,0.079805057,19.46625663,-0.454715247,0.171372904,-1.762346356,-1.698555277,-2.417965244,3.840777065,-0.105546011,-0.087268758,31.5079804,120.4019948,14.08867154,13.02397,-0.09708,0.17292,31.50798041,120.4019948,14.08913154,0.044013208,0.026210391,-0.091645934
1573524804,31.50791874,120.4019945,14.0905,-1.797334078,1.743877208,179.3880536,-18.93582723,0.414176123,-0.146971765,13.28907,-0.11124,0.17462,2.500923199,1.454939265,-5.253312762,2.663035206,0.109719602,0.086440516,19.85122888,-0.481665217,0.174271765,-1.797334078,-1.743877208,-2.405211003,3.876435115,-0.097172303,-0.08899782,31.50797802,120.4019947,14.09083205,,,,,,,,,
1573524804,31.50791577,120.4019946,14.1035,-1.854900918,1.789429526,179.3864403,-19.26513636,0.419875807,-0.159970774,13.55802,-0.12511,0.17741,2.472792761,1.435898895,-5.281614982,2.682946435,0.106418803,0.087419555,20.18038153,-0.493306619,0.187270774,-1.854900918,-1.789429526,-2.403597714,3.889951993,-0.101773967,-0.078641241,31.50797559,120.4019948,14.09362258,13.55356,-0.12528,0.17836,31.50797563,120.4019947,14.09457257,0.043963573,0.025362713,-0.092345643
1573524804,31.50791225,120.4019945,14.1086,-1.901104709,1.788817308,179.3628045,-19.65542863,0.413226205,-0.16506958,13.82248,-0.13971,0.18126,2.467353931,1.451914644,-5.290498824,2.702382623,0.118309661,0.094469185,20.56978278,-0.520490036,0.19236958,-1.901104709,-1.788817308,-2.379961948,3.921285075,-0.094637186,-0.073319654,31.5079732,120.4019947,14.09747311,,,,,,,,,
1573524804,31.50790869,120.4019944,14.1135,-1.958736125,1.753545217,179.3281212,-20.05015604,0.408476497,-0.169968346,14.09311,-0.15308,0.18453,2.414786208,1.497615559,-5.287858867,2.721341278,0.1112384,0.088666933,20.96371303,-0.546009636,0.197268346,-1.958736125,-1.753545217,-2.345278631,3.952725394,-0.101467611,-0.074699941,31.50797076,120.4019948,14.10074367,,,,,,,,,
1573524804,31.50790512,120.4019944,14.1191,-2.004567626,1.695584907,179.3055094,-20.44599223,0.401826894,-0.175567084,14.36815,-0.16771,0.18847,2.342595474,1.547995863,-5.278559131,2.732368726,0.098164534,0.099942126,21.35865052,-0.573484859,0.202867084,-2.004567626,-1.695584907,-2.322666864,3.972907535,-0.115077376,-0.061643481,31.50796827,120.4019948,14.10468425,,,,,,,,,
1573524804,31.50790153,120.4019943,14.1255,-2.004133778,1.626821694,179.3067184,-20.844046,0.394227346,-0.181965792,14.63617,-0.18391,0.19137,2.346495378,1.634510624,-5.291725829,2.738711737,0.081014062,0.099606691,21.75575251,-0.602025432,0.209265792,-2.004133778,-1.626821694,-2.323875838,3.993040775,-0.130544777,-0.055981064,31.50796585,120.4019947,14.10758482,14.63835,-0.1832,0.19172,31.50796583,120.4019947,14.10793482,0.040395007,0.02892251,-0.09237802
1573524804,31.50789791,120.4019942,14.131,-1.992440238,1.615626201,179.3185412,-21.24542612,0.386627799,-0.187464462,14.91251,-0.20027,0.19398,2.326428343,1.684892873,-5.331171777,2.749738438,0.091464412,0.097330795,22.15617624,-0.630741086,0.214764462,-1.992440238,-1.615626201,-2.335698654,4.009836467,-0.11951749,-0.067775963,31.50796335,120.4019947,14.11019542,,,,,,,,,
1573524804,31.50789428,120.4019941,14.136,-2.026823066,1.615430171,179.31806,-21.64791503,0.37902825,-0.192463104,15.18997,-0.21495,0.19642,2.272486977,1.703454827,-5.35220732,2.768478508,0.114068477,0.104514524,22.55770722,-0.659515103,0.219763104,-2.026823066,-1.615430171,-2.335217445,4.038749069,-0.109661554,-0.064598699,31.50796085,120.4019947,14.11263604,,,,,,,,,
1573524804,31.50789063,120.401994,14.1413,-2.049531552,1.580918957,179.3183572,-22.0526215,0.372378645,-0.197761714,15.467,-0.22895,0.19946,2.202691361,1.722082811,-5.357413391,2.782861363,0.104973709,0.099654924,22.9615027,-0.687457215,0.225061714,-2.049531552,-1.580918957,-2.33551461,4.063480579,-0.117535825,-0.066876417,31.50795835,120.4019947,14.11567667,15.46165,-0.22852,0.19931,31.50795839,120.4019947,14.11552666,0.038120159,0.030121679,-0.093548089
1573524804,31.50788695,120.401994,14.1459,-2.095217162,1.580866225,179.3291902,-22.46065433,0.365729042,-0.202360284,15.73943,-0.2443,0.20141,2.148055773,1.728126508,-5.387944525,2.785917976,0.109377808,0.099161648,23.36861992,-0.715574407,0.229660284,-2.095217162,-1.580866225,-2.346347621,4.082502338,-0.109490291,-0.073606019,31.50795589,120.4019947,14.1176273,,,,,,,,,
1573524805,31.50788363,120.4019939,14.1499,-2.140745267,1.581035885,179.3514835,-22.8287709,0.360029382,-0.206358972,16.02338,-0.25976,0.20335,2.082124796,1.726917522,-5.427889829,2.799091234,0.104739835,0.104735962,23.73592621,-0.740641981,0.233658972,-2.140745267,-1.581035885,-2.368640943,4.09993229,-0.117653666,-0.07078987,31.50795332,120.4019947,14.11956797,,,,,,,,,
1573524805,31.50788004,120.4019943,14.1351,-2.175075263,1.627124338,179.3730597,-23.2268246,0.399927112,-0.191557527,16.2982,-0.27664,0.20592,2.074419788,1.703496316,-5.48349574,2.797856259,0.086678164,0.110978137,24.13552815,-0.721751111,0.218857527,-2.175075263,-1.627124338,-2.390217136,4.101826994,-0.116608396,-0.070273615,31.50795084,120.4019947,14.12213863,,,,,,,,,
1573524805,31.50787633,120.4019943,14.14,-2.208949593,1.685348571,179.428768,-23.63818378,0.392327562,-0.19645601,16.57073,-0.29473,0.20902,2.082374678,1.657256062,-5.566815911,2.806343589,0.08823827,0.103557742,24.54591711,-0.750992017,0.22375601,-2.208949593,-1.685348571,-2.445925421,4.127369562,-0.11748881,-0.076705254,31.50794837,120.4019946,14.1252393,16.56199,-0.29319,0.2089,31.50794845,120.4019946,14.12511928,0.036690792,0.029202752,-0.097210067
1573524805,31.50787259,120.4019942,14.1447,-2.231368241,1.720512771,179.473603,-24.05286932,0.383778066,-0.201154453,16.84221,-0.31205,0.21096,2.093047786,1.655573201,-5.632116996,2.819515782,0.088515351,0.094339993,24.95957781,-0.781356634,0.228454453,-2.231368241,-1.720512771,-2.490760483,4.160642834,-0.120362899,-0.083805057,31.50794592,120.4019946,14.12717997,,,,,,,,,
1573524805,31.50786882,120.4019941,14.1491,-2.253723424,1.709627427,179.5078687,-24.47088121,0.376178515,-0.205552858,17.14035,-0.33152,0.2124,2.065682887,1.678527171,-5.704392368,2.853268517,0.093349778,0.092723554,25.37661026,-0.810947705,0.232852858,-2.253723424,-1.709627427,-2.525026115,4.183571207,-0.118788536,-0.085086412,31.50794323,120.4019946,14.12862073,,,,,,,,,
1573524805,31.50786504,120.401994,14.1538,-2.275915922,1.698982891,179.5535987,-24.89000188,0.366679073,-0.210251231,17.39984,-0.35024,0.21342,2.118389367,1.703411137,-5.787017092,2.835668336,0.088805049,0.09543857,25.79464996,-0.842494395,0.237551231,-2.275915922,-1.698982891,-2.570756133,4.204736233,-0.122507066,-0.084530769,31.50794088,120.4019945,14.1296414,,,,,,,,,
1573524805,31.50786276,120.4019939,14.1564,-2.287083956,1.710858688,179.576121,-25.14280483,0.360979408,-0.212850235,17.6851,-0.37025,0.21559,2.117459106,1.699210112,-5.869764103,2.852128046,0.091423938,0.096524482,26.04680247,-0.861492442,0.240150235,-2.287083956,-1.710858688,-2.593278474,4.20860214,-0.123466169,-0.087083749,31.5079383,120.4019945,14.13181215,17.69528,-0.37077,0.21619,31.50793821,120.4019945,14.13241217,0.036382644,0.02983305,-0.102731728
1573524805,31.50785742,120.4019938,14.1637,-2.29744415,1.689273888,179.6451739,-25.73489595,0.347680186,-0.220147865,17.98165,-0.39121,0.21847,2.081682839,1.725316192,-5.951272447,2.876296976,0.097928854,0.1092753,26.63737284,-0.905937943,0.247447865,-2.29744415,-1.689273888,-2.662331332,4.245163686,-0.121819786,-0.069110548,31.50793562,120.4019944,14.13469294,,,,,,,,,
1573524805,31.50785397,120.4019937,14.1694,-2.31975361,1.65552261,179.6799158,-26.11742674,0.339130686,-0.225846306,18.27238,-0.41255,0.22084,2.04568044,1.780936209,-6.018536685,2.886108407,0.099027043,0.113118551,27.01892337,-0.934610099,0.253146306,-2.31975361,-1.65552261,-2.697073238,4.255422668,-0.117424824,-0.065372211,31.50793299,120.4019943,14.13706373,,,,,,,,,
1573524805,31.50784974,120.4019936,14.1758,-2.353443154,1.6449162,179.7254971,-26.58644274,0.327731352,-0.23224436,18.56528,-0.43357,0.2224,2.010144907,1.78370349,-6.084466005,2.893137874,0.103854647,0.105458046,27.48668922,-0.970680288,0.25954436,-2.353443154,-1.6449162,-2.742654585,4.266665153,-0.11722943,-0.073379739,31.50793034,120.4019943,14.13862453,18.57173,-0.43354,0.22256,31.50793029,120.4019943,14.13878455,0.034954579,0.031666243,-0.106226584
1573524806,31.50784627,120.4019935,14.18,-2.375871158,1.645579959,179.7595492,-26.97119108,0.318231904,-0.236442737,18.86158,-0.45522,0.2237,1.98106198,1.817661592,-6.144034279,2.909530767,0.088828225,0.095583017,27.87040423,-1.000417796,0.263742737,-2.375871158,-1.645579959,-2.776706619,4.28087878,-0.129281043,-0.084397759,31.50792767,120.4019942,14.13992537,,,,,,,,,
1573524806,31.50784236,120.4019936,14.1756,-2.421266728,1.669144112,179.7927874,-27.40472593,0.325831484,-0.232040881,19.1656,-0.47639,0.22552,1.918777868,1.829053658,-6.198688009,2.940959923,0.108473578,0.105451026,28.30373812,-1.015647855,0.259340881,-2.421266728,-1.669144112,-2.809944807,4.289431396,-0.112479651,-0.083702367,31.50792492,120.4019942,14.14174623,,,,,,,,,
1573524806,31.50783886,120.4019935,14.1799,-2.432415528,1.681073608,179.815297,-27.79280063,0.316332036,-0.236339198,19.45864,-0.49732,0.22682,1.954602818,1.849356793,-6.262112541,2.960116487,0.104520932,0.103729417,28.69077488,-1.045560446,0.263639198,-2.432415528,-1.681073608,-2.832454417,4.315458445,-0.123397888,-0.080740881,31.50792227,120.4019941,14.14304709,,,,,,,,,
1573524806,31.50783457,120.4019933,14.1856,-2.409286376,1.658422989,179.8275749,-28.26846934,0.303032805,-0.2420371,19.75597,-0.52013,0.22892,2.002653581,1.885851234,-6.292933833,2.972809757,0.090438836,0.105092657,29.16508422,-1.083878063,0.2693371,-2.409286376,-1.658422989,-2.844732316,4.33558369,-0.133663969,-0.076191489,31.50791958,120.401994,14.14514796,19.75594,-0.5177,0.23034,31.50791958,120.4019941,14.14656796,0.03631295,0.033329802,-0.109824655
1573524806,31.50783104,120.4019932,14.1906,-2.397805775,1.64697626,179.8279804,-28.6598704,0.29258341,-0.247035346,20.05303,-0.54052,0.23196,2.100250053,1.921496358,-6.313753703,2.986248094,0.109451747,0.114141227,29.55539273,-1.114914368,0.274335346,-2.397805775,-1.64697626,-2.845137893,4.34448544,-0.122447887,-0.076585175,31.50791689,120.401994,14.14818885,,,,,,,,,
1573524806,31.50782672,120.4019931,14.1966,-2.409265669,1.646962504,179.8278161,-29.13886547,0.280234122,-0.253033168,20.35476,-0.56252,0.23448,2.171743478,1.951160161,-6.336217307,3.00988928,0.12006233,0.112258015,30.03307381,-1.152458441,0.280333168,-2.409265669,-1.646962504,-2.844973543,4.377536451,-0.113923734,-0.079304493,31.50791417,120.4019939,14.15070977,,,,,,,,,
1573524806,31.50782316,120.401993,14.2009,-2.443743808,1.612295995,179.8165974,-29.53359288,0.271684617,-0.257331346,20.66184,-0.58467,0.2364,2.170261945,1.993891591,-6.352664728,3.017024459,0.111246634,0.10902508,30.42680406,-1.181772572,0.284631346,-2.443743808,-1.612295995,-2.833754861,4.387375836,-0.113893213,-0.083407059,31.50791139,120.4019939,14.15263072,,,,,,,,,
1573524806,31.5078188,120.4019929,14.2059,-2.478260262,1.600543449,179.8049036,-30.01702308,0.260285276,-0.262329079,20.97163,-0.60833,0.23739,2.192178399,2.004839733,-6.379669721,3.04346677,0.117967488,0.110070605,30.90896413,-1.218601458,0.289629079,-2.478260262,-1.600543449,-2.822061018,4.400375806,-0.113419394,-0.082619279,31.50790859,120.4019938,14.15362169,20.96998,-0.60848,0.23719,31.5079086,120.4019938,14.15342169,0.039261343,0.035349593,-0.111443774
1573524806,31.50781562,120.4019928,14.2095,-2.489855155,1.588818483,179.7935339,-30.36961667,0.251735768,-0.265927404,21.27423,-0.63167,0.23763,2.251756262,2.026631756,-6.384049114,3.05674853,0.1136616,0.110940905,31.26061896,-1.245697878,0.293227404,-2.489855155,-1.588818483,-2.810691319,4.415793585,-0.12655698,-0.080036905,31.50790585,120.4019937,14.15386266,,,,,,,,,
1573524806,31.50781124,120.4019927,14.2151,-2.501789544,1.588051571,179.7589976,-30.85526445,0.239386477,-0.271525065,21.58183,-0.65351,0.23839,2.288293653,2.0483794,-6.392188873,3.055864497,0.107488773,0.11672541,31.74494354,-1.28359212,0.298825065,-2.501789544,-1.588051571,-2.776155013,4.419254928,-0.126920006,-0.075410426,31.50790307,120.4019936,14.15462365,,,,,,,,,
1573524807,31.50780684,120.4019925,14.2212,-2.524952807,1.622138747,179.7464632,-31.34312979,0.227987133,-0.277622676,21.88405,-0.67672,0.24005,2.265655322,2.019705134,-6.400027606,3.060610865,0.116008761,0.123926232,32.23153261,-1.320654454,0.304922676,-2.524952807,-1.622138747,-2.763620624,4.434008427,-0.115717062,-0.075316466,31.50790034,120.4019936,14.15628464,,,,,,,,,
1573524807,31.5078036,120.4019926,14.2128,-2.548378775,1.656055684,179.7338847,-31.70237603,0.232736872,-0.269220893,22.19524,-0.69867,0.24098,2.249062136,1.984555106,-6.411310676,3.070111248,0.119220507,0.115180184,32.59053087,-1.334820223,0.296520893,-2.548378775,-1.656055684,-2.751042176,4.427446976,-0.112899788,-0.08498872,31.50789753,120.4019935,14.15721568,,,,,,,,,
1573524807,31.5077992,120.4019925,14.2179,-2.571760508,1.701334199,179.7096034,-32.19024138,0.22228747,-0.274318441,22.50717,-0.72215,0.24117,2.264814129,1.947653773,-6.415137027,3.091842119,0.110720118,0.099332665,33.07716994,-1.370933931,0.301618441,-2.571760508,-1.701334199,-2.726760823,4.443496791,-0.125824493,-0.092001801,31.50789471,120.4019934,14.15740674,22.50818,-0.72214,0.24152,31.5078947,120.4019934,14.15775674,0.040044521,0.034330717,-0.112351477
1573524807,31.50779518,120.4019924,14.2224,-2.58359505,1.712252744,179.6862542,-32.63597289,0.21183807,-0.278816167,22.8176,-0.74629,0.24131,2.28588429,1.97247088,-6.447666995,3.10564952,0.107508584,0.097083545,33.52173358,-1.404829924,0.306116167,-2.58359505,-1.712252744,-2.70341168,4.461402885,-0.129439961,-0.093776024,31.5078919,120.4019934,14.1575478,,,,,,,,,
1573524807,31.50779115,120.4019923,14.2271,-2.583838459,1.73491431,179.674276,-33.0828132,0.201388667,-0.283513856,23.12828,-0.7692,0.24124,2.293101535,1.960685966,-6.468444085,3.099188927,0.121978016,0.115296977,33.96740448,-1.43878428,0.310813856,-2.583838459,-1.73491431,-2.691433411,4.464020116,-0.114098579,-0.088721901,31.50788909,120.4019933,14.15747888,,,,,,,,,
1573524807,31.50778713,120.4019922,14.2333,-2.63010321,1.757194379,179.6501371,-33.52854472,0.192839156,-0.28971152,23.42803,-0.79153,0.24332,2.243638362,1.914738339,-6.4918706,3.09411297,0.123159142,0.119640952,34.41206814,-1.470783018,0.31701152,-2.63010321,-1.757194379,-2.667294593,4.473753873,-0.113121211,-0.074485178,31.50788638,120.4019932,14.15955994,,,,,,,,,
1573524807,31.50778309,120.4019921,14.2398,-2.642130593,1.767832362,179.6153166,-33.97649382,0.183339699,-0.29620914,23.72147,-0.81156,0.24553,2.243906584,1.928658545,-6.498524996,3.086747654,0.130722128,0.1138011,34.8588963,-1.503847107,0.32350914,-2.642130593,-1.767832362,-2.632474093,4.482223566,-0.113700973,-0.080637706,31.50788373,120.4019932,14.16177099,,,,,,,,,
1573524807,31.50777904,120.401992,14.2462,-2.666301448,1.73125602,179.5240863,-34.42555171,0.175740135,-0.302606722,24.02971,-0.83228,0.24646,2.15786689,1.957505624,-6.463757425,3.094065639,0.15644019,0.117863246,35.3069317,-1.535072297,0.329906722,-2.666301448,-1.73125602,-2.541243745,4.490780046,-0.10137511,-0.076104093,31.50788094,120.4019931,14.16270211,,,,,,,,,
1573524807,31.5077758,120.4019919,14.2509,-2.67890465,1.717882857,179.443964,-34.78479801,0.170040459,-0.307304767,24.33456,-0.85351,0.24747,2.149515424,1.940812993,-6.398784721,3.091528058,0.151125912,0.096499231,35.66538002,-1.559673,0.334604767,-2.67890465,-1.717882857,-2.461121477,4.490273471,-0.112117009,-0.08968653,31.50787818,120.4019931,14.16371323,24.33561,-0.85499,0.2481,31.50787817,120.4019931,14.16434323,0.037303895,0.033684205,-0.111826816
1573524807,31.50777134,120.4019918,14.256,-2.692973419,1.748454975,179.2825474,-35.27931607,0.162440893,-0.312402039,24.64466,-0.87407,0.24807,2.118968414,1.902455525,-6.2851154,3.097201038,0.159697627,0.095957896,36.15881258,-1.593290989,0.339702039,-2.692973419,-1.748454975,-2.299704824,4.49686241,-0.106346305,-0.093547346,31.50787538,120.401993,14.16431438,,,,,,,,,
1573524808,31.50776687,120.4019918,14.2621,-2.650147819,1.732519396,179.0772323,-35.77494291,0.15674122,-0.318499268,24.95333,-0.89388,0.24959,2.183665166,1.91467381,-6.14265119,3.116663322,0.1623129,0.098216258,36.6534524,-1.625070078,0.345799268,-2.650147819,-1.732519396,-2.094389714,4.522435085,-0.112587576,-0.079654245,31.50787259,120.401993,14.16583554,,,,,,,,,
1573524808,31.50776327,120.401992,14.2688,-2.652240293,1.647820003,178.8842927,-36.17410548,0.174790216,-0.325197007,25.26869,-0.91056,0.25209,2.195470641,1.988402939,-5.952888094,3.126692831,0.191953894,0.112859177,37.05301166,-1.628056022,0.352497007,-2.652240293,-1.647820003,-1.901450183,4.531807009,-0.092351785,-0.069290829,31.50786974,120.401993,14.16833675,,,,,,,,,
1573524808,31.50775919,120.401992,14.2749,-2.678320043,1.58392584,178.6103144,-36.62648972,0.175740173,-0.331294414,25.57333,-0.92434,0.25466,2.212011534,2.010879414,-5.715751531,3.101580244,0.202165968,0.123331702,37.50481882,-1.650918625,0.358594414,-2.678320043,-1.58392584,-1.627471815,4.520721395,-0.080726447,-0.069030702,31.50786699,120.401993,14.17090792,,,,,,,,,
1573524808,31.50775511,120.401992,14.2809,-2.706370773,1.622082574,178.2993873,-37.07887396,0.179539967,-0.337291791,25.87982,-0.93464,0.25779,2.209991311,1.949391963,-5.459836573,3.095251843,0.226092798,0.134664873,37.95677597,-1.670935342,0.364591791,-2.706370773,-1.622082574,-1.316544744,4.518108539,-0.066746541,-0.070851375,31.50786423,120.4019931,14.17403912,25.89162,-0.93774,0.25673,31.50786412,120.401993,14.17297917,0.038716398,0.034256107,-0.095565883
1573524808,31.50775103,120.4019921,14.2865,-2.734678473,1.659736759,177.965695,-37.5312582,0.187139551,-0.342889135,26.20474,-0.94479,0.25895,2.213183842,1.906920921,-5.165632595,3.134731648,0.229769963,0.106370959,38.40893313,-1.687157535,0.370189135,-2.734678473,-1.659736759,-0.982852413,4.54196133,-0.077168366,-0.084163905,31.5078613,120.4019931,14.17520041,,,,,,,,,
1573524808,31.50774692,120.4019922,14.2908,-2.784995491,1.592129163,177.5767048,-37.98696878,0.197588976,-0.347186424,26.52544,-0.95226,0.26009,2.201715399,1.928165798,-4.818916773,3.157488108,0.242949467,0.097677484,38.86456202,-1.700708921,0.374486424,-2.784995491,-1.592129163,-0.593862259,4.559219864,-0.066866377,-0.09006359,31.50785841,120.4019932,14.1763417,26.53675,-0.95639,0.26061,31.5078583,120.4019932,14.17686174,0.039134416,0.033849901,-0.084451688
1573524808,31.5077424,120.4019924,14.2951,-2.813104066,1.54657912,177.1416654,-38.48813954,0.21278814,-0.351483407,26.85458,-0.95878,0.26065,2.226421514,1.969177071,-4.467860392,3.167345086,0.239418499,0.099644299,39.36583807,-1.711909947,0.378783407,-2.813104066,-1.54657912,-0.158822846,4.561786574,-0.070169752,-0.090104803,31.50785544,120.4019934,14.17690303,,,,,,,,,
1573524808,31.50773828,120.4019926,14.2988,-2.864482327,1.5351376,176.7284044,-38.94495891,0.230837141,-0.355180623,27.18732,-0.96405,0.26302,2.250569773,1.945404911,-4.097400742,3.175603089,0.252638333,0.120720142,39.82297421,-1.717930652,0.382480623,-2.864482327,-1.5351376,0.254438154,4.568057201,-0.055028473,-0.083261128,31.50785244,120.4019935,14.1792744,27.21113,-0.97093,0.26396,31.50785222,120.4019934,14.1802145,0.039648751,0.034267802,-0.071541345
1573524808,31.50773458,120.4019928,14.3035,-2.880904034,1.513289864,176.3273398,-39.35520932,0.249836096,-0.359878095,27.53276,-0.96916,0.26711,2.256539382,1.935998275,-3.678819831,3.218460405,0.237648464,0.136161069,40.23365595,-1.720551562,0.387178095,-2.880904034,-1.513289864,0.655502734,4.581194503,-0.070879794,-0.059841597,31.50784933,120.4019936,14.18336584,27.5554,-0.97681,0.26716,31.50784912,120.4019936,14.18341594,0.040334178,0.034082441,-0.064306818
1573524808,31.50773003,120.401993,14.3111,-2.839460438,1.432782163,175.7910296,-39.85970646,0.276434627,-0.367474948,27.88088,-0.97422,0.2709,2.352362018,1.986425481,-3.202606942,3.244038249,0.233126674,0.136601405,40.73885378,-1.720544107,0.394774948,-2.839460438,-1.432782163,1.19181292,4.585227277,-0.0728757,-0.053140556,31.50784619,120.4019938,14.18715731,,,,,,,,,
1573524809,31.5077259,120.4019933,14.3155,-2.776441368,1.399584014,175.2648226,-40.31763461,0.303983109,-0.371872056,28.23816,-0.97435,0.27186,2.4094608,2.00170595,-2.717407814,3.272492448,0.245223351,0.108825223,41.19759718,-1.71713686,0.399172056,-2.776441368,-1.399584014,1.718019985,4.583852062,-0.062217922,-0.091808227,31.50784297,120.401994,14.18811883,28.27049,-0.97848,0.27021,31.50784268,120.4019939,14.18646897,0.040839346,0.035448686,-0.047498453
1573524809,31.50772204,120.401994,14.3015,-2.785101938,1.432299581,174.7246615,-40.74562546,0.368579535,-0.357869324,28.60204,-0.96715,0.27046,2.352865552,1.96381911,-2.176789846,3.31000497,0.284474288,0.112086978,41.62839478,-1.675157272,0.385169324,-2.785101938,-1.432299581,2.258181041,4.585475543,-0.025888616,-0.106634124,31.5078397,120.4019942,14.18672041,28.62557,-0.97131,0.26952,31.50783948,120.4019942,14.18578051,0.040070919,0.034092419,-0.037832441
1573524809,31.50771832,120.4019944,14.3031,-2.850665341,1.438506662,174.1609626,-41.15809342,0.406577441,-0.359466662,28.96079,-0.95373,0.2712,2.231104673,1.896588881,-1.562185648,3.353191915,0.297889683,0.121013555,42.04229101,-1.658922289,0.386766662,-2.850665341,-1.438506662,2.82187992,4.610871024,-0.020474489,-0.091411317,31.50783647,120.4019946,14.18746198,28.98021,-0.95754,0.27032,31.5078363,120.4019945,14.18658207,0.038200358,0.033091005,-0.027257723
1573524809,31.50771418,120.4019949,14.3065,-2.889215647,1.351646861,173.5083209,-41.61713035,0.453124878,-0.362863668,29.31834,-0.936,0.27294,2.139420881,1.902817445,-0.927350327,3.375799002,0.29198924,0.127716212,42.50314165,-1.636600782,0.390163668,-2.889215647,-1.351646861,3.474521638,4.627887967,-0.026563893,-0.072015068,31.50783326,120.401995,14.18920356,29.33111,-0.93893,0.27268,31.50783314,120.4019949,14.18894362,0.037161731,0.033187041,-0.016088681
1573524809,31.50771003,120.4019955,14.3103,-2.903290851,1.254143186,172.8448667,-42.07727607,0.505372006,-0.366660633,29.6703,-0.91443,0.27551,2.118095191,1.921424629,-0.271677492,3.387874191,0.289898878,0.130685974,42.96539956,-1.608645848,0.393960633,-2.903290851,-1.254143186,4.137975875,4.630568501,-0.030103795,-0.067176784,31.5078301,120.4019954,14.19177514,29.68097,-0.91575,0.27462,31.50783,120.4019954,14.19088519,0.035588199,0.033450729,-0.004706236
1573524809,31.50770587,120.4019961,14.3129,-2.871884693,1.170131057,172.1465457,-42.53853057,0.562368872,-0.369257557,30.02166,-0.88696,0.27599,2.067736965,1.951423141,0.408902289,3.407469104,0.29385458,0.111953099,43.4290147,-1.576006119,0.396557557,-2.871884693,-1.170131057,4.836296846,4.64631063,-0.036817137,-0.079143473,31.50782695,120.4019959,14.19225674,30.03024,-0.89037,0.27439,31.50782687,120.4019958,14.19065678,0.034950318,0.034442234,0.007144014
1573524809,31.50770172,120.4019967,14.3139,-2.855446258,1.142044678,171.4123775,-42.99867627,0.62506543,-0.370254454,30.37069,-0.85651,0.27533,2.020408847,1.950488861,1.124511426,3.400011769,0.306017683,0.121826112,43.89182259,-1.537616237,0.397554454,-2.855446258,-1.142044678,5.570465038,4.642542551,-0.029256748,-0.084209508,31.50782382,120.4019964,14.19159834,,,,,,,,,
1573524809,31.50769717,120.4019975,14.316,-2.820871795,1.15935264,170.5841092,-43.50317337,0.701061263,-0.37235101,30.75168,-0.82279,0.27461,1.965078329,1.924765136,1.862507837,3.416486,0.31513687,0.151714808,44.3996204,-1.488279952,0.39965101,-2.820871795,-1.15935264,6.398733351,4.637347758,-0.020136679,-0.067814941,31.5078204,120.4019969,14.19088012,30.7946,-0.82519,0.27213,31.50782002,120.4019969,14.18840032,0.031910862,0.034613931,0.032402426
1573524809,31.50769346,120.4019982,14.3187,-2.825133878,1.233445365,169.8453827,-43.91453255,0.770407461,-0.375048171,31.13946,-0.77996,0.27815,1.829239456,1.819573999,2.643764105,3.459673884,0.336205533,0.170028112,44.8140594,-1.44068177,0.402348171,-2.825133878,-1.233445365,7.137459858,4.637707475,-0.01001668,-0.065119186,31.50781693,120.4019976,14.19442194,31.18112,-0.78192,0.2745,31.50781656,120.4019976,14.19077214,0.02952844,0.032834284,0.04603975
1573524809,31.50768934,120.4019991,14.3219,-2.811176745,1.329460447,168.9796535,-44.3713519,0.854002882,-0.378244986,31.52962,-0.73048,0.28045,1.722671591,1.715818492,3.47516222,3.501265462,0.347376506,0.156318251,45.27464556,-1.381246913,0.405544986,-2.811176745,-1.329460447,8.003189066,4.637976851,-0.010459637,-0.077534466,31.50781344,120.4019983,14.1967238,31.55548,-0.73049,0.27929,31.50781321,120.4019984,14.19556393,0.027736323,0.03035794,0.060602626
1573524810,31.50768523,120.4020001,14.3242,-2.83695919,1.455769657,168.0887493,-44.82706247,0.945197892,-0.380541775,31.90496,-0.67194,0.28499,1.573868985,1.55525672,4.334100481,3.521258549,0.350502175,0.127442291,45.73452448,-1.31416464,0.407841775,-2.83695919,-1.455769657,8.894093274,4.641774461,-0.008781454,-0.112333771,31.50781009,120.4019992,14.20126562,31.9269,-0.66989,0.28308,31.50780989,120.4019992,14.19935572,0.025517864,0.027397325,0.075700266
1573524810,31.50768116,120.4020014,14.3141,-2.842830599,1.596577037,167.2318862,-45.2783378,1.065841287,-0.370438557,32.277,-0.60487,0.28625,1.488608231,1.376642171,5.209166532,3.545907692,0.366022397,0.106169718,46.19152433,-1.217441355,0.397738557,-2.842830599,-1.596577037,9.75095637,4.663997283,-0.000698273,-0.132396808,31.50780677,120.4020001,14.20252743,,,,,,,,,
1573524810,31.50767705,120.4020025,14.3153,-2.839481532,1.633554381,166.3194921,-45.73404836,1.173185424,-0.371635272,32.65415,-0.53111,0.28956,1.346599298,1.302077016,6.091174655,3.577794842,0.391486625,0.132943596,46.65225324,-1.13423234,0.398935272,-2.839481532,-1.633554381,10.66335044,4.68568802,0.00959216,-0.105372256,31.50780341,120.4020011,14.2058393,32.67214,-0.52953,0.28805,31.50780325,120.4020011,14.20432939,0.020952734,0.023361495,0.106327627
1573524810,31.50767294,120.4020037,14.3202,-2.84856155,1.575706501,165.3624212,-46.18975893,1.288129154,-0.376531954,33.02573,-0.44955,0.29496,1.193771456,1.341250674,7.026453012,3.605196888,0.392752984,0.149110152,47.11338219,-1.043434268,0.403831954,-2.84856155,-1.575706501,11.62042137,4.70534093,-0.000250985,-0.064803539,31.5078001,120.4020021,14.21124116,33.05178,-0.44885,0.29219,31.50779987,120.4020021,14.20847129,0.018381363,0.024603217,0.122456048
1573524810,31.50766885,120.402005,14.3257,-2.852408146,1.483418235,164.3934952,-46.64325194,1.411622425,-0.382028615,33.40635,-0.36195,0.29915,1.045969172,1.442350086,7.972020888,3.618584417,0.41134044,0.148358994,47.57274664,-0.943981785,0.409328615,-2.852408146,-1.483418235,12.5893474,4.710329961,0.01030907,-0.075946,31.50779671,120.4020033,14.21543308,,,,,,,,,
1573524810,31.50766477,120.4020064,14.3293,-2.834072357,1.405481517,163.4115884,-47.09563615,1.541765342,-0.385625246,33.77436,-0.26557,0.3034,0.8781639,1.470542598,8.934198424,3.611828954,0.41879499,0.141937308,48.03135383,-0.837830511,0.412925246,-2.834072357,-1.405481517,13.57125416,4.698466179,0.007263345,-0.085113791,31.50779345,120.4020045,14.21968497,33.78754,-0.26339,0.3022,31.50779333,120.4020045,14.21848504,0.012331426,0.026381781,0.155795887
1573524810,31.50766072,120.4020078,14.3325,-2.801013344,1.387501344,162.4040263,-47.544694,1.680457799,-0.388821867,34.13789,-0.16253,0.30827,0.734374684,1.463852085,9.916597216,3.613461546,0.426268154,0.150280155,48.48708929,-0.722966467,0.416121867,-2.801013344,-1.387501344,14.57881622,4.69465039,-0.002232868,-0.083109449,31.50779022,120.4020058,14.22455686,,,,,,,,,
1573524810,31.50765669,120.4020093,14.3356,-2.773601915,1.403811416,161.3824806,-47.99153428,1.825799904,-0.391918467,34.50794,-0.05248,0.31094,0.589589206,1.472460141,10.9089935,3.627848816,0.445409195,0.156731093,48.94096024,-0.601345269,0.419218467,-2.773601915,-1.403811416,15.60036199,4.704377347,0.006314097,-0.078761468,31.50778694,120.4020071,14.2272288,34.52933,-0.04948,0.30706,31.50778675,120.4020072,14.22334891,0.00683974,0.0272343,0.190358763
1573524810,31.50765308,120.4020108,14.3389,-2.773385468,1.383536463,160.465188,-48.39180559,1.965442326,-0.395215389,34.8781,0.06725,0.31385,0.379573643,1.53887738,11.91879493,3.64273461,0.464615569,0.161531487,49.34802679,-0.482964696,0.422515389,-2.773385468,-1.383536463,16.51765451,4.711891841,0.019408522,-0.079345469,31.50778366,120.4020086,14.23014077,34.90344,0.06884,0.30835,31.50778344,120.4020086,14.2246409,0.003988371,0.028400404,0.207872594
1573524810,31.5076487,120.4020127,14.3414,-2.794599816,1.330396912,159.2901828,-48.87745332,2.144032642,-0.397711615,35.25151,0.19311,0.31378,0.22384103,1.584620966,12.96127207,3.660817578,0.472126655,0.148117785,49.84240142,-0.330184005,0.425011615,-2.794599816,-1.330396912,17.69265973,4.708858211,0.012854817,-0.093138219,31.50778036,120.4020101,14.23007277,,,,,,,,,
1573524811,31.50764474,120.4020145,14.3423,-2.788687457,1.331052553,158.2177616,-49.31653208,2.315973329,-0.39860816,35.6123,0.32957,0.3149,0.051922058,1.558076529,14.02287758,3.671135319,0.475072764,0.136769221,50.28992163,-0.181592568,0.42590816,-2.788687457,-1.331052553,18.76508095,4.71399817,0.008330104,-0.101945249,31.50777717,120.4020118,14.23119473,,,,,,,,,
1573524811,31.50764071,120.4020166,14.3548,-2.786766538,1.297571549,157.2136843,-49.76337241,2.518312375,-0.411104599,35.97066,0.4705,0.31444,0.002567705,1.565954108,15.07239271,3.681701972,0.493539411,0.154267777,50.74679267,-0.003053441,0.438404599,-2.786766538,-1.297571549,19.76915825,4.735954147,0.021736305,-0.082307382,31.50777401,120.4020134,14.23073671,35.98702,0.47225,0.30929,31.50777387,120.4020135,14.2255868,-0.001179894,0.028300027,0.262986082
1573524811,31.50763678,120.4020186,14.3576,-2.791719904,1.237698847,156.1382075,-50.19912481,2.70735216,-0.413901093,36.32991,0.61881,0.31424,-0.072153571,1.638692653,16.13340338,3.692370593,0.496314243,0.15949967,51.19189115,0.162788473,0.441201093,-2.791719904,-1.237698847,20.8446351,4.74774897,0.014009764,-0.071772231,31.50777085,120.4020152,14.23053871,,,,,,,,,
1573524811,31.50763328,120.4020205,14.3602,-2.783677974,1.182329607,155.1436735,-50.58719946,2.884992568,-0.416497937,36.68261,0.77452,0.31603,-0.147983595,1.671676871,17.21526549,3.687909543,0.513126691,0.165399846,51.58877796,0.319756331,0.443797937,-2.783677974,-1.182329607,21.83916901,4.743081007,0.020791654,-0.072160069,31.50776775,120.402017,14.2323307,36.68851,0.77721,0.31234,31.50776769,120.4020171,14.22864073,-0.003430438,0.029607406,0.30028875
1573524811,31.50762904,120.4020229,14.3627,-2.785259583,1.154339383,153.8873369,-51.05732418,3.111080373,-0.418994071,37.02375,0.93913,0.31728,-0.178422021,1.67826203,18.3330665,3.678142953,0.529577648,0.160349791,52.07015113,0.520785724,0.446294071,-2.785259583,-1.154339383,23.09550568,4.739347573,0.019340077,-0.074640992,31.50776475,120.4020189,14.23358265,,,,,,,,,
1573524811,31.50762523,120.4020251,14.3641,-2.769155363,1.202550229,152.6825053,-51.47977113,3.325768803,-0.420390553,37.35483,1.11317,0.31972,-0.19447121,1.572998918,19.52600482,3.649081442,0.557335846,0.163012675,52.50331262,0.712941062,0.447690553,-2.769155363,-1.202550229,24.30033727,4.726235731,0.026565754,-0.086425901,31.50776185,120.402021,14.23602456,,,,,,,,,
1573524811,31.50762185,120.4020273,14.3653,-2.747793959,1.325654986,151.5593154,-51.85454034,3.52620801,-0.421587397,37.69558,1.291,0.31915,-0.206185703,1.482365359,20.75616715,3.649765752,0.56573746,0.167469094,52.88811245,0.893376448,0.448887397,-2.747793959,-1.325654986,25.42352719,4.726285701,0.020725903,-0.089876563,31.50775887,120.402023,14.23545656,37.69734,1.29404,0.31972,31.50775885,120.402023,14.23602657,-0.004911762,0.026254892,0.362225854
1573524811,31.50761776,120.4020299,14.3673,-2.754325343,1.389178311,150.1480726,-52.30803326,3.781744262,-0.423583534,38.01624,1.48127,0.3268,-0.288908739,1.360160602,22.00533969,3.654772012,0.591368911,0.152169391,53.35442689,1.124688882,0.450883534,-2.754325343,-1.389178311,26.83476994,4.73857934,0.031207344,-0.099123514,31.50775607,120.4020252,14.24310846,,,,,,,,,
1573524811,31.50761408,120.4020325,14.3685,-2.771149594,1.405365745,148.8625537,-52.71606598,4.025881138,-0.424780011,38.35328,1.6801,0.32582,-0.419933647,1.415562624,23.26713135,3.691050063,0.605453961,0.142235991,53.77474415,1.347010538,0.452080011,-2.771149594,-1.405365745,28.12028887,4.766929797,0.036493991,-0.101898704,31.50775313,120.4020275,14.24213048,,,,,,,,,
1573524811,31.50761043,120.4020352,14.3692,-2.790092678,1.384877576,147.5637085,-53.12077234,4.279517517,-0.425476475,38.67701,1.88678,0.32617,-0.516505799,1.475095381,24.54393223,3.68327615,0.620164066,0.144108759,54.19223966,1.578993613,0.452776475,-2.790092678,-1.384877576,29.4191341,4.768273128,0.042735761,-0.111025512,31.50775031,120.4020298,14.24248245,38.68276,1.88893,0.32393,31.50775026,120.4020298,14.24024249,-0.00978944,0.025769088,0.428201728
1573524812,31.50760685,120.402038,14.3702,-2.834536583,1.367752656,146.2360607,-53.5177172,4.543603345,-0.426472962,38.98854,2.1023,0.32963,-0.598090936,1.426901693,25.83129315,3.669416102,0.640234398,0.170847456,54.60253444,1.821820178,0.453772962,-2.834536583,-1.367752656,30.74678183,4.772215689,0.042398253,-0.091252038,31.50774761,120.4020323,14.24594437,,,,,,,,,
1573524812,31.50760331,120.4020414,14.3652,-2.859338342,1.334764032,145.0398188,-53.91022683,4.868485887,-0.421469402,39.30822,2.3197,0.32826,-0.604804571,1.527768495,27.15800511,3.68456422,0.605032057,0.174081559,55.01160017,2.12559263,0.448769402,-2.859338342,-1.334764032,31.9430238,4.79453654,0.035590409,-0.0658084,31.50774483,120.4020347,14.24457637,,,,,,,,,
1573524812,31.5075998,120.4020444,14.37,-2.788227457,1.221090707,143.7057619,-54.2994102,5.150620778,-0.426265868,39.61126,2.55063,0.33333,-0.637361054,1.598151507,28.47024737,3.68209898,0.620469591,0.177270717,55.41509423,2.386851765,0.453565868,-2.788227457,-1.221090707,33.27708069,4.803523383,0.032499249,-0.056264015,31.50774221,120.4020373,14.24964829,39.65355,2.54959,0.32021,31.50774183,120.4020373,14.23652855,-0.014339839,0.032382186,0.496910192
