time,ins1000_lat,ins1000_lon,ins1000_alt,ins1000_roll,ins1000_pitch,ins1000_yaw,ins1000_ned_x,ins1000_ned_y,ins1000_ned_z,algo_pose_x,algo_pose_y,algo_pose_z,algo_roll,algo_pitch,algo_yaw,algo_vel_x,algo_vel_y,algo_vel_z,align_pose_x,align_pose_y,align_pose_z,align_roll,align_pitch,align_yaw,align_vel_x,align_vel_y,align_vel_z,algo_lat,algo_lon,algo_alt,loop_pose_x,loop_pose_y,loop_pose_z,loop_lat,loop_lon,loop_alt,loop_roll,loop_pitch,loop_yaw
1573525413,31.50808841,120.4019989,12.3467,0.231347215,1.629381557,170.411289,0,0,0,0.70299,0.07128,0.01677,-0.379570759,0.597838025,1.2711814,0.738608276,0.078788542,0.025960583,0.70299,0.07128,0.01677,0.231347215,-1.629381557,4.135970375,0.75051049,-0.014093596,-0.02649424,31.50808841,120.4019989,12.34670001,,,,,,,,,
1573525413,31.50808743,120.4019991,12.3457,0.214528926,1.651689072,170.1693466,-0.108660884,0.016149037,0.000999999,0.80605,0.08433,0.019,-0.395796183,0.586171008,1.486584848,0.802551384,0.090801692,0.02813981,0.812693742,0.077030495,0.015770001,0.214528926,-1.651689072,4.377912835,0.818193398,-0.01301792,-0.033548584,31.5080875,120.4019991,12.34893001,,,,,,,,,
1573525413,31.50808644,120.4019993,12.3446,0.209872802,1.663563435,169.9161304,-0.218430553,0.033248017,0.002100003,0.92276,0.09983,0.0213,-0.406234338,0.565484468,1.751354777,0.872462582,0.087417136,0.02748248,0.923591519,0.083621272,0.014669997,0.209872802,-1.663563435,4.631129032,0.880335189,-0.024511422,-0.029879688,31.50808646,120.4019994,12.35123001,,,,,,,,,
1573525413,31.50808539,120.4019994,12.3438,0.214515894,1.699298157,169.6630909,-0.334852929,0.05129694,0.002900009,1.04814,0.11589,0.02461,-0.423342141,0.562161427,2.014869209,0.934423977,0.098838312,0.036751035,1.041202167,0.090525523,0.013869991,0.214515894,-1.699298157,4.884168535,0.932822622,-0.01903479,-0.035206417,31.50808535,120.4019997,12.35454002,,,,,,,,,
1573525413,31.50808419,120.4019997,12.3426,0.194061407,1.744581126,169.341223,-0.467907073,0.073145634,0.004100016,1.17635,0.13512,0.02932,-0.525430537,0.54469899,2.309032254,0.995034921,0.111049735,0.039601222,1.175730396,0.099631921,0.012669984,0.194061407,-1.744581126,5.206036361,1.00042866,-0.017410682,-0.039816772,31.50808421,120.402,12.35925002,,,,,,,,,
1573525413,31.50808265,120.4019998,12.306,0.16375654,1.776965095,169.0637429,-0.638659887,0.087394787,0.040700034,1.31486,0.15729,0.03417,-0.663364079,0.465602168,2.613734007,1.064002598,0.118537065,0.038972531,1.34706456,0.097590863,-0.023930034,0.16375654,-1.776965095,5.48351648,1.061823089,-0.02202182,-0.042883875,31.50808299,120.4020004,12.36410004,,,,,,,,,
1573525414,31.50808128,120.4020001,12.3046,0.153707498,1.823099505,168.706703,-0.790563367,0.113043257,0.042100049,1.46374,0.18234,0.04026,-0.859930145,0.349895743,2.937061189,1.135509524,0.127734861,0.04487723,1.500717902,0.108688691,-0.025330049,0.153707498,-1.823099505,5.840556441,1.129558138,-0.025676697,-0.043788921,31.50808168,120.4020008,12.37019005,,,,,,,,,
1573525414,31.50807983,120.4020004,12.3033,0.109531148,1.865656795,168.3719029,-0.951337123,0.142491503,0.043400073,1.63,0.2107,0.04531,-1.114207514,0.364326848,3.275535418,1.211372173,0.135299932,0.047223491,1.663562453,0.122726206,-0.026630073,0.109531148,-1.865656795,6.175356496,1.201559538,-0.023974186,-0.050499147,31.50808021,120.4020013,12.37524007,,,,,,,,,
1573525414,31.50807841,120.4020007,12.3017,0.065690632,1.908098165,168.0724599,-1.108784525,0.171939748,0.045000099,1.80901,0.23891,0.04938,-1.340435059,0.361740132,3.576448645,1.296148861,0.134953682,0.04695393,1.823095702,0.137079806,-0.028230099,0.065690632,-1.908098165,6.474799537,1.267341619,-0.031603882,-0.054892223,31.50807862,120.4020018,12.3793101,,,,,,,,,
1573525414,31.5080769,120.402001,12.3,0.034816873,1.939899209,167.806211,-1.276210988,0.202337939,0.04670013,1.99194,0.26789,0.05348,-1.387880205,0.325447335,3.863423063,1.38325143,0.129712092,0.046933196,1.992653125,0.151430795,-0.02993013,0.034816873,-1.939899209,6.741048402,1.352662638,-0.034355334,-0.056300612,31.50807701,120.4020022,12.38341014,1.97961,0.26774,0.05619,31.50807712,120.4020022,12.38612014,-0.023257102,0.003465524,0.067377316
1573525414,31.50807516,120.4020014,12.2989,0.003812029,1.971770792,167.5411576,-1.469139495,0.239385734,0.047800173,2.16642,0.29869,0.06193,-1.377951171,0.169874936,4.111843194,1.461834075,0.130281427,0.051402167,2.18822907,0.169977976,-0.031030173,0.003812029,-1.971770792,7.006101813,1.44747635,-0.047412995,-0.054132363,31.50807547,120.4020027,12.39186018,2.18071,0.29935,0.06205,31.50807534,120.4020028,12.39198018,-0.025082422,0.002638472,0.071507912
1573525414,31.50807344,120.4020018,12.2982,-0.047272708,1.989450227,167.3668892,-1.65985043,0.275483589,0.048500223,2.38141,0.33163,0.0685,-1.481714757,0.149744386,4.305788821,1.560188049,0.128283267,0.056753895,2.381507209,0.187790238,-0.031730223,-0.047272708,-1.989450227,7.180370183,1.542470085,-0.050572641,-0.059325069,31.50807356,120.4020033,12.39843023,2.38464,0.33243,0.07474,31.50807354,120.4020033,12.40467023,-0.029132627,-0.000831144,0.074817825
1573525414,31.50807161,120.4020022,12.2972,-0.07333145,1.998272243,167.2512607,-1.862757997,0.312531387,0.04950028,2.59751,0.36523,0.08222,-1.711325322,-0.067146085,4.409766886,1.655723066,0.113177059,0.056634821,2.587017058,0.205389164,-0.03273028,-0.07333145,-1.998272243,7.295998698,1.619480254,-0.067074378,-0.055589885,31.50807165,120.4020039,12.41215029,,,,,,,,,
1573525414,31.50806963,120.4020031,12.304,-0.097629054,1.961297831,166.9395313,-2.082297332,0.397076362,0.042700353,2.87069,0.39531,0.07624,-1.96360729,0.406823392,4.461609117,1.770165682,0.097523642,0.067731806,2.813596819,0.268689909,-0.025930353,-0.097629054,-1.961297831,7.607728063,1.683357466,-0.066018159,-0.054356281,31.50806923,120.4020045,12.40617038,2.89217,0.39327,0.07679,31.50806903,120.4020045,12.40672039,-0.035581501,0.006872654,0.077950679
1573525415,31.50806764,120.4020035,12.305,-0.133101302,1.968777037,166.9389155,-2.302945451,0.439823825,0.041700432,3.13407,0.42476,0.08415,-2.0578703,0.40138277,4.464897088,1.870140635,0.097070171,0.073325756,3.037308551,0.290276919,-0.024930432,-0.133101302,-1.968777037,7.608343893,1.766663301,-0.066049181,-0.059882361,31.50806689,120.402005,12.41408048,,,,,,,,,
1573525415,31.50806556,120.402004,12.3059,-0.165082076,1.941902272,166.914327,-2.533572631,0.484471179,0.040800523,3.40061,0.45522,0.08185,-2.120057978,0.686429577,4.489315736,1.98223292,0.094657677,0.07261387,3.271134724,0.312806965,-0.024030523,-0.165082076,-1.941902272,7.6329324,1.856047528,-0.064557736,-0.06171581,31.50806452,120.4020056,12.41178059,3.40637,0.45443,0.08327,31.50806447,120.4020056,12.41320059,-0.037210481,0.011248938,0.07840568
1573525415,31.50806322,120.4020045,12.3069,-0.237496821,1.876015664,166.9600866,-2.793028207,0.53576814,0.039800636,3.67438,0.48831,0.08951,-2.207209729,0.690519885,4.464708978,2.052001709,0.088894228,0.07545465,3.53429072,0.339217118,-0.023030636,-0.237496821,-1.876015664,7.587172753,1.905173324,-0.072163754,-0.051096069,31.50806209,120.4020062,12.41944071,,,,,,,,,
1573525415,31.50806101,120.402005,12.3081,-0.249887635,1.793900782,167.0410688,-3.038069585,0.580415499,0.038600752,3.95089,0.51519,0.08264,-2.222088181,1.064496914,4.379485093,2.078618844,0.051443587,0.072057278,3.782465867,0.360377464,-0.021830752,-0.249887635,-1.793900782,7.506190565,1.923245806,-0.091253572,-0.054130817,31.50805963,120.4020068,12.41257085,3.95088,0.5146,0.0852,31.50805963,120.4020068,12.41513085,-0.038748272,0.01737664,0.076439299
1573525415,31.50805875,120.4020055,12.3085,-0.236872649,1.807003921,167.2260253,-3.288654885,0.625062861,0.038200881,4.23002,0.54171,0.08966,-2.199144763,1.007764653,4.22132246,2.134324451,0.036079379,0.075700005,4.036159848,0.381011004,-0.021430881,-0.236872649,-1.807003921,7.321234116,1.988152783,-0.094590081,-0.060513771,31.50805715,120.4020074,12.419591,,,,,,,,,
1573525415,31.50805623,120.402006,12.3102,-0.26582457,1.792300301,167.4787247,-3.568068582,0.674459944,0.036501038,4.51735,0.56913,0.09636,-2.144697195,0.978383112,3.988314329,2.202354238,0.040443467,0.089214387,4.319003118,0.403633362,-0.019731038,-0.26582457,-1.792300301,7.068534693,2.04731577,-0.091003448,-0.04247599,31.50805459,120.4020079,12.42629117,4.51509,0.56913,0.09737,31.50805461,120.4020079,12.42730117,-0.035792009,0.016476836,0.069532593
1573525415,31.50805404,120.4020069,12.3288,-0.360615867,1.701188604,167.409179,-3.810892398,0.755205169,0.017901187,4.80935,0.59541,0.1042,-2.128097255,1.028700113,3.707709067,2.223285359,0.041031045,0.093828391,4.568400925,0.460938952,-0.001131187,-0.360615867,-1.701188604,7.138080395,2.055860892,-0.088798932,-0.03700799,31.50805199,120.4020085,12.43413135,4.79619,0.59453,0.10316,31.50805211,120.4020085,12.43309135,-0.035970429,0.018277546,0.064775769
1573525416,31.50805145,120.4020074,12.3306,-0.429314626,1.751976871,167.799057,-4.098067589,0.804602256,0.016101372,5.09215,0.61736,0.10923,-2.12323976,1.020837061,3.359313035,2.248486107,0.026525526,0.088736671,4.858970567,0.482823781,0.000668628,-0.429314626,-1.751976871,6.748202415,2.110177675,-0.097404708,-0.059973681,31.50804947,120.402009,12.43916155,,,,,,,,,
1573525416,31.50804895,120.4020078,12.3318,-0.477807172,1.84010556,168.2244646,-4.375263717,0.84924963,0.014901563,5.33382,0.63235,0.10762,-2.082228158,1.064337788,2.923165006,2.287759751,0.004476155,0.08284703,5.139154962,0.500928647,0.001868437,-0.477807172,-1.84010556,6.322794799,2.197909117,-0.115865098,-0.052570358,31.50804731,120.4020094,12.43755172,5.27401,0.62641,0.10177,31.50804785,120.4020093,12.43170167,-0.033147485,0.020731834,0.050811799
1573525416,31.50804616,120.4020083,12.3357,-0.509106435,1.780864233,168.7659012,-4.684614599,0.894846953,0.01100179,5.57576,0.64036,0.10681,-1.934796161,1.205391902,2.409642741,2.292791976,-0.007948116,0.088974448,5.451438876,0.516923668,0.00576821,-0.509106435,-1.780864233,5.781358198,2.257462971,-0.116194823,-0.042108988,31.50804515,120.4020097,12.4367419,5.56237,0.63963,0.1074,31.50804527,120.4020097,12.43733189,-0.033752669,0.020721801,0.042301698
1573525416,31.50804329,120.4020088,12.3383,-0.564482368,1.858058801,169.3519371,-5.002835755,0.939494335,0.008402039,5.86985,0.65054,0.11315,-1.983388349,1.161514292,1.874563389,2.341471996,-0.016433524,0.087004999,5.772462659,0.531130152,0.008367961,-0.564482368,-1.858058801,5.195322307,2.340023886,-0.131262832,-0.067303067,31.50804252,120.4020101,12.44308213,5.85273,0.64791,0.11334,31.50804267,120.4020101,12.44327212,-0.033206979,0.02096586,0.032519735
1573525416,31.50804071,120.4020092,12.3391,-0.566649415,1.986308527,169.9032606,-5.28890216,0.974642281,0.007602275,6.17037,0.65364,0.11849,-1.898841591,1.050372485,1.27429498,2.446746422,-0.03126251,0.078833184,6.060574512,0.53893568,0.009167725,-0.566649415,-1.986308527,4.643998772,2.456614397,-0.143747235,-0.079020036,31.50803982,120.4020105,12.44842238,6.16268,0.65176,0.11761,31.50803989,120.4020104,12.44754238,-0.031356502,0.018339517,0.022696712
1573525416,31.50803754,120.4020096,12.3415,-0.58027106,2.010265857,170.5462959,-5.640386853,1.014539951,0.005202584,6.49587,0.65356,0.12255,-1.80821419,0.981692393,0.693947975,2.555102968,-0.033036665,0.079545383,6.414259971,0.545253087,0.011567416,-0.58027106,-2.010265857,4.000963482,2.581557063,-0.146242874,-0.071785322,31.5080369,120.4020108,12.45248267,6.5064,0.65606,0.12647,31.50803681,120.4020108,12.45640268,-0.032433453,0.015153983,0.01181625
1573525416,31.50803446,120.40201,12.3437,-0.605174879,2.033782083,171.1786628,-5.981892485,1.050637849,0.003002903,6.85561,0.65524,0.13196,-1.875639494,0.853469318,0.047918261,2.673943651,-0.027850694,0.081230259,6.757650453,0.548736174,0.013767097,-0.605174879,-2.033782083,3.368596578,2.695964183,-0.155490453,-0.084975908,31.50803367,120.4020112,12.46189301,6.88546,0.65436,0.13542,31.5080334,120.4020112,12.46535304,-0.034858045,0.013493456,0.000644947
1573525416,31.50803143,120.4020108,12.3089,-0.600566253,2.058449893,171.534624,-6.317854154,1.131383103,0.037803242,7.25491,0.64776,0.14117,-1.977341478,0.715821625,-0.626668671,2.839105015,-0.036797113,0.081844837,7.099764659,0.597191398,-0.021033242,-0.600566253,-2.058449893,3.012635373,2.825688026,-0.153264854,-0.080857939,31.50803008,120.4020115,12.47110341,7.27608,0.64378,0.14036,31.50802989,120.4020115,12.47029343,-0.034254644,0.013216135,-0.010868196
1573525417,31.5080278,120.4020112,12.3128,-0.642568149,2.024084995,172.2469112,-6.720342934,1.168430959,0.03390366,7.66472,0.63296,0.14755,-1.974243942,0.7707644,-1.299239635,2.968582135,-0.021490685,0.102423047,7.503952605,0.595825239,-0.01713366,-0.642568149,-2.024084995,2.300348198,2.942699824,-0.140445866,-0.074760399,31.50802639,120.4020117,12.47748384,7.63776,0.63182,0.14327,31.50802663,120.4020117,12.47320381,-0.030552264,0.01477498,-0.022769507
1573525417,31.5080243,120.4020115,12.3166,-0.71935334,1.976262009,172.9228613,-7.108417516,1.199779152,0.030104091,8.03687,0.61836,0.15111,-1.849215962,0.882564795,-1.991365054,3.045133749,-0.020164328,0.099147134,7.893249969,0.590154914,-0.013334091,-0.71935334,-1.976262009,1.624398056,3.043498184,-0.146251803,-0.087550408,31.50802303,120.402012,12.48104426,8.0043,0.61643,0.14556,31.50802333,120.4020119,12.47549422,-0.028525387,0.017044146,-0.035089698
1573525417,31.5080204,120.4020118,12.3208,-0.755969456,1.828791867,173.6352667,-7.54084348,1.229227464,0.025904593,8.4131,0.59684,0.151,-1.681770351,1.031250221,-2.688049457,3.100377808,-0.023226059,0.097265906,8.326517485,0.578378828,-0.009134593,-0.755969456,-1.828791867,0.911992698,3.10263325,-0.158062229,-0.051429442,31.50801964,120.4020121,12.4809347,,,,,,,,,
1573525417,31.50801678,120.4020121,12.3266,-0.698780022,1.571169257,174.2347019,-7.94222348,1.251076224,0.020105086,8.80467,0.569,0.15072,-1.488007761,1.333662817,-3.334563894,3.066623874,-0.029884165,0.100540084,8.728157379,0.561987713,-0.003335086,-0.698780022,-1.571169257,0.312557492,3.06329692,-0.158908958,-0.053852965,31.5080161,120.4020122,12.48065519,8.76258,0.56858,0.15228,31.50801648,120.4020122,12.48221514,-0.022844006,0.02370519,-0.058406972
1573525417,31.50801321,120.4020123,12.3295,-0.723425252,1.527257762,174.7857543,-8.338059554,1.270075152,0.017205598,9.16257,0.54078,0.15701,-1.312476626,1.458358991,-3.923324142,2.979259526,-0.007169822,0.116557552,9.124007629,0.543286471,-0.000435598,-0.723425252,-1.527257762,-0.238494941,3.026468368,-0.126490769,-0.06768893,31.50801286,120.4020123,12.48694565,9.14137,0.54292,0.15542,31.50801305,120.4020123,12.48535563,-0.021491043,0.026243675,-0.068324773
1573525417,31.50800941,120.4020125,12.3318,-0.830752475,1.525975027,175.3234392,-8.759397673,1.289074087,0.014906168,9.5331,0.51527,0.16143,-1.320427154,1.481999071,-4.45812975,2.939621802,0.010378465,0.123410203,9.545244526,0.522161912,0.001863832,-0.830752475,-1.525975027,-0.776179779,2.996857064,-0.121974844,-0.064304154,31.50800951,120.4020124,12.49136616,9.49781,0.51551,0.15699,31.50800983,120.4020124,12.48692611,-0.021431225,0.026945791,-0.078140308
1573525417,31.50800611,120.4020126,12.3032,-0.862404634,1.584570091,175.6894678,-9.12529652,1.306173119,0.043506688,9.88352,0.48455,0.16183,-1.28046509,1.513683451,-4.968392186,2.914550529,0.000232984,0.109530622,9.91111248,0.504414147,-0.026736688,-0.862404634,-1.584570091,-1.142208431,3.024929075,-0.134666414,-0.077211059,31.50800634,120.4020124,12.49176665,9.86422,0.48774,0.14346,31.50800652,120.4020124,12.47339662,-0.02351614,0.031950512,-0.08706029
1573525418,31.50800224,120.4020128,12.3038,-0.869254651,1.633298738,176.1360867,-9.554396127,1.317572503,0.04290732,10.25247,0.45394,0.14544,-1.347278004,1.767089387,-5.444016611,2.962710174,0.020315233,0.109779995,10.3393536,0.474986893,-0.02613732,-0.869254651,-1.633298738,-1.588827257,3.103535843,-0.129431144,-0.085266002,31.508003,120.4020125,12.47537719,,,,,,,,,
1573525418,31.50799854,120.4020129,12.3054,-0.886040042,1.60091831,176.4915645,-9.964646398,1.32802194,0.041307953,10.6376,0.4212,0.13712,-1.57835525,1.901485696,-5.829477293,3.029429707,0.042031017,0.104123677,10.74874041,0.446405142,-0.024537953,-0.886040042,-1.60091831,-1.944305082,3.180367556,-0.112003362,-0.07031919,31.50799952,120.4020125,12.46705778,10.62418,0.42425,0.12912,31.50799964,120.4020125,12.45905776,-0.030447848,0.03582358,-0.101796976
1573525418,31.50799449,120.402013,12.3072,-0.992152397,1.474501187,176.8466396,-10.41370413,1.338471383,0.039508675,11.02726,0.39056,0.12902,-1.844538585,2.186753808,-6.186757367,3.056998353,0.067425898,0.115958432,11.19675907,0.414135732,-0.022738675,-0.992152397,-1.474501187,-2.299380163,3.230984003,-0.111220697,-0.090408561,31.50799599,120.4020126,12.4589584,11.01474,0.39188,0.12039,31.50799611,120.4020126,12.45032838,-0.033754087,0.039839853,-0.108321336
1573525418,31.50799035,120.4020131,12.3065,-1.059341212,1.555425392,177.1202829,-10.87274091,1.346070997,0.040209446,11.42459,0.35673,0.11868,-2.012517894,2.208352187,-6.487854182,3.131501556,0.07813627,0.11308326,11.65444082,0.378081131,-0.023439446,-1.059341212,-1.555425392,-2.573023522,3.332827587,-0.113679421,-0.091116203,31.5079924,120.4020126,12.44861906,,,,,,,,,
1573525418,31.50798667,120.4020131,12.3077,-1.079082507,1.545375471,177.3377933,-11.28077361,1.351770715,0.039010158,11.83841,0.32212,0.10862,-1.964115364,2.287133498,-6.758130648,3.239513134,0.096590337,0.114797276,12.06116876,0.344981878,-0.022240158,-1.079082507,-1.545375471,-2.790533888,3.449578337,-0.119209838,-0.079917797,31.50798865,120.4020127,12.43855977,11.83374,0.32038,0.10927,31.50798869,120.4020126,12.43920976,-0.033335688,0.039385564,-0.118383251
1573525418,31.50798223,120.4020132,12.3092,-1.111177552,1.546197391,177.5092217,-11.77307394,1.356520501,0.037511053,12.27158,0.28193,0.10734,-1.943260516,2.270200756,-6.962933855,3.353512988,0.109246439,0.12306866,12.55169273,0.302929487,-0.020741053,-1.111177552,-1.546197391,-2.961962264,3.583158869,-0.123648109,-0.090731296,31.50798473,120.4020127,12.43728054,,,,,,,,,
1573525418,31.50797794,120.4020132,12.3099,-1.143775856,1.570088252,177.6691993,-12.24874249,1.361270285,0.036811952,12.72669,0.24355,0.10353,-2.131335472,2.249152988,-7.122647906,3.49363885,0.133608734,0.124074477,13.02566019,0.262457523,-0.020041952,-1.143775856,-1.570088252,-3.121939948,3.729903066,-0.112222458,-0.102196516,31.50798061,120.4020127,12.43347139,12.73057,0.23998,0.1074,31.50798057,120.4020127,12.43734139,-0.038553875,0.037869599,-0.124233673
1573525418,31.50797414,120.4020121,12.2876,-1.215844316,1.655842454,178.3548489,-12.67008058,1.257726394,0.059112758,13.20466,0.19814,0.10562,-2.268853421,2.121736319,-7.277921982,3.636447739,0.139206495,0.130280149,13.43525246,0.119344658,-0.042342758,-1.215844316,-1.655842454,-3.807589484,3.855673803,-0.11429687,-0.109007379,31.50797628,120.4020127,12.43556231,,,,,,,,,
1573525419,31.50796952,120.4020121,12.2878,-1.260810005,1.725317476,178.4794993,-13.18233902,1.255826568,0.0589138,13.69404,0.15385,0.10462,-2.508300092,2.032341975,-7.424206925,3.792742019,0.140641738,0.126275897,13.94501236,0.068776232,-0.0421438,-1.260810005,-1.725317476,-3.932239853,4.014383917,-0.127930396,-0.118660901,31.50797185,120.4020128,12.43456329,13.69792,0.14033,0.1282,31.5079718,120.4020126,12.4581433,-0.044629082,0.030361564,-0.12967368
1573525419,31.50796472,120.4020121,12.2893,-1.283090559,1.783331437,178.5701998,-13.71455558,1.252026857,0.057414925,14.21162,0.09141,0.13004,-2.564365517,1.699916593,-7.543814731,3.938668737,0.137729507,0.141192783,14.47445953,0.014420003,-0.040644925,-1.283090559,-1.783331437,-4.022940424,4.165330784,-0.145398463,-0.118666453,31.50796715,120.4020126,12.45998437,,,,,,,,,
1573525419,31.50795934,120.402012,12.2909,-1.29340944,1.807131181,178.661458,-14.31108165,1.245377315,0.05581624,14.75664,0.02967,0.14514,-2.732642667,1.467871599,-7.612072673,4.119439648,0.126234658,0.1329763,15.0676544,-0.04888415,-0.03904624,-1.29340944,-1.807131181,-4.114198607,4.355545066,-0.137608001,-0.130855806,31.5079622,120.4020125,12.47508555,14.7594,0.02799,0.14549,31.50796217,120.4020125,12.47543555,-0.047688875,0.02521463,-0.133025688
1573525419,31.50795414,120.402012,12.2924,-1.326720879,1.807519839,178.7296948,-14.8876496,1.240627661,0.054317565,15.31679,-0.02756,0.14788,-2.76138617,1.447640982,-7.708489969,4.268788163,0.145085585,0.137104573,15.64116199,-0.108400499,-0.037547565,-1.326720879,-1.807519839,-4.182435412,4.501912943,-0.135864217,-0.131744098,31.50795712,120.4020125,12.47782681,,,,,,,,,
1573525419,31.50794877,120.4020119,12.2952,-1.382327361,1.762046181,178.7982561,-15.48306688,1.234928065,0.051518987,15.8901,-0.08385,0.14965,-2.801605842,1.494332114,-7.806755222,4.415469359,0.159406528,0.147522088,16.23334336,-0.170653644,-0.034748987,-1.382327361,-1.762046181,-4.250996656,4.647848906,-0.136741048,-0.12180531,31.50795193,120.4020125,12.47959816,15.88118,-0.07897,0.14472,31.50795201,120.4020125,12.47466814,-0.050722792,0.027539882,-0.136318482
1573525419,31.50794324,120.4020118,12.2982,-1.437084054,1.6133048,178.8680407,-16.09622472,1.228278525,0.04852051,16.47405,-0.13775,0.14653,-2.970867433,1.699311341,-7.881396825,4.519070485,0.167736906,0.155065742,16.84309474,-0.235538225,-0.03175051,-1.437084054,-1.6133048,-4.320781278,4.76852901,-0.144172091,-0.116849368,31.50794664,120.4020125,12.47647958,,,,,,,,,
1573525419,31.50793824,120.4020122,12.2907,-1.509368618,1.597736008,178.6149662,-16.65061694,1.2624766,0.056021945,17.09413,-0.20249,0.14967,-2.944087454,1.724458142,-7.960956452,4.625419295,0.17606556,0.176774566,17.39822795,-0.254175847,-0.039251945,-1.509368618,-1.597736008,-4.067706827,4.841694945,-0.151663223,-0.117476552,31.50794101,120.4020124,12.47962116,,,,,,,,,
1573525420,31.50793207,120.4020121,12.2938,-1.543392403,1.6208571,178.6600244,-17.33473699,1.256777014,0.052923774,17.71759,-0.2648,0.15116,-2.991692066,1.689130506,-8.001017461,4.70424584,0.164961505,0.171990087,18.0787107,-0.324857933,-0.036153774,-1.543392403,-1.6208571,-4.112764952,4.92405295,-0.156384328,-0.11858022,31.50793536,120.4020124,12.4811128,17.72368,-0.26709,0.15209,31.50793531,120.4020124,12.48204281,-0.052089898,0.028847823,-0.139644325
1573525420,31.50792577,120.4020121,12.2974,-1.613181627,1.734991122,178.6803528,-18.03327123,1.250127486,0.049325717,18.35556,-0.33111,0.15701,-3.038366143,1.548709719,-8.017422871,4.808161386,0.173907917,0.177307664,18.77345214,-0.397855368,-0.032555717,-1.613181627,-1.734991122,-4.133093359,5.035902566,-0.157212009,-0.128003544,31.50792958,120.4020123,12.48696454,18.36028,-0.33499,0.1617,31.50792953,120.4020123,12.49165456,-0.053591044,0.025350542,-0.139753288
1573525420,31.50792028,120.402012,12.3003,-1.693766383,1.826443837,178.7236257,-18.64199393,1.245377835,0.046427473,19.00398,-0.4011,0.16698,-3.116738781,1.347944229,-8.057862051,4.88819185,0.190730543,0.165627318,19.37896899,-0.46042721,-0.029657473,-1.693766383,-1.826443837,-4.176366316,5.113951109,-0.14311354,-0.143455613,31.5079237,120.4020123,12.49693638,19.02112,-0.40188,0.15956,31.50792354,120.4020123,12.48951643,-0.053388694,0.024768303,-0.141098038
1573525420,31.50791375,120.402012,12.3034,-1.785867472,1.894567766,178.7440189,-19.36603022,1.239678253,0.043329639,19.67826,-0.46775,0.1633,-3.149891549,1.349676657,-8.121519119,4.993532316,0.199679924,0.158801208,20.09918735,-0.534902321,-0.026559639,-1.785867472,-1.894567766,-4.196759481,5.209634261,-0.152857827,-0.150449066,31.50791759,120.4020122,12.49325837,,,,,,,,,
1573525420,31.50790711,120.4020119,12.3089,-1.864408168,1.791107965,178.7787873,-20.10226314,1.23207878,0.037831924,20.33606,-0.53427,0.16928,-3.304604348,1.37016779,-8.14843542,5.06194461,0.185682978,0.158839456,20.83136662,-0.612427707,-0.021061924,-1.864408168,-1.791107965,-4.231527929,5.294997366,-0.16181236,-0.125588225,31.50791162,120.4020122,12.49924037,20.32094,-0.53191,0.17264,31.50791176,120.4020122,12.50260032,-0.059410989,0.02377101,-0.142216405
1573525420,31.50790085,120.4020118,12.3152,-1.908869347,1.710971038,178.8138112,-20.79636226,1.224479301,0.031534155,20.99488,-0.60126,0.17795,-3.451139283,1.462759167,-8.203948716,5.109804794,0.197487521,0.191823576,21.52160274,-0.685949348,-0.014764155,-1.908869347,-1.710971038,-4.266551836,5.368777161,-0.174952848,-0.115339477,31.50790565,120.4020122,12.50791245,20.99113,-0.60171,0.17772,31.50790568,120.4020121,12.50768244,-0.05929089,0.025772328,-0.143379224
1573525420,31.50789454,120.4020117,12.3208,-1.919199143,1.619361082,178.8266525,-21.4960053,1.21592988,0.025936482,21.67176,-0.67266,0.18284,-3.418709485,1.562834187,-8.242136386,5.141196387,0.198704343,0.187485041,22.21726743,-0.760943442,-0.009166482,-1.919199143,-1.619361082,-4.279393143,5.39228661,-0.164036243,-0.117386989,31.50789951,120.4020121,12.51280466,,,,,,,,,
1573525420,31.50788866,120.4020114,12.3023,-1.964400757,1.619682066,178.8718542,-22.14797052,1.190281429,0.044438719,22.35213,-0.74254,0.18593,-3.478234183,1.596244089,-8.290118278,5.17641998,0.198970249,0.190416162,22.86384522,-0.848428621,-0.027668719,-1.964400757,-1.619682066,-4.324594758,5.433629421,-0.173601945,-0.12955796,31.50789334,120.402012,12.51589694,,,,,,,,,
1573525421,31.50788177,120.4020113,12.3066,-2.055535817,1.596289301,178.8939089,-22.91192305,1.181732009,0.040141425,23.03136,-0.8133,0.1944,-3.630760077,1.58165229,-8.332387228,5.201150373,0.212290697,0.195655294,23.6235284,-0.929533704,-0.023371425,-2.055535817,-1.596289301,-4.346649515,5.466406939,-0.16585924,-0.126154013,31.50788719,120.402012,12.5243693,23.02814,-0.81349,0.19564,31.50788721,120.402012,12.52560929,-0.063705756,0.027279899,-0.145421881
1573525421,31.50787534,120.4020112,12.3107,-2.101506116,1.642116723,178.9153515,-23.6248715,1.172232637,0.036044035,23.71964,-0.88553,0.20134,-3.686027633,1.514755463,-8.358609745,5.224402835,0.208495268,0.204647879,24.33234801,-1.006737792,-0.019274035,-2.101506116,-1.642116723,-4.368092068,5.50462052,-0.173079108,-0.130728494,31.50788094,120.4020119,12.53131177,23.71883,-0.88182,0.19767,31.50788096,120.4020119,12.52764177,-0.064219891,0.027278771,-0.146193134
1573525421,31.50786886,120.4020112,12.3154,-2.158969393,1.71099626,178.9476155,-24.34336386,1.163683209,0.031346746,24.41445,-0.95408,0.20433,-3.743693018,1.518835871,-8.424047412,5.254217709,0.21688113,0.202996344,25.04677674,-1.083523044,-0.014576746,-2.158969393,-1.71099626,-4.400356122,5.543440949,-0.167734942,-0.136790678,31.50787465,120.4020119,12.53430434,,,,,,,,,
1573525421,31.50786184,120.402011,12.3199,-2.204318246,1.676424925,178.9590652,-25.1217306,1.152283949,0.026849775,25.1363,-1.02629,0.20649,-3.741993897,1.567515578,-8.452084754,5.309293423,0.2154664,0.197406612,25.82053808,-1.168834775,-0.010079775,-2.204318246,-1.676424925,-4.411805801,5.57208608,-0.181997781,-0.140972973,31.50786811,120.4020118,12.53646708,25.16117,-1.02766,0.2031,31.50786788,120.4020118,12.53307718,-0.064235391,0.02823263,-0.147749637
1573525421,31.50785527,120.4020109,12.3247,-2.215670745,1.664863451,178.9591227,-25.85020203,1.140884685,0.022052695,25.87052,-1.10192,0.20834,-3.691227708,1.607451397,-8.470973052,5.357397732,0.225602596,0.212586758,26.54462991,-1.249405225,-0.005282695,-2.215670745,-1.664863451,-4.411863291,5.613228632,-0.181676909,-0.123547939,31.50786145,120.4020118,12.53831996,,,,,,,,,
1573525421,31.50784816,120.4020108,12.3315,-2.26123989,1.618393543,178.9479161,-26.63854783,1.13043537,0.015255949,26.6105,-1.17834,0.21123,-3.681581245,1.690501836,-8.485111548,5.408889487,0.24006889,0.230188667,27.32841544,-1.334719568,0.001514051,-2.26123989,-1.618393543,-4.400656702,5.647430577,-0.164750443,-0.122139349,31.50785474,120.4020117,12.54121295,26.61479,-1.17893,0.21179,31.5078547,120.4020117,12.54177297,-0.064489675,0.029359735,-0.148332877
1573525421,31.50784296,120.4020109,12.3357,-2.332064843,1.638220159,178.8317775,-27.21511578,1.141834781,0.011058396,27.33482,-1.2512,0.21828,-3.773627254,1.691796218,-8.484394557,5.431826782,0.249749061,0.21680884,27.9034576,-1.378159928,0.005711604,-2.332064843,-1.638220159,-4.284518055,5.640732158,-0.168249516,-0.136572058,31.50784817,120.4020117,12.54826596,27.3428,-1.251,0.21652,31.5078481,120.4020117,12.546506,-0.06584926,0.030125923,-0.148221373
1573525422,31.50783581,120.4020108,12.3402,-2.34417042,1.637175803,178.7857758,-28.00789671,1.132335411,0.006561839,28.06689,-1.32372,0.22088,-3.799072929,1.731091529,-8.455198354,5.465027914,0.240783492,0.213323524,28.69174846,-1.462950071,0.010208161,-2.34417042,-1.637175803,-4.238516389,5.671480594,-0.187198091,-0.134756847,31.50784154,120.4020117,12.55086909,,,,,,,,,
1573525422,31.50782863,120.4020107,12.3459,-2.333175015,1.578377496,178.7068934,-28.804004,1.123785985,0.000865397,28.79199,-1.3964,0.22207,-3.746217982,1.756980966,-8.413740634,5.491874716,0.251106415,0.218230087,29.48344089,-1.547110655,0.015904603,-2.333175015,-1.578377496,-4.159634048,5.694352179,-0.182015373,-0.118097284,31.50783497,120.4020116,12.55206227,28.78492,-1.40003,0.2232,31.50783503,120.4020116,12.55319224,-0.064294876,0.030254128,-0.147135433
1573525422,31.50782192,120.4020107,12.3512,-2.380238851,1.587679005,178.6258169,-29.54799842,1.118086391,-0.004431187,29.51528,-1.47113,0.2279,-3.698991947,1.754203246,-8.355328172,5.512534782,0.269652463,0.220880688,30.22352707,-1.623482293,0.021201187,-2.380238851,-1.587679005,-4.078557458,5.736727416,-0.171897405,-0.132647337,31.50782841,120.4020116,12.55789553,,,,,,,,,
1573525422,31.50781518,120.4020106,12.3553,-2.403503962,1.528447646,178.546503,-30.29531919,1.113336742,-0.008527668,30.26415,-1.54403,0.22769,-3.654734705,1.793943179,-8.2891723,5.548842271,0.273920774,0.210390062,30.96701481,-1.69922437,0.025297668,-2.403503962,-1.528447646,-3.99924359,5.747331669,-0.168708219,-0.129032127,31.50782162,120.4020115,12.55768899,30.29156,-1.55078,0.22504,31.50782137,120.4020115,12.55503912,-0.0621573,0.031528119,-0.14467022
1573525422,31.5078079,120.4020106,12.3601,-2.440169675,1.571195623,178.4190248,-31.10251432,1.11048699,-0.013323768,31.03344,-1.62013,0.22813,-3.607850815,1.792577702,-8.180231277,5.587221429,0.266675615,0.219871537,31.77028652,-1.77876469,0.030093768,-2.440169675,-1.571195623,-3.871765409,5.780796819,-0.172650066,-0.126714753,31.50781465,120.4020115,12.55813263,,,,,,,,,
1573525422,31.50780111,120.4020106,12.3657,-2.453854955,1.614446585,178.3032972,-31.85537901,1.10858718,-0.018920037,31.83256,-1.69968,0.22784,-3.536552535,1.801862455,-8.076960177,5.650671244,0.260824732,0.229557007,32.51956391,-1.852196634,0.035690037,-2.453854955,-1.614446585,-3.756037788,5.783390782,-0.174450213,-0.132279237,31.50780741,120.4020115,12.55784652,,,,,,,,,
1573525422,31.50779429,120.4020106,12.37,-2.490930978,1.645199358,178.1643873,-32.61157006,1.108587261,-0.023216201,32.61444,-1.76814,0.22696,-3.532712749,1.760803261,-7.959468776,5.708755535,0.283341242,0.210292304,33.27233313,-1.924053369,0.039986201,-2.490930978,-1.645199358,-3.6171279,5.833500056,-0.171677192,-0.146938538,31.50780033,120.4020115,12.55697042,32.5342,-1.75705,0.23392,31.50780106,120.4020116,12.56393001,-0.063200903,0.029303606,-0.138839004
1573525422,31.50778808,120.4020111,12.4286,-2.530647352,1.718869934,177.8871149,-33.30012552,1.159884445,-0.081812619,33.28548,-1.82106,0.23679,-3.643151722,1.668357268,-7.802104398,5.645663847,0.296582637,0.218731126,33.96264733,-1.938418076,0.098582619,-2.530647352,-1.718869934,-3.339855481,5.831191485,-0.164073509,-0.132038484,31.50779426,120.4020117,12.56680384,,,,,,,,,
1573525423,31.50778069,120.4020112,12.4368,-2.567572953,1.67913847,177.6809249,-34.11951731,1.167484109,-0.090008271,34.0149,-1.87202,0.23866,-3.703873575,1.655603821,-7.638285487,5.65282528,0.308381507,0.224094316,34.77905345,-2.008715247,0.106778271,-2.567572953,-1.67913847,-3.133665464,5.859734553,-0.159631843,-0.113814837,31.50778767,120.4020119,12.56867764,,,,,,,,,
1573525423,31.5077738,120.4020113,12.445,-2.616866756,1.660836154,177.4170227,-34.88346987,1.178883555,-0.098204119,34.76962,-1.92103,0.24211,-3.810426828,1.69162867,-7.406933409,5.67275328,0.333341868,0.22275284,35.54063229,-2.069961737,0.114974119,-2.616866756,-1.660836154,-2.869763303,5.880900721,-0.163529835,-0.128997959,31.50778085,120.4020121,12.57213166,34.76648,-1.91753,0.24084,31.50778088,120.4020121,12.57086164,-0.066829844,0.029559619,-0.129402476
1573525423,31.50776636,120.4020115,12.451,-2.587703779,1.653538203,177.0620717,-35.70840557,1.195032739,-0.104199534,35.52369,-1.96674,0.24331,-3.813502049,1.711484546,-7.10665063,5.687897881,0.33911591,0.205659281,36.36336966,-2.132274884,0.120969534,-2.587703779,-1.653538203,-2.514812305,5.907812814,-0.170617828,-0.131662933,31.50777404,120.4020124,12.57333576,,,,,,,,,
1573525423,31.50775941,120.4020117,12.4576,-2.590306421,1.541623528,176.6746349,-36.47901083,1.215931655,-0.110795152,36.30414,-2.01728,0.24441,-3.746346819,1.822166969,-6.754273865,5.742743442,0.366734031,0.226653418,37.13247378,-2.18469706,0.127565152,-2.590306421,-1.541623528,-2.127375541,5.932874427,-0.14496774,-0.113218989,31.50776699,120.4020126,12.5744401,36.32171,-2.01781,0.24298,31.50776683,120.4020126,12.5730102,-0.065243814,0.032067242,-0.11803053
1573525423,31.50775246,120.402012,12.4647,-2.606841371,1.496293512,176.2053136,-37.24961609,1.244430146,-0.117890676,37.09052,-2.05294,0.24627,-3.751690708,1.917737937,-6.303911323,5.753169148,0.394268922,0.256584305,37.90230005,-2.229554049,0.134660676,-2.606841371,-1.496293512,-1.658054157,5.925153009,-0.132146129,-0.109277821,31.5077599,120.402013,12.57630457,,,,,,,,,
1573525423,31.50774496,120.4020124,12.4703,-2.650148184,1.503760565,175.5851297,-38.0812045,1.284328011,-0.123485736,37.91299,-2.08748,0.24272,-3.683243614,1.958536885,-5.779258734,5.828694187,0.413424537,0.231138214,38.73391673,-2.268858152,0.140255736,-2.650148184,-1.503760565,-1.037870333,5.971159427,-0.130914668,-0.131335216,31.50775249,120.4020135,12.57275934,37.9439,-2.09463,0.23901,31.5077522,120.4020135,12.56904953,-0.063089148,0.034702671,-0.100901008
1573525423,31.50773925,120.4020124,12.4383,-2.65662238,1.467590185,175.0122562,-38.71432025,1.283378134,-0.091481908,38.72968,-2.11161,0.23782,-3.626952084,2.060399254,-5.098491046,5.882809003,0.426400265,0.224455663,39.36407732,-2.329965356,0.108251908,-2.65662238,-1.467590185,-0.464996761,5.954236506,-0.125549398,-0.142313724,31.50774513,120.4020141,12.56786419,38.83615,-2.13457,0.22505,31.50774416,120.4020139,12.55509483,-0.060324342,0.037808835,-0.089184918
1573525424,31.50773173,120.402013,12.4423,-2.687573792,1.40153036,174.1873591,-39.5481262,1.34322489,-0.095476761,39.63704,-2.14207,0.2229,-3.492414263,2.216959274,-4.35481716,6.007695579,0.427603332,0.252485283,40.19979715,-2.349621559,0.112246761,-2.687573792,-1.40153036,0.359900321,5.98450297,-0.136183827,-0.107608483,31.50773696,120.4020147,12.55294969,39.71439,-2.15777,0.21273,31.50773625,120.4020146,12.54278017,-0.059083688,0.040024185,-0.07602828
1573525424,31.50772419,120.4020138,12.4476,-2.625866598,1.303040121,173.2372101,-40.38414973,1.415420969,-0.100771485,40.52903,-2.1561,0.21119,-3.326500588,2.403015425,-3.474686504,6.103388171,0.41685819,0.254303283,41.03889801,-2.357195047,0.117541485,-2.625866598,-1.303040121,1.310049278,5.990906026,-0.132781059,-0.129987202,31.50772894,120.4020154,12.54124523,40.56484,-2.1645,0.20538,31.50772861,120.4020153,12.53543546,-0.056758693,0.042577314,-0.060734948
1573525424,31.50771719,120.4020147,12.4473,-2.650845063,1.326664808,172.3060755,-41.16029886,1.497116519,-0.100466486,41.38491,-2.14856,0.19936,-3.217324808,2.460116856,-2.559778769,6.143531996,0.453477469,0.242607523,41.81929809,-2.349622502,0.117236486,-2.650845063,-1.326664808,2.241183943,6.016805544,-0.112468336,-0.149004244,31.50772126,120.4020163,12.52942065,41.40546,-2.15561,0.19768,31.50772107,120.4020163,12.52774078,-0.055312309,0.042955843,-0.044658591
1573525424,31.50771018,120.4020157,12.4477,-2.715996809,1.253236549,171.2959634,-41.93755677,1.594011236,-0.100861379,42.2321,-2.12386,0.19121,-3.227809345,2.501744246,-1.548566635,6.206110851,0.447334172,0.252139083,42.60224624,-2.327024931,0.117631379,-2.715996809,-1.253236549,3.251295963,6.035857335,-0.115196759,-0.124739667,31.50771368,120.4020174,12.52127612,42.22426,-2.13289,0.18811,31.50771374,120.4020173,12.51817608,-0.055429354,0.043214417,-0.027054825
1573525424,31.50770313,120.4020168,12.4493,-2.65860692,1.095777534,170.2312071,-42.71924983,1.703255279,-0.102456143,43.05433,-2.08821,0.18063,-3.154356437,2.617860308,-0.481449261,6.24185633,0.423161505,0.234252595,43.39078295,-2.292555363,0.119226143,-2.65860692,-1.095777534,4.316052319,6.07907698,-0.140395263,-0.123220963,31.50770633,120.4020186,12.51070154,43.01949,-2.09254,0.18271,31.50770663,120.4020186,12.51278131,-0.054501543,0.044337947,-0.008173023
1573525424,31.50769557,120.4020182,12.4485,-2.567822279,1.076482579,168.9778388,-43.55749087,1.83624803,-0.101650414,43.8467,-2.03402,0.17274,-3.004405479,2.658659956,0.703095101,6.194523725,0.421153559,0.248375867,44.23786848,-2.239818006,0.118420414,-2.567822279,-1.076482579,5.569420555,6.049521467,-0.120747845,-0.120703989,31.50769926,120.40202,12.50281685,43.81612,-2.0332,0.17738,31.50769953,120.40202,12.50745664,-0.052502692,0.045739782,0.012167002
1573525424,31.5076886,120.4020198,12.4492,-2.618852728,1.206834609,167.7869961,-44.33031364,1.98064016,-0.102345025,44.63509,-1.95401,0.17311,-2.999425141,2.48030249,1.894643404,6.149691425,0.455192123,0.272958935,45.02091497,-2.169516503,0.119115025,-2.618852728,-1.206834609,6.760263259,6.048744121,-0.102344835,-0.123428244,31.50769225,120.4020216,12.50319223,44.57951,-1.94937,0.17835,31.50769275,120.4020216,12.50843184,-0.052700419,0.042478303,0.033201604
1573525424,31.50768176,120.4020214,12.4505,-2.602154106,1.489647237,166.3616545,-45.0887222,2.136431675,-0.103639637,45.39067,-1.85,0.17659,-3.012334641,2.222870286,3.195838067,6.11737287,0.448773243,0.234568637,45.79069571,-2.086497492,0.120409637,-2.602154106,-1.489647237,8.185604931,6.05016931,-0.129676643,-0.175708038,31.50768555,120.4020235,12.50667747,45.39994,-1.85307,0.17408,31.50768547,120.4020234,12.50416753,-0.051671087,0.038891724,0.055812417
1573525425,31.50767484,120.4020233,12.4504,-2.529525595,1.642300145,164.916102,-45.85600103,2.315021957,-0.103534084,46.21241,-1.73604,0.16836,-2.822717848,2.024346874,4.631183421,6.158305853,0.470159913,0.201405889,46.57147302,-1.981625775,0.120304084,-2.529525595,-1.642300145,9.631157372,6.081333269,-0.108814377,-0.159710325,31.50767827,120.4020255,12.49845327,46.18478,-1.73354,0.17364,31.50767852,120.4020255,12.50373307,-0.0495394,0.03400073,0.080816741
1573525425,31.50766791,120.4020254,12.4555,-2.489753907,1.500848939,163.3570252,-46.62438866,2.518310899,-0.108628413,46.99636,-1.58904,0.16976,-2.791744077,2.01634694,6.185944164,6.190228964,0.513128875,0.213393047,47.3557011,-1.852272525,0.125398413,-2.489753907,-1.500848939,11.19023418,6.130534201,-0.092399177,-0.121638507,31.50767136,120.4020278,12.49985889,46.93514,-1.58477,0.17794,31.50767192,120.4020278,12.50803844,-0.050423514,0.034199085,0.107841439
1573525425,31.50766103,120.4020278,12.4601,-2.507829974,1.372557708,161.7124303,-47.38723236,2.745348562,-0.113222674,47.7382,-1.41285,0.17485,-2.8997731,2.151707128,7.825807992,6.126154743,0.541778698,0.238742355,48.13666705,-1.698751209,0.129992674,-2.507829974,-1.372557708,12.83482914,6.111783186,-0.100510514,-0.11954317,31.50766485,120.4020304,12.50495429,47.70348,-1.40849,0.18033,31.50766517,120.4020304,12.51043404,-0.051877968,0.036936691,0.136479886
1573525425,31.5076537,120.4020306,12.4631,-2.472896544,1.342315384,159.8780461,-48.19997133,3.012284072,-0.116216441,48.49539,-1.21262,0.17786,-2.931163311,2.145094718,9.544469704,6.095198615,0.549983595,0.238908718,48.97109378,-1.51025387,0.132986441,-2.472896544,-1.342315384,14.66921327,6.109222099,-0.099226176,-0.123141235,31.50765823,120.4020333,12.5079699,48.48033,-1.21029,0.17949,31.50765836,120.4020333,12.50959979,-0.052238783,0.037524603,0.166402093
1573525425,31.50764028,120.4020366,12.4644,-2.480384221,1.330103479,156.3060524,-49.68795993,3.583203138,-0.117504682,50.07664,-0.73602,0.17218,-3.021854355,2.217988447,13.1165497,6.140665177,0.575037406,0.219203412,50.50660051,-1.083313909,0.134274682,-2.480384221,-1.330103479,18.24120701,6.142033825,-0.090522881,-0.144062863,31.50764444,120.4020398,12.50230191,50.07039,-0.73303,0.17219,31.5076445,120.4020399,12.50231186,-0.054028689,0.038606855,0.228547031
1573525425,31.50763399,120.4020406,12.4876,-2.471851431,1.170696112,154.6324279,-50.38538542,3.957482854,-0.140698966,50.8468,-0.45752,0.166,-3.060624733,2.343535582,14.93134169,6.1617521,0.584615023,0.243939944,51.2364359,-0.777000477,0.157468966,-2.471851431,-1.170696112,19.91483146,6.171472724,-0.062874428,-0.108224239,31.50763776,120.4020435,12.49612792,50.86629,-0.45416,0.16385,31.50763759,120.4020436,12.49397807,-0.053959706,0.041268899,0.260339408
1573525426,31.50762698,120.4020445,12.4893,-2.536020113,1.117541385,152.6784038,-51.1626432,4.332712589,-0.142392512,51.63662,-0.15112,0.15878,-3.121918651,2.467052756,16.76229228,6.1709683,0.597060905,0.263429681,52.04583262,-0.477327365,0.159162512,-2.536020113,-1.117541385,21.86885558,6.150713155,-0.050547032,-0.120537792,31.50763093,120.4020475,12.48891418,51.62296,-0.1469,0.16051,31.50763106,120.4020475,12.49064407,-0.055684061,0.043315869,0.292549889
1573525426,31.5076206,120.4020484,12.4893,-2.519566129,1.311051009,150.8644477,-51.87004754,4.70224266,-0.142386514,52.37882,0.18013,0.15678,-3.197125843,2.351312241,18.6101966,6.141423082,0.580047527,0.257882847,52.78515037,-0.176690323,0.159156514,-2.519566129,-1.311051009,23.68281171,6.132095122,-0.081612513,-0.137158577,31.50762455,120.4020517,12.48692017,52.35757,0.18583,0.16256,31.50762475,120.4020518,12.4927,-0.056972227,0.040074355,0.3247961
1573525426,31.50761383,120.4020528,12.4899,-2.503376843,1.467450337,148.8313556,-52.62069444,5.124969895,-0.142980016,53.10158,0.53732,0.15962,-3.176469651,2.124681476,20.52318951,6.170304784,0.616778193,0.232488911,53.57257005,0.172794052,0.159750016,-2.503376843,-1.467450337,25.71590383,6.174593623,-0.063100384,-0.157082006,31.50761837,120.4020562,12.4897661,,,,,,,,,
1573525426,31.5076072,120.4020576,12.4902,-2.564743389,1.424722724,146.8287246,-53.35581832,5.578095523,-0.143273504,53.85647,0.92197,0.15333,-3.19007595,2.153662982,22.40968017,6.182083986,0.636405966,0.224386632,54.34742555,0.554014332,0.160043504,-2.564743389,-1.424722724,27.71853477,6.156038509,-0.031813548,-0.145574853,31.50761192,120.402061,12.48348241,53.86451,0.92734,0.15519,31.50761186,120.402061,12.48534248,-0.056161327,0.037211724,0.391002522
1573525426,31.50760166,120.4020619,12.494,-2.602892439,1.283303573,145.0439731,-53.97008472,5.985623636,-0.147067946,54.58629,1.33551,0.15158,-3.314090972,2.255961997,24.34102813,6.187080356,0.632330315,0.2612524,54.99763758,0.901327875,0.163837946,-2.602892439,-1.283303573,29.50328634,6.132642692,-0.075621679,-0.091897883,31.50760573,120.402066,12.48173863,54.60994,1.3334,0.1433,31.50760551,120.402066,12.47345883,-0.057632897,0.041208947,0.424751607
1573525426,31.50759536,120.4020671,12.4985,-2.481195797,1.235178392,142.9257354,-54.66861868,6.478647193,-0.151561492,55.32062,1.76092,0.13997,-3.185505347,2.506924538,26.34106971,6.159552618,0.592434694,0.272139614,55.73986002,1.325742489,0.168331492,-2.481195797,-1.235178392,31.62152404,6.071614717,-0.082515482,-0.129904639,31.5075995,120.4020712,12.47013499,55.34824,1.76006,0.13293,31.50759925,120.4020713,12.46309523,-0.055277234,0.04468599,0.459743685
1573525426,31.50758971,120.4020721,12.4987,-2.344328922,1.46687146,140.9360527,-55.29508161,6.955521643,-0.151755569,56.04159,2.20747,0.12708,-2.953971612,2.398359964,28.36407844,6.149035391,0.588683853,0.24894807,56.408803,1.7409296,0.168525569,-2.344328922,-1.46687146,33.61120673,6.053729011,-0.055361237,-0.150107629,31.50759341,120.4020766,12.45725137,,,,,,,,,
1573525426,31.50758428,120.402078,12.4986,-2.51668723,1.375312135,139.2024897,-55.89715119,7.516941538,-0.151649663,56.72028,2.68658,0.12583,-3.050252321,2.379130628,30.40082772,6.172472176,0.646379254,0.242287175,57.06149691,2.242597551,0.168419663,-2.51668723,-1.375312135,35.34476973,6.082006651,0.024052426,-0.140597023,31.50758772,120.4020823,12.45600749,56.70408,2.67432,0.12663,31.50758786,120.4020822,12.45680734,-0.051071294,0.041314728,0.530837948
1573525427,31.50757856,120.402084,12.4994,-2.572444984,1.278349688,137.0198142,-56.53137549,8.085011164,-0.152443356,57.35907,3.17369,0.11944,-2.996977657,2.492744237,32.46138169,6.135584011,0.604528,0.247393099,57.74683193,2.74782965,0.169213356,-2.572444984,-1.278349688,37.52744524,6.066958745,-0.032859853,-0.122079023,31.50758241,120.4020881,12.44962337,,,,,,,,,
1573525427,31.5075734,120.4020897,12.5013,-2.382913137,1.320190949,134.9840938,-57.10350786,8.628382146,-0.154337528,58.00824,3.68686,0.11028,-2.787481033,2.559521268,34.54686425,6.141484989,0.551559694,0.268523352,58.36800901,3.234375135,0.171107528,-2.382913137,-1.320190949,39.5631656,6.067460908,-0.031706068,-0.120446128,31.50757702,120.4020941,12.44046946,57.99979,3.6866,0.11323,31.50757709,120.4020941,12.44341938,-0.048652801,0.044191633,0.602987276
1573525427,31.50756843,120.4020957,12.5047,-2.35650598,1.536690873,132.94658,-57.65457328,9.196451834,-0.157731758,58.62173,4.22701,0.1116,-2.689109825,2.363298038,36.63024709,6.147012217,0.582346286,0.274570061,58.97056146,3.747509441,0.174501758,-2.35650598,-1.536690873,41.60067936,6.092833248,-0.001002318,-0.143005639,31.50757197,120.4021004,12.44179535,,,,,,,,,
1573525427,31.50756364,120.402102,12.505,-2.40208275,1.724450771,130.8330767,-58.18568051,9.789220226,-0.158026034,59.21172,4.79542,0.1168,-2.641699585,2.082497322,38.76076161,6.22025771,0.618783269,0.235581096,59.55559301,4.287127209,0.174796034,-2.40208275,-1.724450771,43.71418268,6.168956887,0.013610246,-0.17880904,31.50756716,120.4021069,12.44700115,59.21698,4.80199,0.11586,31.50756712,120.402107,12.4460612,-0.047245863,0.036426684,0.676404804
1573525427,31.50755859,120.402109,12.5077,-2.378399573,1.767468934,128.5403404,-58.74561604,10.45893455,-0.160719819,59.80724,5.40186,0.11216,-2.708781561,2.01572696,40.93816691,6.341001065,0.586712137,0.216934273,60.17663418,4.90060332,0.177489819,-2.378399573,-1.767468934,46.00691901,6.301811773,-0.023338625,-0.164656602,31.50756234,120.4021139,12.44236714,,,,,,,,,
1573525427,31.50755404,120.4021159,12.513,-2.338380333,1.657124123,126.4362326,-59.25011235,11.11154981,-0.166014033,60.36651,6.02516,0.11627,-2.577155128,2.078171172,43.07431808,6.426333242,0.602743497,0.240974375,60.74086216,5.502325844,0.182784033,-2.338380333,-1.657124123,48.11102675,6.400673047,-0.01625784,-0.143939268,31.50755785,120.402121,12.44648291,60.33458,6.00587,0.12273,31.50755812,120.4021207,12.45294259,-0.043200939,0.035653948,0.751767669
1573525427,31.50754949,120.402124,12.5304,-2.392475163,1.56270809,124.3611321,-59.75460859,11.8876585,-0.183407908,60.89254,6.66388,0.12168,-2.452044787,2.135639039,45.19886909,6.477371995,0.617163402,0.257972333,61.316825,6.226982977,0.200177908,-2.392475163,-1.56270809,50.18612729,6.514553634,0.027838242,-0.15549018,31.50755367,120.4021282,12.4518985,,,,,,,,,
1573525428,31.50754527,120.4021316,12.5315,-2.577792653,1.643333039,122.3871377,-60.2225148,12.60487036,-0.184502115,61.46215,7.37696,0.12861,-2.57908038,2.009598031,47.22907078,6.6137554,0.628332086,0.253693273,61.85076673,6.896486757,0.201272115,-2.577792653,-1.643333039,52.16012169,6.661230417,0.032695528,-0.184220573,31.50754917,120.4021362,12.45883469,61.46983,7.38471,0.12965,31.50754911,120.4021363,12.45987477,-0.045564122,0.035464967,0.824202879
1573525428,31.50754116,120.4021395,12.5318,-2.803191451,1.51586449,120.6366641,-60.67822429,13.35248064,-0.184796257,62.00396,8.10608,0.12709,-2.842827506,2.075296978,49.07095545,6.772258865,0.577541265,0.240351156,62.37545552,7.597410384,0.201566257,-2.803191451,-1.51586449,53.91059525,6.814720759,-0.005175632,-0.184413005,31.50754493,120.4021444,12.45732077,,,,,,,,,
1573525428,31.50753676,120.4021483,12.5312,-2.89176389,1.278389805,119.105807,-61.16608835,14.18748632,-0.184189779,62.53461,8.83924,0.11615,-2.941585443,2.245049162,50.59521766,6.898100175,0.4689193,0.219505474,62.94045811,8.382278462,0.200959779,-2.89176389,-1.278389805,55.44145244,6.990938577,-0.08649565,-0.161277682,31.5075408,120.4021526,12.44638687,62.52748,8.83535,0.12247,31.50754086,120.4021526,12.4527068,-0.050601428,0.038077869,0.882944291
1573525428,31.50753241,120.4021573,12.5307,-2.791473248,1.033258191,117.797649,-61.64840838,15.04909063,-0.183683144,63.0613,9.59601,0.11251,-2.782243517,2.46154002,51.88894907,7.00826556,0.42119824,0.256651605,63.50246928,9.194151638,0.200453144,-2.791473248,-1.033258191,56.74961037,7.103718979,-0.099359475,-0.143131019,31.50753672,120.4021611,12.4427531,,,,,,,,,
1573525428,31.50752875,120.4021653,12.5272,-2.819706072,0.997843836,116.8407915,-62.05422234,15.80715047,-0.18017736,63.58137,10.37574,0.1161,-2.740193632,2.460741302,52.97997224,7.079272243,0.411597172,0.268480818,63.9784813,9.910218848,0.19694736,-2.819706072,-0.997843836,57.70646789,7.217876264,-0.096062969,-0.176963722,31.50753271,120.4021698,12.44634944,63.5699,10.37603,0.13248,31.50753282,120.4021698,12.46272932,-0.047041925,0.041062253,0.924754109
1573525428,31.50752453,120.4021748,12.52,-2.826833363,1.12345544,115.8703844,-62.5221279,16.71245255,-0.172970467,64.08995,11.17228,0.12607,-2.717824551,2.256945623,53.91741105,7.187365137,0.384782767,0.237427444,64.53029559,10.76696178,0.189740467,-2.826833363,-1.12345544,58.67687501,7.359578576,-0.136610784,-0.205022201,31.50752883,120.4021786,12.45632582,64.11416,11.20472,0.13068,31.50752864,120.402179,12.46093612,-0.048500254,0.038756998,0.940771361
1573525428,31.50752061,120.402184,12.5142,-2.768912316,1.063956682,115.0679461,-62.95676993,17.57880674,-0.167163848,64.63991,12.02513,0.12221,-2.7120404,2.208577504,54.74929457,7.373433808,0.366397093,0.246104957,65.04529586,11.58809393,0.183933848,-2.768912316,-1.063956682,59.47931328,7.517570511,-0.147909329,-0.182978943,31.50752462,120.4021881,12.45247287,,,,,,,,,
1573525428,31.50751692,120.4021933,12.5189,-2.797674166,0.979802146,114.4622309,-63.36590991,18.46510993,-0.171857277,65.14669,12.8454,0.12308,-2.682225901,2.247012535,55.39302704,7.448599427,0.351621238,0.272632668,65.53680513,12.43150812,0.188627277,-2.797674166,-0.979802146,60.08502854,7.639509163,-0.148100352,-0.163080944,31.50752078,120.4021972,12.45334957,65.12371,12.82462,0.12606,31.50752097,120.402197,12.4563293,-0.046298661,0.038562592,0.96678895
1573525429,31.50751272,120.4022035,12.5137,-2.807153071,1.019797252,114.0128147,-63.83159756,19.43785862,-0.166649729,65.64722,13.67284,0.1209,-2.691474205,2.213674447,55.83568843,7.515651227,0.313269749,0.25822861,66.09282065,13.35560322,0.183419729,-2.807153071,-1.019797252,60.53444467,7.763534581,-0.190297016,-0.193355285,31.50751699,120.4022064,12.45117638,,,,,,,,,
1573525429,31.50750878,120.4022132,12.5082,-2.749367137,1.024970739,113.7335123,-64.26845683,20.35836014,-0.161142455,66.18965,14.55145,0.11142,-2.67344559,2.155496724,56.16817688,7.655887627,0.275508002,0.241525651,66.61517345,14.23042698,0.177912455,-2.749367137,-1.024970739,60.81374712,7.896422933,-0.208051416,-0.183270753,31.50751288,120.4022161,12.44170387,66.18584,14.54061,0.1099,31.5075129,120.402216,12.44018381,-0.046626667,0.037983273,0.980177621
1573525429,31.50750481,120.4022231,12.5048,-2.680366586,1.080437834,113.5483311,-64.70864235,21.29501089,-0.157734931,66.72542,15.41518,0.1032,-2.593893332,2.182802615,56.35362766,7.752385901,0.265129774,0.264705161,67.14237204,15.12101081,0.174504931,-2.680366586,-1.080437834,60.9989283,8.02086974,-0.206408409,-0.190735508,31.50750881,120.4022257,12.43349143,66.70839,15.38821,0.10277,31.50750894,120.4022254,12.43306119,-0.044594156,0.037709849,0.983523724
1573525429,31.50750049,120.4022339,12.5008,-2.605677225,1.085726033,113.3931834,-65.18763505,22.32000707,-0.153726533,67.25208,16.27198,0.09646,-2.471973633,2.121969649,56.49718194,7.830206718,0.24875531,0.249262567,67.7165972,16.09585267,0.170496533,-2.605677225,-1.085726033,61.15407603,8.131416259,-0.214018941,-0.19784502,31.50750481,120.4022352,12.42675903,,,,,,,,,
1573525429,31.50749644,120.402244,12.4969,-2.514173751,1.130254327,113.2753875,-65.6366906,23.28800632,-0.14981845,67.82152,17.19794,0.08726,-2.438077544,2.098621827,56.62548435,7.979896819,0.243994361,0.250618477,68.25560456,17.01680028,0.16658845,-2.514173751,-1.130254327,61.27187185,8.277448112,-0.218334612,-0.191272826,31.50750049,120.4022455,12.41756744,67.83451,17.2267,0.08706,31.5075004,120.4022458,12.41736765,-0.043221799,0.036441089,0.988230587
1573525429,31.50749201,120.4022552,12.4933,-2.445751608,1.022687711,113.1702562,-66.12787965,24.35005074,-0.146209394,68.39668,18.14524,0.0794,-2.405338381,2.175022697,56.71834944,8.146332647,0.252646281,0.246431286,68.84549137,18.02736378,0.162979394,-2.445751608,-1.022687711,61.37700322,8.425507235,-0.216072497,-0.198712879,31.50749614,120.402256,12.40971615,68.42838,18.21085,0.0816,31.50749591,120.4022567,12.41191667,-0.043665782,0.037959163,0.989846688
1573525429,31.50748828,120.402265,12.4652,-2.392892921,0.837242601,113.1332739,-66.54145375,25.27530227,-0.118101481,69.00211,19.15333,0.07084,-2.473570652,2.34489955,56.76487154,8.322459307,0.263462743,0.272685054,69.34511575,18.90912871,0.134871481,-2.392892921,-0.837242601,61.4139855,8.511364784,-0.234205298,-0.166709665,31.50749157,120.4022672,12.40116555,,,,,,,,,
1573525430,31.50748376,120.4022764,12.4596,-2.275525628,0.845266021,113.0830833,-67.04262156,26.36394546,-0.112491809,69.60365,20.15107,0.06099,-2.424517163,2.420346649,56.8150596,8.43985837,0.261127469,0.301314025,69.94746372,19.94522239,0.129261809,-2.275525628,-0.845266021,61.46417607,8.592657502,-0.229589315,-0.18894447,31.50748702,120.4022782,12.3913251,69.58723,20.13728,0.06568,31.50748716,120.4022781,12.39601488,-0.042092382,0.041437115,0.99153258
1573525430,31.50747921,120.402288,12.4515,-2.230565361,1.066732569,113.0377793,-67.54711555,27.46588805,-0.10438182,70.17181,21.10248,0.0576,-2.341306418,2.195177678,56.84632861,8.50746304,0.279875873,0.276836587,70.55438658,20.99423922,0.12115182,-2.230565361,-1.066732569,61.5094801,8.721133911,-0.218591999,-0.221272949,31.50748274,120.4022888,12.38794435,,,,,,,,,
1573525430,31.50747493,120.402299,12.4465,-2.148455256,1.024325485,112.9980138,-68.02167245,28.50513401,-0.099372198,70.77068,22.09181,0.04706,-2.288209009,2.169957593,56.87703918,8.662369396,0.282013329,0.269460237,71.12555008,21.98368788,0.116142198,-2.148455256,-1.024325485,61.54924563,8.846835494,-0.244015374,-0.192866758,31.50747821,120.4022997,12.37741425,70.79372,22.13132,0.04546,31.50747804,120.4023002,12.37581465,-0.040762736,0.038113821,0.992645384
1573525430,31.50747026,120.4023109,12.4435,-2.03156104,0.908776669,112.9597822,-68.53947159,29.63937515,-0.096361469,71.39932,23.13137,0.03683,-2.22514077,2.278738228,56.9069482,8.802669255,0.284294276,0.308488668,71.74878704,23.06359278,0.113131469,-2.03156104,-0.908776669,61.58747718,8.947420814,-0.22489624,-0.169609887,31.50747346,120.4023113,12.36719488,71.4182,23.17268,0.03558,31.50747332,120.4023117,12.36594524,-0.039686324,0.039755867,0.99325126
1573525430,31.50746591,120.4023221,12.4386,-1.996292972,1.165267928,112.9047173,-69.02178969,30.70237007,-0.091451223,72.02983,24.18848,0.02945,-2.204940649,2.185434586,56.94291184,8.913689668,0.300529251,0.306015824,72.32993337,24.07594544,0.108221223,-1.996292972,-1.165267928,61.64254213,9.022522836,-0.226673454,-0.233769967,31.5074687,120.402323,12.35982583,,,,,,,,,
1573525430,31.5074615,120.4023335,12.4341,-1.958835808,1.148363373,112.8577251,-69.51076034,31.7805643,-0.086940616,72.65429,25.23616,0.02548,-2.187456169,2.065353084,56.99677397,9.070544391,0.31176265,0.279293804,72.91914646,25.10279646,0.103710616,-1.958835808,-1.148363373,61.68953429,9.175250406,-0.228485432,-0.213460666,31.50746399,120.4023346,12.35586691,72.64709,25.22512,0.02865,31.50746405,120.4023345,12.35903678,-0.037724012,0.036047069,0.994645882
1573525430,31.50745704,120.402345,12.4329,-1.841831791,1.033025533,112.8194253,-70.0052748,32.87395786,-0.085729649,73.27364,26.26876,0.02173,-2.075776087,2.215400649,57.0222337,9.174623935,0.297466093,0.314986447,73.51532258,26.14425125,0.102499649,-1.841831791,-1.033025533,61.72783406,9.270955659,-0.246297499,-0.182982561,31.50745932,120.402346,12.3521281,,,,,,,,,
1573525430,31.50745302,120.4023587,12.4449,-1.807068476,0.877038974,112.8031065,-70.45100207,34.18014016,-0.09771786,73.92102,27.34958,0.01428,-2.009862615,2.360304507,57.04822588,9.282522918,0.317375878,0.332504064,74.08315246,27.40216788,0.11448786,-1.807068476,-0.877038974,61.74415289,9.371094788,-0.195236389,-0.190312594,31.50745443,120.402358,12.34469005,73.93625,27.38136,0.01316,31.50745432,120.4023583,12.34357036,-0.035588582,0.041264711,0.995578211
1573525431,31.50744851,120.4023705,12.4385,-1.727959705,1.025387919,112.7442633,-70.95106005,35.29823262,-0.091306213,74.57731,28.45325,0.00416,-1.959805168,2.329077958,57.09023189,9.399648009,0.321718077,0.323490661,74.68719402,28.46768302,0.108076213,-1.727959705,-1.025387919,61.80299609,9.477033652,-0.216235619,-0.221851409,31.50744948,120.4023702,12.33458245,74.64679,28.56745,-0.00921,31.50744896,120.4023715,12.32121377,-0.036040677,0.04112722,0.996484705
1573525431,31.50744396,120.4023824,12.4336,-1.578974564,0.986497571,112.7048093,-71.45555303,36.42867455,-0.086394206,75.30378,29.66404,-0.01948,-1.921958567,2.325588677,57.14338917,9.623180219,0.311390682,0.334618324,75.29682401,29.54507032,0.103164206,-1.578974564,-0.986497571,61.84245013,9.54393428,-0.213727668,-0.196307796,31.507444,120.4023836,12.31095643,75.34014,29.72713,-0.0245,31.50744373,120.4023843,12.30593715,-0.034528801,0.041168638,0.99725759
1573525431,31.50743903,120.4023953,12.43,-1.445609489,1.157664361,112.6688295,-72.00217934,37.65696159,-0.082780908,76.00729,30.84195,-0.03205,-1.84388856,2.255039496,57.16962199,9.783621799,0.327512707,0.347391826,75.95769439,30.71585626,0.099550908,-1.445609489,-1.157664361,61.87842987,9.665703851,-0.215123732,-0.224025829,31.50743869,120.4023967,12.29840029,,,,,,,,,
1573525431,31.5074344,120.4024075,12.4279,-1.28072843,1.198473313,112.638255,-72.51554228,38.81115254,-0.080668156,76.67724,31.96133,-0.04037,-1.663671172,2.199348692,57.20050878,9.886154624,0.323749848,0.332993411,76.57841094,31.81604225,0.097438156,-1.28072843,-1.198473313,61.90900445,9.756275569,-0.212338911,-0.213605155,31.50743364,120.4024091,12.29009375,76.67685,31.96109,-0.04029,31.50743364,120.4024091,12.29017375,-0.029225156,0.038418062,0.998243708
1573525431,31.50742973,120.4024197,12.4276,-1.106305286,1.08042408,112.599897,-73.0333402,39.97674304,-0.080355033,77.35655,33.09976,-0.04753,-1.529241976,2.270391173,57.23132361,9.987456133,0.325162888,0.345001852,77.20462565,32.92715477,0.097125033,-1.106305286,-1.08042408,61.94736236,9.839441696,-0.227049709,-0.195184993,31.50742851,120.4024217,12.28294769,77.2994,33.01453,-0.03924,31.50742895,120.4024207,12.29123656,-0.025535735,0.038902581,0.99880815
1573525431,31.50742468,120.402433,12.4259,-0.941268925,1.162899977,112.5753484,-73.59327139,41.2411286,-0.078640527,77.97768,34.15053,-0.04581,-1.269524051,2.236117094,57.25057076,9.952345718,0.337242733,0.357473632,77.88217095,34.1326116,0.095410527,-0.941268925,-1.162899977,61.97191101,9.917718628,-0.214250758,-0.218273781,31.50742384,120.4024333,12.28468073,77.95046,34.10558,-0.04046,31.50742404,120.4024328,12.29003016,-0.021426691,0.038652479,0.999273938
