time,ins1000_lat,ins1000_lon,ins1000_alt,ins1000_roll,ins1000_pitch,ins1000_yaw,ins1000_ned_x,ins1000_ned_y,ins1000_ned_z,algo_pose_x,algo_pose_y,algo_pose_z,algo_roll,algo_pitch,algo_yaw,algo_vel_x,algo_vel_y,algo_vel_z,align_pose_x,align_pose_y,align_pose_z,align_roll,align_pitch,align_yaw,align_vel_x,align_vel_y,align_vel_z,algo_lat,algo_lon,algo_alt,loop_pose_x,loop_pose_y,loop_pose_z,loop_lat,loop_lon,loop_alt,loop_roll,loop_pitch,loop_yaw
1573538003,31.50770135,120.4017331,12.5314,-0.821363287,0.909844797,-0.969164601,0,0,0,0.63361,-0.01206,-0.00081,1.239277816,0.602900156,0.095908143,0.864264524,-0.009549265,-0.003720422,0.63361,-0.01206,-0.00081,-0.821363287,-0.909844797,1.814781529,0.883794874,-0.023292371,0.002832909,31.50770135,120.4017331,12.53140001,,,,,,,,,
1573538003,31.50770274,120.4017331,12.4954,-0.913419958,0.931812544,-0.992989523,0.154121044,-0.000949946,0.036000003,0.75376,-0.01213,-0.00329,1.156894702,0.577448387,0.12615832,0.966715189,0.006070552,-0.013993369,0.787700239,-0.008835598,-0.036810003,-0.913419958,-0.931812544,1.838606451,0.987692895,-0.017537211,-0.005243228,31.50770243,120.4017332,12.52892001,,,,,,,,,
1573538003,31.50770397,120.4017331,12.4967,-1.016253875,0.896547086,-0.993512942,0.290501538,-0.000949946,0.034700008,0.88862,-0.01264,-0.00775,1.052637074,0.610820791,0.122501603,1.077324078,-4.14E-05,-0.020608933,0.92406588,-0.006822859,-0.035510008,-1.016253875,-0.896547086,1.83912987,1.103756833,-0.020029747,-0.006427552,31.50770365,120.4017332,12.52446001,,,,,,,,,
1573538003,31.50770543,120.4017332,12.4985,-1.072980814,0.850430082,-0.970606012,0.452384074,0.000949947,0.032900018,1.03688,-0.01416,-0.01269,0.969070473,0.678493113,0.126065106,1.185314482,-0.022624371,-0.007892977,1.085958825,-0.00633344,-0.033710018,-1.072980814,-0.850430082,1.81622294,1.221769324,-0.048060266,-0.002634445,31.50770499,120.4017332,12.51952002,,,,,,,,,
1573538004,31.50770693,120.4017332,12.5007,-1.095621429,0.827427945,-0.959094616,0.618701748,0.004749735,0.030700031,1.20139,-0.01707,-0.01722,0.953064004,0.754211157,0.117433537,1.294416514,-0.029158719,-0.004927626,1.252314463,-0.007678255,-0.031510031,-1.095621429,-0.827427945,1.804711544,1.327296947,-0.051631964,-0.005255945,31.50770647,120.4017333,12.51499003,,,,,,,,,
1573538004,31.50770855,120.4017332,12.502,-1.153121669,0.861444706,-0.94839255,0.798324837,0.007599576,0.029400051,1.37631,-0.02087,-0.02273,0.917650834,0.81951921,0.123453361,1.391197381,-0.019322515,-0.008304443,1.431960049,-0.00787686,-0.030210051,-1.153121669,-0.861444706,1.794009478,1.435616662,-0.034638761,-0.011684443,31.50770805,120.4017333,12.50948005,,,,,,,,,
1573538004,31.50771045,120.4017332,12.5041,-1.3708561,0.882850598,-0.927366124,1.008993891,0.007599575,0.02730008,1.56774,-0.0214,-0.03095,0.737816383,0.910251442,0.121604196,1.514673981,0.007943107,-0.016603303,1.642606158,-0.00476775,-0.02811008,-1.3708561,-0.882850598,1.772983052,1.572802871,-0.015850432,-0.008816535,31.50770977,120.4017334,12.50126007,,,,,,,,,
1573538004,31.50771238,120.4017332,12.5058,-1.542191123,0.835945287,-0.90513551,1.222989299,0.008549524,0.025600118,1.77521,-0.02094,-0.03994,0.51688542,1.026161192,0.134123709,1.65138298,-0.020965978,-0.02227086,1.856592281,-0.002559394,-0.026410118,-1.542191123,-0.835945287,1.750752438,1.7157633,-0.051395487,-0.016122712,31.50771164,120.4017334,12.49227011,,,,,,,,,
1573538004,31.50771446,120.4017333,12.5077,-1.575887723,0.790468483,-0.858917416,1.453616475,0.014249206,0.023700167,2.01107,-0.02658,-0.04711,0.441048577,1.111173772,0.102830527,1.784794009,-0.066763111,0.002815921,2.087278456,-0.004854798,-0.024510167,-1.575887723,-0.790468483,1.704534344,1.832507073,-0.099999297,-0.007934545,31.50771377,120.4017335,12.48510015,,,,,,,,,
1573538004,31.50771682,120.4017334,12.4861,-1.553232472,0.883085538,-0.802717958,1.715289611,0.022798729,0.045300233,2.23964,-0.0296,-0.06145,0.491159279,1.341661712,0.057321241,1.903508438,-0.06298696,0.015113759,2.34904927,-0.009541549,-0.046110233,-1.553232472,-0.883085538,1.648334886,1.957698977,-0.084253912,-0.011461393,31.50771583,120.4017336,12.47076021,,,,,,,,,
1573538004,31.50771923,120.4017335,12.488,-1.575998942,0.941166757,-0.73493337,1.982506675,0.030398305,0.04340031,2.50705,-0.03649,-0.06785,0.477861651,1.319001689,-0.001375346,2.077830304,-0.054815637,-0.006425531,2.616349389,-0.013196638,-0.04421031,-1.575998942,-0.941166757,1.580550297,2.145977187,-0.090805701,-0.027760549,31.50771824,120.4017337,12.46436028,,,,,,,,,
1573538004,31.50772185,120.4017336,12.4908,-1.552304088,0.861559311,-0.699280944,2.273008213,0.040847721,0.040600408,2.79739,-0.04325,-0.07617,0.455774595,1.378691477,-0.027750335,2.257286044,-0.078466183,0.004186505,2.906973504,-0.019357617,-0.041410408,-1.552304088,-0.861559311,1.544897872,2.303732319,-0.121651711,-0.004237171,31.50772086,120.4017338,12.45604037,2.78829,-0.03695,-0.0796,31.50772078,120.4017337,12.45261037,0.005193621,0.025622058,-0.000533514
1573538005,31.50772483,120.4017337,12.4955,-1.447315328,0.66881851,-0.581458026,2.603425996,0.054146977,0.035900535,3.09571,-0.04828,-0.08591,0.392759157,1.620740972,-0.104464491,2.363696145,-0.08585583,0.004123629,3.237551575,-0.027779032,-0.036710535,-1.447315328,-0.66881851,1.427074954,2.415238079,-0.11897518,-0.015003286,31.50772355,120.4017339,12.44630048,3.09754,-0.04585,-0.09454,31.50772356,120.4017339,12.43767048,0.002070405,0.032343409,-0.001846759
1573538005,31.50772769,120.4017338,12.4959,-1.538173274,0.565999834,-0.523307904,2.920538362,0.064596391,0.035500672,3.41728,-0.05456,-0.10722,0.099143529,2.020490529,-0.162143739,2.422581324,-0.030662916,-0.013242511,3.55478362,-0.03354728,-0.036310672,-1.538173274,-0.565999834,1.368924832,2.457800397,-0.062601398,-0.036274301,31.50772645,120.401734,12.42499062,3.42183,-0.05265,-0.12284,31.50772649,120.401734,12.40937062,-0.003341106,0.041778336,-0.002890422
1573538005,31.50773062,120.4017339,12.4943,-1.733581238,0.841520763,-0.436760029,3.24541222,0.071246018,0.03710083,3.74884,-0.05557,-0.13731,-0.420662093,2.177643153,-0.242952078,2.501285733,-0.031805823,0.006024756,3.879720233,-0.035401609,-0.03791083,-1.733581238,-0.841520763,1.282376957,2.550765633,-0.11831624,-0.042565532,31.50772944,120.4017341,12.39490077,3.74868,-0.05285,-0.14761,31.50772944,120.4017341,12.38460077,-0.009412437,0.041663173,-0.004337052
1573538005,31.50773396,120.4017341,12.497,-1.652932279,0.946437537,-0.334539665,3.615746245,0.089295004,0.03440103,4.0917,-0.06392,-0.15926,-0.500925377,2.190964728,-0.302991325,2.664600963,-0.091852236,0.016178303,4.250280297,-0.047983142,-0.03521103,-1.652932279,-0.946437537,1.180156593,2.72711134,-0.146299374,-0.013372441,31.50773253,120.4017342,12.37295095,4.08811,-0.06084,-0.17213,31.5077325,120.4017342,12.36008095,-0.009234627,0.042779702,-0.005258762
1573538005,31.50773713,120.4017341,12.4858,-1.606504099,0.93606904,-0.265249613,3.967230924,0.089295001,0.045601241,4.45031,-0.07335,-0.18616,-0.430387614,2.524172257,-0.441602509,2.757751291,-0.053518105,0.004106242,4.601726696,-0.042795835,-0.046411241,-1.606504099,-0.93606904,1.110866541,2.783578668,-0.111219809,-0.021803779,31.50773576,120.4017344,12.34605115,4.44781,-0.07028,-0.20082,31.50773574,120.4017343,12.33139115,-0.006749514,0.04889972,-0.007667348
1573538005,31.50774043,120.4017342,12.491,-1.755377234,0.901622971,-0.24304296,4.333129812,0.10069436,0.040401478,4.81871,-0.07735,-0.21893,-0.507698267,2.818387262,-0.461829873,2.825164375,-0.01843628,0.007009776,4.967753969,-0.048793921,-0.041211478,-1.755377234,-0.901622971,1.088659888,2.848642005,-0.08700551,-0.000590406,31.50773908,120.4017345,12.31328139,4.81914,-0.07548,-0.22363,31.50773909,120.4017345,12.30858138,-0.00460608,0.049686674,-0.008237009
1573538005,31.50774407,120.4017344,12.4949,-1.7776843,0.914278906,-0.163184927,4.736727374,0.115893507,0.036501767,5.19933,-0.08284,-0.24223,-0.361637329,2.861166933,-0.527152763,2.89064284,-0.069479183,0.001202956,5.371531888,-0.058035013,-0.037311767,-1.7776843,-0.914278906,1.008801855,2.932034835,-0.160326805,-0.041983502,31.50774251,120.4017346,12.28998165,5.20074,-0.08058,-0.23934,31.50774253,120.4017346,12.29287165,-0.002269031,0.048294693,-0.009457553
1573538006,31.50774757,120.4017346,12.4966,-1.547808669,0.846685965,-0.103119207,5.12480195,0.13964217,0.034802069,5.59241,-0.09633,-0.25988,0.043088202,2.787394948,-0.584691033,2.991957455,-0.113104282,-0.003159796,5.759914689,-0.076053783,-0.035612069,-1.547808669,-0.846685965,0.948736135,3.015393426,-0.201282393,-0.037712363,31.50774606,120.4017348,12.27233194,5.59477,-0.09324,-0.24848,31.50774608,120.4017348,12.28373194,0.002594015,0.044337497,-0.010225067
1573538006,31.50775111,120.4017348,12.4961,-1.489853057,0.928139401,-0.012067657,5.517311664,0.159591044,0.035302397,5.99499,-0.10857,-0.26915,0.323655017,2.495634006,-0.664623598,3.022778501,-0.033962514,-0.025901687,6.152676065,-0.090207722,-0.036112397,-1.489853057,-0.928139401,0.857684584,3.048109178,-0.113075195,-0.019423104,31.50774969,120.401735,12.26306227,5.99489,-0.10767,-0.26334,31.50774968,120.401735,12.26887227,0.00554064,0.041615787,-0.011567364
1573538006,31.50775472,120.401735,12.5045,-1.650172447,0.825170256,-0.000422862,5.917582877,0.172890292,0.026902759,6.4009,-0.11259,-0.28068,0.133152095,2.444115306,-0.689457226,3.066662994,0.006378067,0.028188518,6.553099959,-0.097598214,-0.027712759,-1.650172447,-0.825170256,0.846039789,3.084468851,-0.125670634,0.034578575,31.50775335,120.4017351,12.25153263,6.40144,-0.11278,-0.27707,31.50775335,120.4017351,12.25514263,0.002292871,0.041157498,-0.012035441
1573538006,31.50775865,120.4017352,12.5124,-1.604258989,0.985758346,0.009119907,6.353335197,0.195689004,0.019003181,6.81148,-0.12179,-0.28904,0.06929095,2.277536049,-0.665678078,3.108016506,-0.07840476,0.030031175,6.989141291,-0.113963495,-0.019813181,-1.604258989,-0.985758346,0.83649702,3.148227008,-0.222202208,-0.027996675,31.50775705,120.4017353,12.24317301,6.81159,-0.12307,-0.28255,31.50775705,120.4017353,12.24966301,-0.000400159,0.037980492,-0.011589787
1573538006,31.50776239,120.4017355,12.5161,-1.260215658,0.882931967,0.047590727,6.768020608,0.226087287,0.01530361,7.23131,-0.14367,-0.29718,0.346691701,2.187524826,-0.691381398,3.196123777,-0.112456727,-0.017566359,7.404230165,-0.138238431,-0.01611361,-1.260215658,-0.882931967,0.798026201,3.223563194,-0.208152612,-0.023659285,31.50776083,120.4017356,12.23503343,7.23294,-0.14632,-0.28857,31.50776084,120.4017356,12.24364344,0.004282596,0.036108712,-0.012084712
1573538006,31.50776601,120.4017355,12.4941,-1.237127741,0.734322813,0.083753917,7.169400575,0.221337545,0.03730405,7.6614,-0.16146,-0.30748,0.377170215,2.295619061,-0.739741301,3.224292442,-0.018212312,-0.018925508,7.80549632,-0.127565535,-0.03811405,-1.237127741,-0.734322813,0.761863011,3.209184724,-0.1094433,-0.013495882,31.50776471,120.4017358,12.2247339,7.64595,-0.1523,-0.29666,31.50776457,120.4017357,12.23555388,0.006246612,0.039623845,-0.0128589
1573538006,31.50777004,120.4017356,12.4978,-1.489571595,0.962965081,0.021862853,7.616240735,0.236536679,0.033604571,8.08888,-0.16803,-0.32225,0.114167823,2.149440779,-0.695851796,3.194682083,0.002239361,0.011573517,8.252512128,-0.136168428,-0.034414571,-1.489571595,-0.962965081,0.823754075,3.197651036,-0.109157916,-0.029191252,31.50776856,120.4017359,12.20996438,8.07383,-0.15831,-0.30612,31.50776843,120.4017358,12.22609437,0.001065298,0.035808901,-0.012002944
1573538006,31.50777384,120.4017358,12.5031,-1.59269609,1.100514473,0.019084822,8.037578854,0.253635707,0.028305089,8.52161,-0.17732,-0.32901,-0.083706124,1.819348358,-0.65229328,3.269874748,-0.045609669,0.00322794,8.674056711,-0.147047375,-0.029115089,-1.59269609,-1.100514473,0.826532106,3.277970904,-0.17186492,-0.014742468,31.50777246,120.4017361,12.2032049,8.50469,-0.16526,-0.30854,31.50777231,120.401736,12.22367488,-0.00274306,0.029006163,-0.011221011
1573538007,31.50777773,120.4017361,12.51,-1.466470407,0.928872883,0.04541382,8.468896038,0.277384357,0.021405651,8.96573,-0.19278,-0.33116,-0.039924803,1.771449566,-0.65501955,3.359106471,-0.071260168,-0.004482718,9.10567741,-0.164427945,-0.022215651,-1.466470407,-0.928872883,0.800203107,3.347877811,-0.173546898,0.001686906,31.50777646,120.4017363,12.20105547,8.9483,-0.17907,-0.31573,31.50777631,120.4017362,12.21648545,-0.001626973,0.029712332,-0.011225512
1573538007,31.50778197,120.4017363,12.5196,-1.340297771,0.803025494,0.07082896,8.939020684,0.30208295,0.011806296,9.41851,-0.20757,-0.33742,0.014565762,1.874914491,-0.650732357,3.377172086,-0.0724643,0.041183397,9.576115363,-0.182185625,-0.012616296,-1.340297771,-0.803025494,0.774787968,3.348361356,-0.161934111,0.005487479,31.50778055,120.4017366,12.19479608,9.39842,-0.19256,-0.32135,31.50778037,120.4017364,12.21086606,0.000782513,0.031746265,-0.011189029
1573538007,31.50778615,120.4017366,12.5245,-1.305864788,1.135201065,0.05582464,9.402492618,0.325831594,0.006906966,9.86899,-0.22173,-0.34365,0.051743851,1.634435845,-0.630730791,3.326269105,-0.071467316,0.029609813,10.03988731,-0.199091642,-0.007716966,-1.305864788,-1.135201065,0.789792288,3.295162254,-0.182262379,-0.042755143,31.50778461,120.4017368,12.18856672,9.84356,-0.20379,-0.32975,31.50778438,120.4017366,12.20246669,0.00146334,0.028309376,-0.011080503
1573538007,31.50778976,120.4017368,12.5289,-1.225413865,1.387413083,0.065385068,9.802763835,0.347680347,0.002507573,10.31458,-0.23557,-0.35268,0.205181871,1.281126235,-0.610814014,3.385342228,-0.07067709,-0.006029,10.44043738,-0.215030707,-0.003317573,-1.225413865,-1.387413083,0.78023186,3.397187879,-0.161749189,-0.023925234,31.50778862,120.401737,12.17953739,10.29063,-0.21855,-0.33464,31.50778841,120.4017368,12.19757735,0.003443844,0.021879007,-0.010643077
1573538007,31.50779409,120.4017368,12.493,-1.202470166,1.181221271,0.07928653,10.28286747,0.344830493,0.038408332,10.77983,-0.24993,-0.36023,0.234058023,1.402810709,-0.633168432,3.505159284,-0.061911183,0.016188397,10.92044667,-0.205095667,-0.039218332,-1.202470166,-1.181221271,0.766330398,3.452466188,-0.142023528,-0.006254204,31.50779282,120.4017372,12.17198811,10.75598,-0.23131,-0.34032,31.5077926,120.401737,12.19189807,0.004090106,0.023743348,-0.010972321
1573538007,31.50779812,120.401737,12.4998,-1.179679047,1.158164083,0.068298492,10.72970764,0.364779348,0.031609072,11.254,-0.26343,-0.36668,0.219191076,1.441644643,-0.613800538,3.498301762,-0.069292473,0.014142623,11.36753259,-0.218447764,-0.032419072,-1.179679047,-1.158164083,0.777318436,3.423463126,-0.187399936,-0.046573159,31.50779709,120.4017374,12.16553889,11.22567,-0.24245,-0.34406,31.50779684,120.4017372,12.18815884,0.00381194,0.023921367,-0.01073527
1573538007,31.50780213,120.4017372,12.5016,-1.076231624,1.261452451,0.091294557,11.17433023,0.387578041,0.02980984,11.7245,-0.28069,-0.37348,0.35970104,1.279724213,-0.628572394,3.494104022,-0.071463975,-0.032264424,11.81244323,-0.234682116,-0.03061984,-1.076231624,-1.261452451,0.754322371,3.424644944,-0.167625077,-0.055763634,31.50780133,120.4017377,12.15873969,11.69216,-0.25791,-0.35135,31.50780104,120.4017374,12.18086964,0.006121649,0.021694351,-0.010954365
1573538008,31.5078065,120.4017375,12.5082,-1.007790762,1.123662891,0.070339068,11.65886908,0.41037673,0.023210712,12.19699,-0.29575,-0.38228,0.454955028,1.325951593,-0.595243706,3.556848045,-0.041302777,-0.009849059,12.29726577,-0.250327371,-0.024020712,-1.007790762,-1.123662891,0.775277859,3.509728613,-0.123382791,-0.007299258,31.50780559,120.4017379,12.14994054,12.16133,-0.27156,-0.35988,31.50780527,120.4017377,12.17234047,0.007940282,0.02282281,-0.010550243
1573538008,31.50781065,120.4017376,12.5184,-1.145448023,0.871644521,0.07150839,12.11901467,0.426525797,0.013011574,12.68014,-0.30438,-0.39126,0.301332373,1.549778069,-0.598736753,3.637774093,-0.018124146,0.026570542,12.75759958,-0.259683729,-0.013821574,-1.145448023,-0.871644521,0.774108538,3.55686063,-0.123585084,0.02993053,31.50780995,120.4017381,12.14096143,12.64837,-0.27955,-0.3701,31.50780966,120.4017378,12.16212137,0.006356474,0.02727503,-0.01057438
1573538008,31.5078148,120.4017378,12.5263,-1.168485858,0.802788266,0.060575002,12.57916026,0.446474645,0.00511247,13.17356,-0.31589,-0.40047,0.288301064,1.680322354,-0.581400238,3.618686326,-0.062491259,0.031748933,13.21798947,-0.272839454,-0.00592247,-1.168485858,-0.802788266,0.785041926,3.507298581,-0.169180782,-0.026798084,31.50781439,120.4017383,12.13175239,13.1355,-0.2883,-0.38322,31.50781405,120.401738,12.14900232,0.007363696,0.030339817,-0.010369655
1573538008,31.50781923,120.4017381,12.5312,-1.088331295,0.848468059,0.049242364,13.07035182,0.472123165,0.000213463,13.65987,-0.33074,-0.41774,0.504822352,1.666573055,-0.592043799,3.619230596,-0.056562602,0.011121674,13.70950606,-0.291236047,-0.001023463,-1.088331295,-0.848468059,0.796374564,3.527110776,-0.154656552,0.003134185,31.50781878,120.4017385,12.11448337,13.61836,-0.30129,-0.40015,31.50781841,120.4017382,12.13207328,0.010862079,0.030558587,-0.01043551
1573538008,31.50782337,120.4017383,12.5377,-1.111417268,0.871175788,0.025930585,13.52938863,0.491122066,-0.006285573,14.14824,-0.34124,-0.43624,0.615584038,1.788562963,-0.578328714,3.642808764,-0.03121774,0.027556837,14.16877326,-0.303458292,0.005475573,-1.111417268,-0.871175788,0.819686343,3.536953387,-0.151212305,-0.011112952,31.50782318,120.4017387,12.09598439,14.10305,-0.3102,-0.41631,31.50782278,120.4017384,12.11591429,0.012637658,0.032266879,-0.01017766
1573538008,31.50782776,120.4017383,12.491,-1.10003832,1.020036787,0.013127773,14.01614493,0.489222146,0.040415481,14.64057,-0.35187,-0.45361,0.715150879,1.676563147,-0.547670491,3.71335808,-0.064785538,0.007345082,14.65544851,-0.294374901,-0.041225481,-1.10003832,-1.020036787,0.832489155,3.592093991,-0.170067017,-0.049027925,31.50782762,120.4017389,12.07861546,14.59088,-0.32036,-0.42979,31.50782717,120.4017386,12.10243535,0.012857097,0.029644811,-0.009750721
1573538008,31.5078323,120.4017385,12.4925,-0.962517423,0.974170298,0.014737155,14.5195331,0.512970769,0.038916614,15.13798,-0.36774,-0.47251,0.877427661,1.723322588,-0.564432122,3.731164891,-0.063099729,-0.023589836,15.15913235,-0.310691802,-0.039726614,-0.962517423,-0.974170298,0.830879773,3.588215541,-0.150324764,-0.057947008,31.5078321,120.4017391,12.05971657,15.09201,-0.33542,-0.44197,31.50783169,120.4017388,12.09025647,0.015577293,0.02937906,-0.009852583
1573538008,31.50783651,120.4017387,12.4952,-1.10023656,0.985437442,-0.009462399,14.98633139,0.528169881,0.036217699,15.64222,-0.37814,-0.48756,0.832034571,1.708014039,-0.538861005,3.736220916,0.009917832,-0.009887389,15.62610411,-0.319000127,-0.037027699,-1.10023656,-0.985437442,0.855079327,3.599069731,-0.102089494,-0.022065129,31.50783665,120.4017393,12.04466775,15.59164,-0.34379,-0.45519,31.5078362,120.401739,12.07703762,0.014764054,0.028852686,-0.00954828
1573538009,31.50784075,120.4017389,12.5012,-1.180904321,1.076644181,-0.056937162,15.45645604,0.544318935,0.030218826,16.14797,-0.38514,-0.49662,0.711783707,1.560488234,-0.498004571,3.787780481,-0.031964197,0.026028532,16.0964159,-0.328209198,-0.031028826,-1.180904321,-1.076644181,0.90255409,3.634711129,-0.145756188,-0.023608357,31.50784121,120.4017395,12.03560896,16.09329,-0.3492,-0.46416,31.50784072,120.4017391,12.06806883,0.012402953,0.026736449,-0.008855203
1573538009,31.50784538,120.4017391,12.5078,-1.077423964,1.019709003,-0.021048756,15.96982329,0.566167662,0.023620099,16.6597,-0.39814,-0.50585,0.792932452,1.518655727,-0.528131721,3.846913557,-0.06033574,0.001868111,16.61004968,-0.342479136,-0.024430099,-1.077423964,-1.019709003,0.866665684,3.68518295,-0.165570825,-0.016601148,31.50784582,120.4017397,12.02638023,16.59952,-0.36042,-0.4737,31.50784528,120.4017393,12.05853008,0.013838168,0.02628661,-0.009379183
1573538009,31.50785002,120.4017393,12.5139,-1.020569867,0.824291248,-0.087564187,16.48429933,0.588016385,0.017521415,17.1718,-0.41074,-0.51966,0.861588721,1.727142969,-0.472950974,3.837262387,-0.038236209,0.007813321,17.12479214,-0.356732707,-0.018331415,-1.020569867,-0.824291248,0.933181115,3.650639945,-0.144535955,-0.031800922,31.50785044,120.4017399,12.01257155,17.11101,-0.37096,-0.48361,31.50784989,120.4017395,12.04862138,0.014879197,0.029503914,-0.00832171
1573538009,31.50785396,120.4017395,12.5155,-1.032433669,0.961486641,-0.12326652,16.92116043,0.605115383,0.015922565,17.68163,-0.42053,-0.53096,0.869621304,1.607619776,-0.424447536,3.801426824,-0.029466777,-0.00663891,17.56185802,-0.367382531,-0.016732565,-1.032433669,-0.961486641,0.968883448,3.628223268,-0.144048035,-0.043391049,31.50785503,120.4017401,12.00127289,17.61795,-0.37908,-0.495,31.50785446,120.4017396,12.03723272,0.015218361,0.027738634,-0.007449874
1573538009,31.50785905,120.4017395,12.5017,-1.204832665,0.972172679,-0.182126746,17.48553172,0.603215457,0.029724092,18.18906,-0.4265,-0.54329,0.783399471,1.518746424,-0.382711012,3.795687646,0.031047597,-0.002204341,18.1261398,-0.357153671,-0.030534092,-1.204832665,-0.972172679,1.027743673,3.612398319,-0.054935166,0.006756685,31.50785961,120.4017402,11.98894428,18.12363,-0.38484,-0.50582,31.50785902,120.4017398,12.02641409,0.013832087,0.025929196,-0.006881408
1573538009,31.50786328,120.4017396,12.5112,-1.503876175,0.981533878,-0.310849009,17.9545476,0.610814996,0.020225402,18.69423,-0.42618,-0.55304,0.45114747,1.494335472,-0.293229587,3.771497951,0.021631153,0.021851411,18.59521675,-0.357830522,-0.021035402,-1.503876175,-0.981533878,1.156465936,3.609628792,-0.127749404,0.004716561,31.50786416,120.4017403,11.97919569,18.6181,-0.3786,-0.51689,31.50786348,120.4017398,12.01534547,0.007850295,0.026102136,-0.005398074
1573538009,31.5078675,120.4017398,12.5157,-1.263683104,0.889474782,-0.399458298,18.42245468,0.632663716,0.015726742,19.19009,-0.43218,-0.56551,0.542825235,1.575478814,-0.195385482,3.768785557,-0.118679255,0.002063149,19.06339533,-0.372771367,-0.016536742,-1.263683104,-0.889474782,1.245075226,3.584424886,-0.245094144,-0.06187039,31.50786863,120.4017404,11.96672712,19.11687,-0.38761,-0.52735,31.50786798,120.40174,12.0048869,0.009410458,0.027518422,-0.003670923
1573538010,31.5078717,120.4017401,12.5149,-0.909429899,0.935705736,-0.500216668,18.88814418,0.656412324,0.016528112,19.68939,-0.4512,-0.58101,0.985293874,1.564046009,-0.10574137,3.743386962,-0.068236931,-0.024506442,19.5293846,-0.38964462,-0.017338112,-0.909429899,-0.935705736,1.345833595,3.569210962,-0.159671459,-0.051534025,31.50787313,120.4017407,11.9512286,19.60876,-0.40403,-0.54066,31.50787241,120.4017402,11.99157836,0.016932614,0.027139988,-0.002150513
1573538010,31.5078762,120.4017402,12.5217,-1.036407266,0.853400624,-0.672409097,19.38709724,0.665911747,0.009729616,20.1823,-0.45328,-0.59495,0.935530907,1.613349738,0.025779273,3.728359194,0.041047991,0.006703864,20.02842351,-0.391779328,-0.010539616,-1.036407266,-0.853400624,1.518026025,3.556961049,-0.07649097,0.013142479,31.50787758,120.4017408,11.9372901,20.11329,-0.40473,-0.55602,31.50787696,120.4017403,11.97621988,0.016584787,0.028180232,0.000213698
1573538010,31.50788003,120.4017402,12.5297,-1.243688299,0.827552862,-0.834109411,19.81176174,0.669711503,0.001730928,20.67655,-0.44902,-0.60777,0.716730402,1.660480335,0.189172608,3.691723001,0.037368957,0.025749866,20.45309784,-0.389311359,-0.002540928,-1.243688299,-0.827552862,1.679726339,3.521004804,-0.086874445,0.01366531,31.50788204,120.4017409,11.92447164,20.58713,-0.39932,-0.56535,31.50788124,120.4017403,11.96689135,0.01312173,0.029223616,0.00275208
1573538010,31.50788478,120.4017402,12.5395,-1.359504763,0.789780868,-1.052228501,20.33843443,0.674461197,-0.008067407,21.16124,-0.44485,-0.61846,0.638634177,1.677000524,0.332536332,3.6726122,0.02971527,0.022689064,20.97978326,-0.386287762,0.007257407,-1.359504763,-0.789780868,1.897845429,3.504270295,-0.092438995,0.015010387,31.50788641,120.4017409,11.91378319,21.07187,-0.39503,-0.57785,31.50788561,120.4017403,11.95439289,0.011604783,0.030029617,0.005554944
1573538010,31.50788886,120.4017403,12.5432,-1.351571744,0.86585469,-1.408440999,20.79081853,0.680160839,-0.011765942,21.6464,-0.44172,-0.63474,0.653497151,1.721155622,0.626399207,3.615783681,0.009111843,-0.010608152,21.43220221,-0.385310379,0.010955942,-1.351571744,-0.86585469,2.254057927,3.470335355,-0.146240468,-0.061714987,31.50789078,120.4017409,11.89750477,21.55695,-0.38984,-0.59172,31.50788998,120.4017404,11.94052447,0.011725507,0.030799782,0.010642062
1573538010,31.50789373,120.4017402,12.5041,-1.159495724,0.899626539,-1.705273978,21.33079647,0.673511184,0.027335848,22.13388,-0.44044,-0.65419,0.896495582,1.664517204,0.964273156,3.639960631,-0.010127146,-0.041813641,21.9720232,-0.370692311,-0.028145848,-1.159495724,-0.899626539,2.550890906,3.496722639,-0.093691711,-0.061317133,31.50789518,120.401741,11.8780564,22.03708,-0.38719,-0.61625,31.50789431,120.4017404,11.91599607,0.01773924,0.031298422,0.016380344
1573538010,31.50789816,120.4017402,12.5079,-1.319646302,0.709408631,-2.094132671,21.82198802,0.66591159,0.023537515,22.62102,-0.42786,-0.68371,0.887901174,1.907420749,1.285841732,3.641246175,0.069536461,-0.012427822,22.46304911,-0.35584441,-0.024347515,-1.319646302,-0.709408631,2.939749599,3.493600324,-0.06436613,0.002463631,31.50789958,120.4017409,11.84853807,22.51041,-0.36938,-0.64155,31.50789859,120.4017403,11.89069768,0.017527125,0.034852498,0.021990043
1573538010,31.50790224,120.4017401,12.5133,-1.194946591,0.649934862,-2.528141447,22.27437213,0.662111781,0.018139084,23.0974,-0.4083,-0.70552,1.046796162,2.107167817,1.697289284,3.604499664,-0.013736207,0.036754623,22.91532787,-0.345368611,-0.018949084,-1.194946591,-0.649934862,3.373758375,3.46669512,-0.158151534,0.002879269,31.50790387,120.4017408,11.82672973,22.9956,-0.35136,-0.66478,31.50790296,120.4017402,11.86746937,0.0188647,0.039169901,0.029557373
1573538011,31.50790628,120.4017401,12.5199,-0.842207572,0.666497873,-2.893150107,22.72232111,0.662111753,0.011540671,23.58626,-0.39951,-0.72617,1.46811674,2.257923309,2.075075741,3.577699597,-0.032699834,0.066815129,23.36322806,-0.338757634,-0.012350671,-0.842207572,-0.666497873,3.738767035,3.421162914,-0.116990458,0.004485227,31.50790828,120.4017408,11.80608148,23.47314,-0.33994,-0.68455,31.50790727,120.4017401,11.84770107,0.024544654,0.041769633,0.036144974
1573538011,31.50791058,120.4017399,12.5262,-0.952177682,0.785464942,-3.433506449,23.19909848,0.643112822,0.005242391,24.06269,-0.37354,-0.75018,1.393251644,2.27773555,2.55302971,3.545834385,0.096703385,0.023710228,23.83967311,-0.312724366,-0.006052391,-0.952177682,-0.785464942,4.279123377,3.403267607,-0.030411539,-0.003159823,31.50791258,120.4017406,11.78207322,23.95342,-0.31538,-0.71439,31.50791161,120.40174,11.81786281,0.024644132,0.043790785,0.044377242
1573538011,31.50791456,120.4017397,12.5296,-1.128589054,0.809788211,-3.928222965,23.64039473,0.620314114,0.001844016,24.54825,-0.34039,-0.78766,1.23526668,2.464085754,3.055309761,3.54318597,0.058046737,3.26E-05,24.28058484,-0.283415374,-0.002654016,-1.128589054,-0.809788211,4.773839892,3.371180345,-0.081398359,-0.033857929,31.50791697,120.4017403,11.74459503,24.42255,-0.27982,-0.75781,31.50791584,120.4017397,11.77444455,0.023635258,0.049080092,0.052965368
1573538011,31.50791848,120.4017395,12.5321,-0.971534141,1.109518461,-4.399628318,24.07503828,0.602265133,-0.000654353,25.01769,-0.31224,-0.83199,1.493126122,2.573033052,3.523414544,3.500032267,-0.00179607,0.033137671,24.71491468,-0.258953775,-0.000155647,-0.971534141,-1.109518461,5.245245246,3.341710974,-0.096613925,-0.037957772,31.5079212,120.4017401,11.70026681,24.89441,-0.24563,-0.79396,31.5079201,120.4017394,11.73829633,0.028305166,0.049442091,0.061594095
1573538011,31.50792241,120.4017392,12.5363,-0.944427221,1.164011745,-4.893122363,24.51079062,0.576616596,-0.00485269,25.49583,-0.27358,-0.87187,1.704960859,2.693735853,4.022194325,3.53074364,0.040606682,-0.003577149,25.15024103,-0.226877083,0.00404269,-0.944427221,-1.164011745,5.73873929,3.352369583,-0.090095358,-0.036198598,31.50792552,120.4017398,11.66038866,25.37049,-0.20748,-0.81749,31.5079244,120.401739,11.71476817,0.029557193,0.048101729,0.070272587
1573538011,31.50792753,120.4017389,12.5123,-0.662935805,1.126541986,-5.577963443,25.07848821,0.548118213,0.019149525,25.97889,-0.23571,-0.89842,1.937648582,2.751637021,4.629960664,3.531041286,-0.033294208,0.007260484,25.71745621,-0.190003573,-0.019959525,-0.662935805,-1.126541986,6.423580371,3.362836753,-0.143981084,-0.032489404,31.50792988,120.4017394,11.63384057,25.83489,-0.1683,-0.84585,31.50792859,120.4017387,11.68640999,0.029342875,0.049766716,0.080765301
1573538011,31.50793145,120.4017386,12.5205,-0.480814115,1.064812829,-6.046304359,25.51313178,0.517719955,0.010951253,26.44822,-0.19586,-0.92621,1.983604486,2.900892248,5.146762579,3.520601534,0.025262185,0.037339239,26.15160381,-0.153194041,-0.011761253,-0.480814115,-1.064812829,6.891921287,3.343211452,-0.045828211,0.013389971,31.50793412,120.4017391,11.60605246,26.29977,-0.1287,-0.87155,31.50793279,120.4017384,11.66071186,0.0299543,0.052061878,0.089669486
1573538012,31.50793532,120.4017381,12.527,-0.693726685,1.073156546,-6.656649125,25.94223142,0.473072528,0.004452987,26.91306,-0.14136,-0.9557,1.577824921,2.984200691,5.710151592,3.476693764,0.10299481,-0.015850887,26.5799978,-0.102218711,-0.005262987,-0.693726685,-1.073156546,7.502266053,3.309919918,-0.018855563,-0.039429616,31.50793832,120.4017386,11.57656436,26.75958,-0.07061,-0.88285,31.50793694,120.4017378,11.64941373,0.021906594,0.049998724,0.099745208
1573538012,31.50793948,120.4017376,12.5317,-0.859369596,1.047381637,-7.324223824,26.4034858,0.420825542,-0.000245118,27.37529,-0.07784,-0.97238,1.088519731,2.848077925,6.372922762,3.494224924,0.060294863,-0.010838765,27.04043088,-0.043170102,-0.000564882,-0.859369596,-1.047381637,8.169840751,3.317839411,-0.055287637,0.002524043,31.5079425,120.401738,11.55988629,27.21054,-0.0039,-0.87697,31.50794102,120.4017372,11.6552956,0.015607449,0.042483315,0.111156594
1573538012,31.50794332,120.4017371,12.5415,-0.692296374,0.870889276,-7.952793271,26.82925911,0.376178124,-0.010043336,27.83239,-0.01428,-0.95942,0.998784078,2.621063659,7.005629952,3.454042937,-0.002708994,0.057099776,27.46549889,0.007756129,0.009233336,-0.692296374,-0.870889276,8.798410198,3.260835349,-0.120191578,0.012387867,31.50794663,120.4017374,11.57284823,27.66433,0.06045,-0.863,31.50794512,120.4017366,11.66926751,0.012667985,0.038661487,0.122266189
1573538012,31.50794739,120.4017365,12.5465,-0.624765485,0.963943831,-8.676982037,27.28053444,0.320131369,-0.015041417,28.28409,0.05265,-0.94282,0.937802581,2.169690357,7.715441055,3.418484205,0.085277953,-0.009401698,27.91589792,0.070456821,0.014231417,-0.624765485,-0.963943831,9.522598965,3.236705855,-0.014803678,-0.036220425,31.50795071,120.4017368,11.58945018,28.10829,0.12742,-0.85409,31.50794913,120.4017359,11.67817942,0.012779285,0.033138005,0.134613473
1573538012,31.50795113,120.4017358,12.5503,-0.834015305,1.058534425,-9.357971582,27.69521987,0.256485062,-0.018839626,28.72847,0.1338,-0.93955,0.520189178,1.80715536,8.412968063,3.398074588,0.087402682,0.003859213,28.32959888,0.140216232,0.018029626,-0.834015305,-1.058534425,10.20358851,3.22183136,-0.0272621,-0.007918606,31.50795473,120.401736,11.59272213,28.54651,0.21212,-0.83893,31.5079531,120.4017351,11.69334133,0.005814269,0.024198856,0.147094404
1573538012,31.50795562,120.401735,12.526,-0.823470343,0.985568096,-10.11582121,28.19306402,0.177639645,0.005462562,29.17062,0.21973,-0.91827,0.308394621,1.422648412,9.17022338,3.388668483,0.041053164,0.035462195,28.8262252,0.226400378,-0.006272562,-0.823470343,-0.985568096,10.96143814,3.226879073,-0.093589516,0.013354379,31.50795872,120.4017351,11.6140041,28.98675,0.29784,-0.82758,31.50795708,120.4017343,11.70469328,0.00435117,0.019956142,0.160223357
1573538012,31.50795963,120.4017343,12.5332,-0.707706017,0.911516899,-10.79394055,28.63768666,0.105443849,-0.001735452,29.61556,0.30425,-0.9043,0.414688604,1.217899606,9.88010411,3.379504645,0.050427476,0.013699112,29.26973392,0.305150169,0.000925452,-0.707706017,-0.911516899,11.63955747,3.187646424,-0.051725867,-0.020753055,31.50796275,120.4017343,11.62797612,29.42379,0.38362,-0.81506,31.50796103,120.4017334,11.71721525,0.006550364,0.017239956,0.172577578
1573538012,31.50796328,120.4017335,12.5366,-0.688957429,1.013561344,-11.45008482,29.04239303,0.032298115,-0.005133615,30.0522,0.39713,-0.89521,0.419101102,0.910680687,10.56565857,3.326860923,0.066673966,0.00855983,29.67331671,0.384260701,0.004323615,-0.688957429,-1.013561344,12.29570174,3.149667149,-0.041882589,-0.025123928,31.5079667,120.4017334,11.63706813,29.84657,0.47425,-0.82002,31.50796485,120.4017326,11.71225719,0.007984805,0.015551626,0.18425016
1573538013,31.50796691,120.4017326,12.5423,-0.87729278,1.105810731,-12.05227185,29.44488185,-0.051297003,-0.010831761,30.47464,0.49407,-0.90152,0.337258726,0.795910212,11.21964914,3.340651695,0.113623327,-0.012345807,30.07452798,0.473786751,0.010021761,-0.87729278,-1.105810731,12.89788878,3.161946449,0.01111172,-0.015556519,31.50797052,120.4017324,11.63076011,30.27421,0.57784,-0.80306,31.50796872,120.4017315,11.72921918,0.006847929,0.008129318,0.195904337
1573538013,31.50797078,120.4017316,12.5463,-1.233872587,1.142817179,-12.67876816,29.87398149,-0.146291449,-0.014829757,30.906,0.60587,-0.88692,0.101473327,0.467585023,11.83824449,3.301712571,0.126250971,-0.039670331,30.50217893,0.575103616,0.014019757,-1.233872587,-1.142817179,13.52438509,3.112804424,-0.013168106,-0.037983499,31.50797443,120.4017313,11.64536216,30.69941,0.68702,-0.79862,31.50797257,120.4017305,11.73366119,0.002374433,0.005645367,0.206474503
1573538013,31.50797436,120.4017308,12.5551,-1.090926922,1.154429929,-13.18495155,30.2709264,-0.226086776,-0.023627877,31.3338,0.70824,-0.87786,0.123418414,0.23442393,12.3888219,3.294531478,-0.008390361,0.051898065,30.89790297,0.660748471,0.022817877,-1.090926922,-1.154429929,14.03056848,3.128381926,-0.099778343,0.029783876,31.5079783,120.4017303,11.65442423,31.11859,0.79125,-0.78698,31.50797637,120.4017294,11.7453032,0.002388747,0.001249612,0.216163169
1573538013,31.50797792,120.4017299,12.564,-1.023244004,1.03209719,-13.59827443,30.66565375,-0.309681877,-0.032525979,31.76002,0.81029,-0.86474,0.201680545,0.203268251,12.87549532,3.281234188,0.011422659,0.033601023,31.29135361,0.750159958,0.031715979,-1.023244004,-1.03209719,14.44389136,3.067155794,-0.086792617,0.003204132,31.50798215,120.4017293,11.66754631,31.53797,0.89073,-0.78628,31.50798016,120.4017284,11.74600524,0.003176103,0.004251045,0.224477322
1573538013,31.50798141,120.401729,12.5706,-0.896283793,1.182735348,-14.04890494,31.05261959,-0.393276971,-0.039124095,32.17671,0.90887,-0.86474,0.379934411,0.141359191,13.32775763,3.206467968,0.01453648,0.025705188,31.67704359,0.839456891,0.038314095,-0.896283793,-1.182735348,14.89452187,3.003421203,-0.07545251,-0.022881783,31.50798593,120.4017283,11.66754838,31.95771,0.99513,-0.76978,31.50798396,120.4017274,11.76250731,0.00646872,-0.000473505,0.232501896
1573538013,31.50798559,120.4017281,12.5238,-0.706969102,1.469540028,-14.51070201,31.51609131,-0.48067183,0.007678193,32.59554,1.01402,-0.84716,0.527116949,-0.299186078,13.78415758,3.210373387,-0.016211384,0.043747793,32.13917504,0.93368227,-0.008488193,-0.706969102,-1.469540028,15.35631894,3.040160676,-0.124434031,-0.005303428,31.50798972,120.4017273,11.68513049,32.37053,1.09855,-0.75884,31.5079877,120.4017264,11.77344938,0.007900413,-0.005809386,0.24041876
1573538013,31.50798937,120.4017271,12.5305,-0.431191229,1.272891486,-14.80634071,31.9352119,-0.57186646,0.000980294,33.02141,1.11572,-0.83969,0.727222483,-0.178965836,14.11813176,3.265963476,-0.034320524,-0.020247494,32.55690411,1.031052461,-0.001790294,-0.431191229,-1.272891486,15.65195764,3.057584385,-0.106116355,-0.0543355,31.50799357,120.4017263,11.69260267,32.7888,1.2013,-0.75045,31.50799148,120.4017254,11.7818415,0.011968815,-0.003597458,0.246284627
1573538014,31.50799285,120.4017262,12.531,-0.198467088,1.060315482,-15.1146404,32.32106894,-0.660211256,0.000482252,33.445,1.22105,-0.84028,0.929433723,0.005807878,14.44523589,3.238722319,-0.015214286,-0.024068078,32.94141531,1.125082215,-0.001292252,-0.198467088,-1.060315482,15.96025732,3.012700883,-0.106481176,-0.045826748,31.5079974,120.4017253,11.69201486,33.20153,1.30611,-0.75404,31.50799522,120.4017243,11.77825362,0.017310947,0.000268846,0.251756246
1573538014,31.50799656,120.4017252,12.5361,-0.019297075,0.910914071,-15.42571263,32.73242804,-0.75710554,-0.00461563,33.85847,1.32709,-0.84333,1.150161915,0.154863072,14.7669903,3.22079052,-0.021337767,0.030499932,33.35129961,1.228036893,0.00380563,-0.019297075,-0.910914071,16.27132955,3.014070335,-0.09750481,0.003850625,31.50800115,120.4017242,11.68896703,33.61495,1.41538,-0.75138,31.50799896,120.4017232,11.78091578,0.020208031,0.002183562,0.257506777
1573538014,31.50799998,120.4017242,12.5393,0.039806082,0.803580171,-15.66837547,33.11163238,-0.852099932,-0.007813653,34.27607,1.43993,-0.84128,1.260015978,0.271484405,15.065653,3.220065322,0.014784072,-0.008939787,33.7290607,1.328617336,0.007003653,0.039806082,-0.803580171,16.5139924,3.005018125,-0.103995523,-0.033275395,31.50800493,120.4017231,11.69101925,34.02477,1.52739,-0.75112,31.50800267,120.4017221,11.78117795,0.022169844,0.005182572,0.262588435
1573538014,31.50800346,120.4017233,12.5413,0.587741787,0.348196617,-15.89703475,33.49748942,-0.936644931,-0.009811617,34.69652,1.54513,-0.84603,1.662880648,0.611167381,15.32447992,3.264611787,-0.137347037,0.027821272,34.11362799,1.418847707,0.009001617,0.587741787,-0.348196617,16.74265168,3.03413727,-0.22361387,0.001454982,31.50800873,120.401722,11.68627152,34.43871,1.63398,-0.75276,31.50800642,120.4017211,11.77954016,0.029405076,0.010681689,0.26706041
1573538014,31.50800718,120.4017223,12.5476,1.205700875,-0.014686054,-16.09667333,33.90995732,-1.025939639,-0.016109416,35.11838,1.64341,-0.84567,2.363170979,1.058237835,15.56506509,3.219418846,-0.09421462,0.090765219,34.52473313,1.514220001,0.015299416,1.205700875,0.014686054,16.94229025,2.957724583,-0.142688466,0.078978049,31.50801255,120.4017211,11.68663382,34.85362,1.73264,-0.75217,31.50801017,120.4017201,11.78013241,0.042590659,0.018622109,0.27101508
1573538014,31.50801027,120.4017215,12.5227,1.113352746,0.066989095,-16.31627827,34.25257162,-1.107634792,0.008792437,35.52267,1.75294,-0.84304,2.429190955,1.086496043,15.72723534,3.093155297,0.022179681,0.096145543,34.86610444,1.600962649,-0.009602437,1.113352746,-0.066989095,17.1618952,2.868371661,-0.053784279,0.033197699,31.50801621,120.40172,11.68926605,35.2472,1.84546,-0.74576,31.50801374,120.401719,11.78654457,0.044854388,0.018232154,0.273921493
1573538014,31.50801413,120.4017201,12.5274,0.328168219,0.938622482,-16.35961495,34.6805625,-1.235877192,0.004094782,35.90035,1.87351,-0.83738,2.018497288,0.356689364,15.77586325,2.971597609,0.141877146,0.042349254,35.29215607,1.735507484,-0.004904782,0.328168219,-0.938622482,17.20523188,2.748643254,0.074617202,-0.001353928,31.50801963,120.4017188,11.69492817,35.6206,1.96529,-0.74077,31.50801712,120.4017178,11.79153665,0.037034508,0.006449839,0.274790242
1573538014,31.50801751,120.401719,12.5352,-0.189625031,1.408346024,-16.26091458,35.05533173,-1.34227088,-0.00370314,36.27556,1.99104,-0.83349,1.421942469,-0.274988391,15.72098683,3.036419094,-0.007551934,0.034565347,35.6653143,1.847420528,0.00289314,-0.189625031,-1.408346024,17.1065315,2.805075764,-0.085898077,-0.012430614,31.50802303,120.4017176,11.6988203,35.98728,2.08244,-0.7353,31.50802044,120.4017166,11.79700872,0.027024671,-0.004609617,0.27365601
1573538015,31.50802071,120.4017181,12.539,-0.212591534,1.497653032,-16.15763785,35.41014282,-1.427765791,-0.007501153,36.65644,2.09068,-0.83261,1.453895747,-0.379895735,15.62135891,3.008882358,-0.096568704,-0.018946418,36.01882499,1.938142523,0.006691153,-0.212591534,-1.497653032,17.00325478,2.779058995,-0.171694939,-0.086600507,31.50802648,120.4017166,11.69970248,36.36277,2.18232,-0.7328,31.50802384,120.4017156,11.79951086,0.026345678,-0.006331436,0.272039509
1573538015,31.50802388,120.4017173,12.5335,0.091903836,1.806800993,-16.08532596,35.76162751,-1.503761257,-0.001999167,37.03406,2.1796,-0.83702,1.726196186,-0.597652927,15.54372962,2.950179891,-0.143128297,-0.062583351,36.36914983,2.019317017,0.001189167,0.091903836,-1.806800993,16.93094289,2.73543593,-0.2227822,-0.168373411,31.5080299,120.4017157,11.69529467,36.73762,2.27179,-0.73544,31.50802724,120.4017147,11.79687301,0.030302606,-0.009900994,0.270730636
1573538015,31.50802729,120.4017165,12.5233,0.469919393,2.253327113,-16.02078755,36.13972299,-1.5816566,0.008202991,37.41099,2.2615,-0.84555,2.131325106,-0.952386859,15.53398659,2.946475882,-0.158594642,-0.083987277,36.74605454,2.102783909,-0.009012991,0.469919393,-2.253327113,16.86640448,2.762061896,-0.183562518,-0.139306375,31.50803331,120.4017149,11.68676687,37.11091,2.3552,-0.74214,31.50803061,120.4017139,11.79017517,0.037115208,-0.016074213,0.270524643
1573538015,31.50803049,120.4017156,12.5277,0.58187023,2.059210126,-15.81048992,36.49453409,-1.66335172,0.00380504,37.79495,2.34926,-0.85002,2.334369634,-0.929849389,15.34826106,3.02511322,-0.080343129,-0.039738373,37.09962132,2.189706527,-0.00461504,0.58187023,-2.059210126,16.65610685,2.807193351,-0.099178039,-0.018775354,31.50803678,120.4017141,11.68229913,37.49175,2.4448,-0.74398,31.50803406,120.401713,11.7883374,0.040512503,-0.015861402,0.267239227
1573538015,31.50803369,120.4017147,12.5403,0.539100793,1.624695164,-15.7306921,36.84934523,-1.747896667,-0.008792888,38.18186,2.44588,-0.84945,2.231602996,-0.525895287,15.27303653,3.00265492,-0.081299458,0.01331645,37.45314609,2.279478664,0.007982888,0.539100793,-1.624695164,16.57630903,2.792783238,-0.144564016,0.037694139,31.50804028,120.4017131,11.68287144,37.8757,2.54246,-0.74179,31.50803754,120.401712,11.79052968,0.038178151,-0.008762297,0.266050136
1573538015,31.50803759,120.4017137,12.5274,0.335706184,1.098318495,-15.5616955,37.28177115,-1.845740804,0.004109661,38.57203,2.53946,-0.84497,2.147803206,0.017796161,15.06010879,2.99193033,-0.015773122,0.018533456,37.8840809,2.383694,-0.004919661,0.335706184,-1.098318495,16.40731242,2.77085033,-0.011578337,0.070670087,31.50804381,120.4017122,11.6873538,38.26066,2.6389,-0.73456,31.50804102,120.4017111,11.79776199,0.036983997,0.000184978,0.262319993
1573538015,31.50804064,120.4017128,12.5372,-0.16778995,0.983312601,-15.4156429,37.61995052,-1.936935349,-0.005688318,38.95092,2.64277,-0.84369,1.621255655,0.317825788,14.86434835,2.851027625,0.035981428,0.008170281,38.22087756,2.479869553,0.004878318,-0.16778995,-0.983312601,16.26125983,2.639323659,0.00738885,0.001727936,31.50804725,120.4017111,11.68863611,38.62742,2.74262,-0.73096,31.50804434,120.40171,11.80136421,0.028334337,0.005086386,0.258839862
1573538016,31.50804362,120.4017118,12.5433,-0.779795909,1.074922713,-15.24809798,37.95036837,-2.027179946,-0.011786324,39.30976,2.74606,-0.84366,0.956568022,0.168724741,14.72618488,2.843289,0.033685391,0.004261166,38.54992757,2.574980715,0.010976324,-0.779795909,-1.074922713,16.09371491,2.645201297,-0.033867159,0.001315963,31.50805049,120.4017101,11.68866833,38.98338,2.84627,-0.73088,31.50804756,120.401709,11.8014464,0.016437511,0.003306423,0.256315939
1573538016,31.50804685,120.4017109,12.5504,-0.982158813,0.956494333,-15.09828176,38.30850584,-2.111724867,-0.018884147,39.67284,2.83908,-0.84462,0.62009522,0.260499276,14.54566348,2.816454239,-0.059511721,0.032981493,38.90677831,2.664801916,0.018074147,-0.982158813,-0.956494333,15.94389869,2.604875248,-0.168434003,-0.008472865,31.50805378,120.4017092,11.68771059,39.34004,2.94068,-0.73066,31.50805079,120.4017081,11.8016686,0.010836269,0.004669502,0.253146066
1573538016,31.50804961,120.4017103,12.5534,-0.572552707,1.011036498,-15.02546944,38.61453041,-2.167771482,-0.021882275,40.03451,2.91436,-0.84175,0.969085674,0.262544138,14.50056939,2.783214505,-0.1881816,0.048993558,39.2119424,2.725358818,0.021072275,-0.572552707,-1.011036498,15.87108637,2.579466495,-0.240730503,-0.043128742,31.50805705,120.4017085,11.69058286,39.6944,3.01604,-0.7269,31.508054,120.4017073,11.80543081,0.017066133,0.00468995,0.252339735
1573538016,31.50805307,120.4017096,12.552,0.025256872,0.95102412,-14.97476154,38.99816988,-2.236167347,-0.020479909,40.39433,2.98288,-0.84271,1.56594623,0.261320024,14.44379582,2.795366725,-0.154655409,-0.003335647,39.59453068,2.799409087,0.019669909,0.025256872,-0.95102412,15.82037847,2.613298596,-0.17026393,-0.088011938,31.50806031,120.4017078,11.68962514,40.05323,3.08837,-0.72543,31.50805725,120.4017066,11.80690306,0.027564911,0.004195364,0.251583666
1573538016,31.50805608,120.4017088,12.5481,0.032987949,0.628478549,-14.97329707,39.33191403,-2.310262875,-0.016577825,40.75949,3.06881,-0.85394,1.724286475,0.478640804,14.48481854,2.83710239,-0.009695573,-0.077375531,39.92714495,2.87842203,0.015767825,0.032987949,-0.628478549,15.81891399,2.629870964,-0.090722482,-0.060797966,31.50806361,120.4017069,11.67839747,40.41537,3.17897,-0.73405,31.50806052,120.4017057,11.79828536,0.030420997,0.008425865,0.251944381
1573538016,31.50805952,120.401708,12.5124,0.157951404,0.37920228,-15.05397726,39.71333571,-2.389108094,0.019124577,41.12363,3.15628,-0.86938,1.763951897,0.805699224,14.52840473,2.830705285,-0.098569298,-0.032450373,40.30736148,2.962887783,-0.019934577,0.157951404,-0.37920228,15.89959419,2.644744917,-0.191375939,-0.046777297,31.50806691,120.4017061,11.66295983,40.76438,3.2636,-0.75178,31.50806368,120.4017049,11.7805576,0.030991346,0.013826329,0.252740103
1573538016,31.50806253,120.4017073,12.5114,0.373702474,0.234150168,-15.00829306,40.04707987,-2.457503952,0.020126698,41.48992,3.23827,-0.87686,2.123927662,0.995032824,14.49266817,2.786528388,-0.040578655,0.020090579,40.64005989,3.036201677,-0.020936698,0.373702474,-0.234150168,15.85390999,2.586709848,-0.077675093,0.030236456,31.50807022,120.4017053,11.65548221,41.12987,3.33734,-0.75493,31.50806699,120.4017042,11.77740996,0.037271486,0.017273278,0.252200455
1573538016,31.50806562,120.4017063,12.523,-0.209432625,0.272859576,-15.0549986,40.3896944,-2.550598339,0.008528903,41.84103,3.33731,-0.87691,1.694742959,0.995757312,14.53897733,2.705963617,0.119216906,0.084179511,40.98126319,3.134342321,-0.009338903,-0.209432625,-0.272859576,15.90061552,2.51001507,0.059296139,0.078464761,31.5080734,120.4017043,11.65543453,41.48018,3.44759,-0.7506,31.50807016,120.4017031,11.78174226,0.029454133,0.017080057,0.253201672
1573538017,31.50806844,120.4017054,12.531,-0.821190075,0.526979632,-15.09386038,40.70237172,-2.637043126,0.000530934,42.183,3.44301,-0.87224,0.987684019,0.749443337,14.57090887,2.660094575,0.064337536,0.043054877,41.29263068,3.225392267,-0.001340934,-0.821190075,-0.526979632,15.93947731,2.493665249,-0.05732684,0.027947243,31.5080765,120.4017032,11.66010681,41.81302,3.5525,-0.74532,31.50807318,120.401702,11.78702447,0.017344348,0.012850943,0.253542453
1573538017,31.50807127,120.4017047,12.5367,-0.741238505,0.618074166,-15.16375078,41.0161578,-2.705438978,-0.005167019,42.52172,3.53083,-0.86769,0.915745116,0.589343608,14.65458421,2.659967555,-0.072247964,0.066946611,41.60537319,3.298411608,0.004357019,-0.741238505,-0.618074166,16.00936771,2.476980185,-0.194754763,0.008062078,31.50807956,120.4017024,11.66465909,42.15298,3.66078,-0.73831,31.50807626,120.4017009,11.79403674,0.015980422,0.010151275,0.254941013
1573538017,31.50807434,120.401704,12.538,-0.27076251,0.553334571,-15.27616512,41.35655469,-2.767185211,-0.006464785,42.86781,3.60585,-0.86459,1.3730683,0.588988871,14.80080099,2.642397158,-0.118293813,0.021214473,41.94482173,3.365174784,0.005654785,-0.27076251,-0.553334571,16.12178205,2.432599054,-0.170048643,-0.025197499,31.5080827,120.4017016,11.66776142,42.49234,3.71911,-0.73483,31.50807932,120.4017004,11.797519,0.023655403,0.009967605,0.257367148
1573538017,31.50807708,120.4017033,12.5343,-0.094544376,0.958543517,-15.35667681,41.66036165,-2.833681168,-0.002762772,43.20512,3.68747,-0.86272,1.656903491,0.360423965,14.87430267,2.540530435,-0.012407653,0.001220604,42.24761425,3.436147162,0.001952772,-0.094544376,-0.958543517,16.20229374,2.358754409,-0.044635553,-0.094246468,31.50808575,120.4017008,11.66963372,42.83396,3.7894,-0.7275,31.50808241,120.4016997,11.8048513,0.028276556,0.006508077,0.258678722
1573538017,31.50807974,120.4017024,12.5279,-0.621470553,1.499618949,-15.57304683,41.95529833,-2.916326159,0.003639206,43.53513,3.78344,-0.86774,1.193876109,-0.211155628,15.07538712,2.533047997,0.118027233,-0.061988199,42.5412991,3.523135905,-0.004449206,-0.621470553,-1.499618949,16.41866375,2.373535485,0.035846406,-0.095865933,31.50808874,120.4016999,11.664616,43.1519,3.89487,-0.73839,31.5080853,120.4016986,11.79396349,0.020733007,-0.003559825,0.262087028
1573538017,31.50808285,120.4017015,12.5034,-0.779889192,1.858324793,-15.87900212,42.30013019,-3.002770895,0.028141533,43.86292,3.88243,-0.87512,0.861743036,-0.58922571,15.37008513,2.565862433,-0.006345768,-0.061821509,42.88481764,3.614660346,-0.028951533,-0.779889192,-1.858324793,16.72461905,2.40373089,-0.162733214,-0.119036124,31.50809171,120.4016989,11.65723828,43.47171,3.99401,-0.74562,31.50808819,120.4016976,11.7867357,0.015198068,-0.010195005,0.267127076
1573538017,31.50808583,120.4017008,12.5056,-0.271923172,1.836526169,-16.13652409,42.63054802,-3.072116662,0.025943774,44.19735,3.9639,-0.87542,1.335799791,-0.640762292,15.67073597,2.602473729,-0.078776096,0.010015732,43.21417606,3.688874954,-0.026753774,-0.271923172,-1.836526169,16.98214102,2.420913875,-0.134112817,-0.009526467,31.50809473,120.4016981,11.65694061,43.79856,4.0737,-0.7461,31.50809115,120.4016968,11.78625796,0.023592761,-0.011247169,0.272312729
1573538018,31.50808858,120.4017,12.5177,-0.145022089,1.472779453,-16.57323776,42.93546388,-3.150011927,0.013845866,44.52827,4.05686,-0.87029,1.606947571,-0.340627089,16.01393694,2.568101246,0.075126541,0.018603483,43.51790911,3.771261764,-0.014655866,-0.145022089,-1.472779453,17.41885469,2.402088511,-0.010226361,0.029645486,31.50809773,120.4016971,11.66207295,44.12458,4.16821,-0.73765,31.5080941,120.4016959,11.79471024,0.028197389,-0.006030052,0.278323175
1573538018,31.50809142,120.401699,12.5261,-0.370841736,1.369253088,-17.31813591,43.25035879,-3.247855992,0.005448052,44.84615,4.16906,-0.86803,1.405513702,-0.138134345,16.71360422,2.465282694,0.158151833,-0.006374676,43.83132572,3.873742475,-0.006258052,-0.370841736,-1.369253088,18.16375283,2.313548577,0.035279815,-0.026663756,31.50810061,120.401696,11.66433522,44.43812,4.27693,-0.73812,31.50809695,120.4016948,11.79424247,0.024508314,-0.002696966,0.290589384
1573538018,31.50809401,120.401698,12.5293,-0.404536806,1.455825825,-17.99150322,43.53753404,-3.336200624,0.002250059,45.15024,4.28119,-0.86622,1.252230519,-0.241145413,17.3704987,2.442046442,0.08267096,0.003376168,44.11716588,3.966315694,-0.003060059,-0.404536806,-1.455825825,18.83712014,2.3063877,-0.08422047,-0.041705536,31.50810337,120.4016949,11.66614742,44.72993,4.3922,-0.73835,31.50809959,120.4016936,11.79401457,0.022028794,-0.004137824,0.301716016
1573538018,31.50809662,120.4016971,12.5321,-0.118463403,1.2001066,-18.90327796,43.82692686,-3.421695421,-0.000547906,45.45339,4.3881,-0.86532,1.579045439,-0.148358064,18.27429106,2.443980546,0.088821231,-0.007588743,44.40526542,4.056072116,-0.000262094,-0.118463403,-1.2001066,19.74889489,2.293881292,-0.043095782,-0.017136572,31.50810612,120.4016938,11.66704963,45.02523,4.49929,-0.73848,31.50810227,120.4016926,11.7938867,0.027641058,-0.002704646,0.317567033
1573538018,31.50809934,120.401696,12.5395,-0.066654193,0.977178763,-19.89172239,44.12851635,-3.529988849,-0.00794576,45.74738,4.50842,-0.86437,1.727573037,0.078683001,19.19186348,2.410116677,0.1897144,0.014446972,44.70522385,4.168804687,0.00713576,-0.066654193,-0.977178763,20.73733932,2.287388386,0.06759269,0.024772754,31.50810878,120.4016926,11.66800179,45.31201,4.62057,-0.738,31.50810487,120.4016913,11.7943688,0.030288743,0.001128112,0.333540335
1573538018,31.50810211,120.4016947,12.5428,-0.438167101,0.850942363,-21.09262515,44.43564974,-3.653481356,-0.011243549,46.02724,4.64559,-0.86414,1.377315086,0.299203702,20.31962187,2.340729105,0.271794783,0.0126544,45.01050125,4.2968165,0.010433549,-0.438167101,-0.850942363,21.93824207,2.235685367,0.087977106,0.018872743,31.50811133,120.4016912,11.66823388,45.5812,4.75862,-0.74007,31.50810732,120.4016899,11.7923008,0.024252113,0.004977451,0.353178502
1573538018,31.50810451,120.4016935,12.5436,-0.554678256,0.801919577,-22.23719159,44.70175809,-3.768424381,-0.012041617,46.2951,4.78641,-0.86686,1.216717797,0.383018894,21.45252908,2.316129951,0.232216913,-0.040287723,45.27488426,4.415674304,0.011231617,-0.554678256,-0.801919577,23.08280852,2.225304276,0.034565313,-0.071020343,31.50811376,120.4016897,11.66551591,45.84117,4.90061,-0.74384,31.50810968,120.4016885,11.78853275,0.021640842,0.006501069,0.372949586
1573538018,31.50810709,120.4016922,12.541,-0.410099939,0.838992602,-23.68588853,44.98782453,-3.890966936,-0.009439523,46.5574,4.92676,-0.87357,1.33835841,0.347609118,22.7803504,2.292936026,0.201787902,-0.013285886,45.55911103,4.542425357,0.008629523,-0.410099939,-0.838992602,24.53150546,2.241755042,0.004519339,-0.007493908,31.50811614,120.4016883,11.65880791,46.09708,5.04196,-0.75132,31.50811201,120.401687,11.78105469,0.023604885,0.005708331,0.396039205
1573538019,31.50810943,120.4016908,12.5486,-0.488559069,0.560484276,-25.06994935,45.24728023,-4.018259216,-0.017037602,46.81314,5.07759,-0.8738,1.351746225,0.525469252,24.24341705,2.271581089,0.295456649,0.032423549,45.81665986,4.673532889,0.016227602,-0.488559069,-0.560484276,25.91556628,2.183050886,0.119443009,0.039566847,31.50811847,120.4016867,11.65857988,46.34774,5.19346,-0.7532,31.50811429,120.4016854,11.77917661,0.023756893,0.008846688,0.421508058
1573538019,31.5081117,120.4016894,12.5537,-0.70568904,0.599488658,-26.41123843,45.49897441,-4.154100977,-0.022135717,47.06033,5.2396,-0.87342,1.11637688,0.527985984,25.58457064,2.243198308,0.275195081,0.011342166,46.06632184,4.813074425,0.021325717,-0.70568904,-0.599488658,27.25685536,2.191834191,0.055002056,0.006445371,31.50812072,120.4016851,11.65896181,46.58917,5.3561,-0.75447,31.50811649,120.4016838,11.77790848,0.019674999,0.009023359,0.444768013
1573538019,31.50811413,120.4016879,12.5559,-0.48796975,0.728966367,-27.88381342,45.76840914,-4.294692442,-0.024333688,47.30533,5.39749,-0.87285,1.247318865,0.419627704,26.98221646,2.218749535,0.193937532,0.041089021,46.33365234,4.957626967,0.023523688,-0.48796975,-0.728966367,28.72943035,2.175744335,-0.001645415,-0.009896123,31.50812295,120.4016835,11.65953374,46.82747,5.51614,-0.75441,31.50811866,120.4016821,11.77797035,0.021582352,0.007096067,0.469402126
1573538019,31.50811637,120.4016865,12.5584,-0.294147716,0.764114582,-29.25286901,46.01677696,-4.431484132,-0.026831801,47.54772,5.55993,-0.87116,1.45572506,0.338382911,28.41310606,2.221395187,0.214414838,0.02091937,46.5799743,5.098069237,0.026021801,-0.294147716,-0.764114582,30.09848594,2.172899642,0.027811477,-0.004535312,31.50812516,120.4016818,11.66122566,47.06855,5.6796,-0.75307,31.50812085,120.4016804,11.77931225,0.025087138,0.005735808,0.494453513
1573538019,31.50811855,120.401685,12.5635,-0.188829365,0.863169504,-30.6282432,46.2584921,-4.577775253,-0.031929942,47.78942,5.73183,-0.86711,1.629112377,0.252986498,29.81113818,2.201720684,0.258868979,0.023871977,46.81950411,5.247911721,0.031119942,-0.188829365,-0.863169504,31.47386013,2.168251247,0.068190508,0.021263443,31.50812736,120.40168,11.6652776,47.30302,5.85228,-0.75107,31.50812299,120.4016787,11.78131412,0.028438216,0.004309737,0.518855373
1573538019,31.50812121,120.4016832,12.5459,-0.107378071,1.114085794,-32.24916589,46.55342874,-4.747814902,-0.014327663,48.0224,5.91101,-0.86315,1.676159036,0.112365129,31.30132198,2.189300149,0.252395055,0.024511437,47.11189914,5.422285604,0.013517663,-0.107378071,-1.114085794,33.09478282,2.159458405,0.087742714,-0.024727178,31.50812949,120.4016782,11.6692395,47.532,6.03273,-0.7482,31.50812508,120.4016768,11.78418598,0.029159303,0.002090749,0.544925337
1573538019,31.50812328,120.4016815,12.5458,-0.199735608,1.292429659,-33.6861468,46.78294722,-4.908355152,-0.014225856,48.25192,6.09977,-0.86366,1.571039582,-0.096244877,32.75622473,2.192341014,0.273069379,-0.014104555,47.33902333,5.586195664,0.013415856,-0.199735608,-1.292429659,34.53176373,2.141135342,0.035077866,-0.067289097,31.50813158,120.4016762,11.6687314,47.75518,6.22224,-0.75002,31.50812712,120.4016748,11.78236781,0.0277619,-0.001634075,0.570204182
1573538020,31.50812534,120.4016797,12.5446,-0.093946552,1.509006088,-35.19674433,47.01135692,-5.072695168,-0.013024041,48.47863,6.29108,-0.86439,1.773317941,-0.363019435,34.32715674,2.20470559,0.278055839,-0.036611282,47.56498278,5.753888712,0.012214041,-0.093946552,-1.509006088,36.04236126,2.17385625,0.063480423,-0.034554483,31.50813365,120.4016742,11.66800329,47.97336,6.41394,-0.75103,31.50812911,120.4016729,11.78135963,0.031418455,-0.006642238,0.597527348
1573538020,31.5081275,120.4016778,12.5489,-0.125268851,1.68523737,-36.76301935,47.25085451,-5.26173369,-0.017322112,48.69901,6.49284,-0.86285,1.770990546,-0.519872046,35.84780429,2.229162768,0.293049379,-0.007996361,47.80166441,5.946441215,0.016512112,-0.125268851,-1.68523737,37.60863628,2.190597566,0.122685974,-0.018262451,31.50813566,120.4016721,11.66954515,48.18698,6.61621,-0.75114,31.50813106,120.4016708,11.78125143,0.031367849,-0.009213878,0.623975339
1573538020,31.50812943,120.4016758,12.5566,-0.452043349,1.650467019,-38.30805005,47.46485009,-5.450772222,-0.025020358,48.90981,6.70784,-0.8609,1.536279854,-0.511729161,37.41099499,2.225551104,0.378165023,-0.022304011,48.0128468,6.138617362,0.024210358,-0.452043349,-1.650467019,39.15366698,2.177871236,0.13643959,-0.029364359,31.50813759,120.4016699,11.67149697,48.38821,6.83134,-0.75033,31.50813291,120.4016685,11.78206316,0.027382956,-0.009307038,0.651084116
1573538020,31.50813129,120.4016738,12.5547,-0.629574457,1.966057322,-39.96526546,47.67108411,-5.639810742,-0.023118649,49.10685,6.92539,-0.86208,1.343762563,-0.777469821,39.09370188,2.178429676,0.324696185,-0.050161233,48.21626848,6.33067895,0.022308649,-0.629574457,-1.966057322,40.81088238,2.145647486,0.096149309,-0.080908323,31.5081394,120.4016676,11.67031871,48.58022,7.04964,-0.75279,31.50813467,120.4016663,11.77960485,0.023801719,-0.013558294,0.680293379
1573538020,31.50813318,120.4016717,12.5582,-0.537269544,2.124998597,-41.58219026,47.88064452,-5.832649027,-0.026616901,49.30508,7.14398,-0.86078,1.375719742,-0.982414644,40.80225042,2.241543898,0.267150829,-0.010309901,48.42296011,6.526588981,0.025806901,-0.537269544,-2.124998597,42.42780719,2.224104246,0.071830223,-0.031118842,31.50814122,120.4016654,11.67162046,48.77075,7.26862,-0.75212,31.50813642,120.401664,11.78027654,0.024388149,-0.017360746,0.710020734
1573538020,31.50813569,120.4016694,12.5331,-0.369188651,2.073237231,-43.4222065,48.15894939,-6.053035579,-0.001514591,49.5025,7.37079,-0.85409,1.570817924,-0.941351388,42.40959755,2.258140124,0.281775654,0.003709906,48.69798214,6.751058828,0.000704591,-0.369188651,-2.073237231,44.26782342,2.241489813,0.028066157,-0.014319142,31.50814303,120.401663,11.67831224,48.96076,7.49711,-0.74703,31.50813816,120.4016616,11.78536824,0.027710703,-0.01668088,0.738141928
1573538020,31.50813753,120.4016672,12.541,-0.216420169,1.982663476,-45.1623662,48.36296593,-6.260122998,-0.009412842,49.69239,7.60415,-0.84695,1.759969392,-0.862240165,44.21889202,2.255086908,0.302303293,-0.002520255,48.89892022,6.961134623,0.008602842,-0.216420169,-1.982663476,46.00798312,2.233073165,0.109076408,-0.038369339,31.50814477,120.4016606,11.68545398,49.14478,7.73097,-0.74138,31.50813985,120.4016592,11.79101992,0.030944553,-0.015187844,0.769633088
