time,ins1000_lat,ins1000_lon,ins1000_alt,ins1000_roll,ins1000_pitch,ins1000_yaw,ins1000_ned_x,ins1000_ned_y,ins1000_ned_z,algo_pose_x,algo_pose_y,algo_pose_z,algo_roll,algo_pitch,algo_yaw,algo_vel_x,algo_vel_y,algo_vel_z,align_pose_x,align_pose_y,align_pose_z,align_roll,align_pitch,align_yaw,align_roll_by_manual,align_pitch_by_manual,align_yaw_by_manual,align_vel_x,align_vel_y,align_vel_z,algo_lat,algo_lon,algo_alt
1570520513,31.50709272,120.4032355,723.1128445,0.708639672,-0.216449073,112.6725565,0,0,0,0.299476098,0.036217092,-0.01590977,2.538372523,5.02476933,-0.014705352,0.671031785,0.071081515,0.042938632,0.299476098,0.036217092,-0.01590977,0.708639672,0.216449073,3.995999214,1.808639672,5.02476933,-0.014705352,0.857843561,-0.026475173,0.031670795,31.50709272,120.4032355,12.62070001
1570520513,31.50709202,120.4032373,723.4394304,0.711824938,-0.200559702,112.6726492,-0.077614906,0.169091704,-0.005699998,0.501817216,0.058641888,-0.018149373,2.516875844,5.107986338,0.008268759,0.86806212,0.093462277,0.058595732,0.485415255,0.042752226,-0.010209772,0.711824938,0.200559702,3.995906529,1.811824938,5.008879959,-0.014798037,0.993190319,-0.028741453,0.034636532,31.50709208,120.4032375,12.6184604
1570520514,31.50709102,120.4032396,721.7835824,0.661073189,-0.165383351,112.6411597,-0.188493342,0.392330747,0.023200015,0.8256264,0.055970678,0.00159561,2.44651649,5.316106651,0.077107941,1.080752356,0.077534484,0.108138802,0.734671065,0.043865356,-0.039109784,0.661073189,0.165383351,4.027396076,1.761073189,4.973703608,0.01669151,1.15768617,-0.035600696,0.032854708,31.50709075,120.4032406,12.63820541
1570520514,31.50709008,120.403242,722.0987092,0.689655346,-0.1462717,112.6316976,-0.292719065,0.61841966,0.017700036,1.070146703,0.071597222,-0.014449677,2.443317402,6.0912256,0.100224365,1.242116295,0.070878209,0.113418444,0.983487642,0.05220257,-0.033609806,0.689655346,0.1462717,4.036858161,1.789655346,4.954591957,0.026153595,1.325717982,-0.053955603,0.029836143,31.50708989,120.4032429,12.62216015
1570520514,31.50708901,120.4032447,722.4367543,0.683311363,-0.136588684,112.6063379,-0.411358978,0.87585704,0.011800073,1.35297939,0.085673973,-0.029736509,2.443530504,6.42631766,0.157118901,1.4078866,0.094187942,0.1282762,1.266787269,0.061729097,-0.027709842,0.683311363,0.136588684,4.062217872,1.783311363,4.944908941,0.051513306,1.504205453,-0.044610563,0.034320457,31.50708885,120.4032457,12.60687335
1570520514,31.50708782,120.4032478,722.7977177,0.635709802,-0.126875878,112.5746644,-0.543304295,1.166542799,0.00550013,1.674937212,0.106412278,-0.049209537,2.386596121,6.845290941,0.182067023,1.59256479,0.094156037,0.142158094,1.585770087,0.074288502,-0.0214099,0.635709802,0.126875878,4.093891352,1.735709802,4.935196135,0.083186786,1.690629587,-0.064108043,0.035957309,31.50708772,120.4032488,12.58740039
1570520514,31.50708645,120.4032512,723.1815994,0.680238482,-0.110723017,112.5333927,-0.695207719,1.491426891,-0.001199787,2.039942916,0.126057764,-0.084220053,2.499380903,7.507875343,0.231680247,1.791051107,0.098323743,0.159422279,1.944270916,0.084362179,-0.014709982,0.680238482,0.110723017,4.135163057,1.780238482,4.919043274,0.124458491,1.89566486,-0.079671684,0.039112034,31.5070864,120.4032523,12.55238996
1570520515,31.50708487,120.4032553,721.6575317,0.693077363,-0.170698131,112.4662769,-0.870395588,1.87995787,0.025400336,2.438093616,0.14737651,-0.116089362,2.616021036,7.91822233,0.278028518,1.94833637,0.116834226,0.174101025,2.370098466,0.102195006,-0.041310106,0.693077363,0.170698131,4.202278821,1.793077363,4.979018388,0.191574255,2.063196451,-0.075156741,0.042859189,31.50708496,120.4032562,12.52052077
1570520515,31.50708328,120.4032594,722.0013064,0.690058338,-0.227660795,112.4246213,-1.046692232,2.264689056,0.019400488,2.855939633,0.167108416,-0.151580503,2.845302858,8.272834028,0.357899368,2.041242768,0.119758323,0.184302684,2.793028101,0.117331555,-0.035310258,0.690058338,0.227660795,4.243934412,1.790058338,5.035981052,0.233229846,2.16364462,-0.078072778,0.038240406,31.50708343,120.4032602,12.48502979
1570520515,31.50708163,120.4032636,722.3336219,0.636254865,-0.2911234,112.3925808,-1.229641565,2.669369281,0.013600678,3.265750957,0.188437286,-0.184008269,2.840786921,8.44651762,0.363081195,2.139765332,0.14355215,0.19048071,3.236770472,0.135476843,-0.029510447,0.636254865,0.2911234,4.275974911,1.736254865,5.099443657,0.265270345,2.269663446,-0.068015189,0.040990573,31.50708194,120.4032641,12.4526022
1570520515,31.5070799,120.4032681,722.6086416,0.601469794,-0.300384813,112.3258823,-1.421461151,3.092098639,0.008800908,3.702372593,0.216779857,-0.210247898,2.789723874,8.431913708,0.435359381,2.241235097,0.126218741,0.191786358,3.700623094,0.153796483,-0.024710677,0.601469794,0.300384813,4.342673414,1.701469794,5.10870507,0.331968848,2.375238396,-0.094195029,0.033643724,31.5070804,120.4032684,12.42636279
1570520515,31.50707806,120.4032728,722.889391,0.649278995,-0.309563727,112.284387,-1.625477341,3.538576853,0.003901189,4.1673352,0.243680616,-0.243308176,2.831797255,8.492634492,0.467082066,2.380905426,0.135670877,0.20400319,4.191172302,0.171876187,-0.019810958,0.649278995,0.309563727,4.384168746,1.749278995,5.117883984,0.37346418,2.520813484,-0.097665625,0.043729811,31.50707874,120.4032729,12.39330277
1570520516,31.50707613,120.403278,721.3022979,0.662337088,-0.327981168,112.1761956,-1.839472542,4.037302517,0.031601542,4.659554236,0.270706356,-0.27530753,2.869495415,8.566252632,0.507556575,2.490119043,0.13869694,0.220567756,4.73288963,0.204488621,-0.047511311,0.662337088,0.327981168,4.492360129,1.762337088,5.136301425,0.481655563,2.644648092,-0.098579649,0.038781572,31.50707696,120.4032776,12.36130374
1570520516,31.50707412,120.4032832,721.5257514,0.646559436,-0.324667126,112.1444511,-2.062338003,4.535078267,0.027701946,5.175300944,0.303434726,-0.309040822,2.854619293,8.558646513,0.521194578,2.636335011,0.1713828,0.228467313,5.277739325,0.228748083,-0.043611715,0.646559436,0.324667126,4.524104669,1.746559436,5.132987383,0.513400103,2.79941215,-0.084641891,0.032320503,31.50707514,120.4032826,12.32757082
1570520516,31.50707204,120.4032888,721.7434754,0.541982893,-0.353372815,112.0683771,-2.292964919,5.058502791,0.023902418,5.71943392,0.341108348,-0.341533476,2.76523471,8.609872581,0.580657146,2.746969924,0.171542335,0.245283221,5.848992784,0.257583675,-0.039812188,0.541982893,0.353372815,4.600178646,1.641982893,5.161693072,0.58947408,2.913524574,-0.093407548,0.037355034,31.50707324,120.4032879,12.29507861
1570520516,31.50706984,120.4032945,721.9153627,0.561177034,-0.340306846,112.0206608,-2.536897212,5.60187637,0.020902964,6.28400559,0.373190992,-0.380262959,2.846524416,8.678327887,0.632342688,2.873918388,0.161525107,0.241536943,6.444044909,0.283483053,-0.036812733,0.561177034,0.340306846,4.647894966,1.661177034,5.148627103,0.6371904,3.04472344,-0.111230869,0.028275209,31.50707121,120.4032934,12.25634963
1570520516,31.50706757,120.4033004,722.1158979,0.586937126,-0.378072383,111.9695738,-2.788590952,6.168048868,0.017403592,6.867217688,0.403746176,-0.423863687,2.941576394,8.756320076,0.694286576,2.962666429,0.168536851,0.259148312,7.062954116,0.31267947,-0.033313361,0.586937126,0.378072383,4.698981939,1.686937126,5.18639264,0.688277373,3.143016046,-0.111229389,0.044682085,31.5070691,120.403299,12.21274948
1570520517,31.50706543,120.4033066,719.955847,0.566614458,-0.571260991,111.8034238,-3.025870436,6.748470645,0.055104288,7.454278612,0.440990348,-0.461286325,2.899955376,8.868651286,0.795725399,2.918592651,0.158882033,0.258887037,7.688127201,0.361152208,-0.071014057,0.566614458,0.571260991,4.86513193,1.666614458,5.379581248,0.854427364,3.103067529,-0.103930924,0.047970731,31.50706702,120.4033047,12.17532748
1570520517,31.5070632,120.4033125,720.0532499,0.594657899,-0.469139647,111.762499,-3.273128975,7.313693235,0.053405033,8.034675525,0.480358874,-0.499835951,2.820093777,8.764715989,0.831133358,2.879847524,0.172872877,0.253899881,8.304196907,0.393885654,-0.069314802,0.594657899,0.469139647,4.906056776,1.694657899,5.277459904,0.89535221,3.072685139,-0.090414486,0.035200377,31.50706499,120.4033104,12.13677853
1570520517,31.50706099,120.4033184,720.2079485,0.607771326,-0.487799241,111.7051159,-3.518169918,7.877965898,0.050705834,8.614760008,0.520434285,-0.539721612,2.711796544,8.762967938,0.886047544,2.858919377,0.170047984,0.241292853,8.918422421,0.42817443,-0.066615604,0.607771326,0.487799241,4.963439814,1.707771326,5.296119498,0.952735248,3.055697863,-0.092142761,0.034695559,31.50706296,120.403316,12.0968936
1570520517,31.50705879,120.4033244,720.1850302,0.552428925,-0.3035854,111.6395264,-3.762102039,8.4460384,0.051106702,9.199103478,0.565939167,-0.581009518,2.522951281,8.596080124,0.928048009,2.93443537,0.188090194,0.241984113,9.535545867,0.465159545,-0.067016471,0.552428925,0.3035854,5.029029358,1.652428925,5.111905657,1.018324792,3.142710797,-0.090319139,0.022323935,31.50706096,120.4033217,12.05560649
1570520517,31.50705654,120.4033305,720.4543203,0.623462719,-0.407576965,111.5910167,-4.011578046,9.023610473,0.046407644,9.79906872,0.613987198,-0.630523847,2.006556262,8.796951651,0.981599751,2.930720784,0.174944615,0.254643806,10.16364656,0.501454224,-0.062317414,0.623462719,0.407576965,5.077539038,1.723462719,5.215897222,1.066834472,3.133617227,-0.099423469,0.045976697,31.50705892,120.4033276,12.00609303
1570520518,31.50705432,120.4033368,718.1223821,0.634673673,-0.219374617,111.4839912,-4.257727621,9.620181582,0.087108676,10.40489289,0.663397495,-0.674265952,1.559361998,8.611025601,1.030114761,3.033904672,0.19923771,0.249817722,10.80723212,0.549248774,-0.103018445,0.634673673,0.219374617,5.184564543,1.734673673,5.027694874,1.173859977,3.237177618,-0.080097805,-0.0005183,31.50705687,120.4033335,11.96235186
1570520518,31.50705199,120.4033432,718.2083258,0.583525321,-0.184672639,111.4334822,-4.5160738,10.23290201,0.085609807,11.03805104,0.729444875,-0.709419267,0.872476417,8.546697929,1.046461168,3.209649828,0.222810584,0.280686244,11.47072319,0.593392496,-0.101519576,0.583525321,0.184672639,5.235073543,1.683525321,4.992992896,1.224368977,3.413618003,-0.09250341,0.028046243,31.50705484,120.4033398,11.92719958
1570520518,31.50704951,120.40335,718.2828103,0.643872103,-0.171009821,111.3762253,-4.791051676,10.8779209,0.084311073,11.7095442,0.796644529,-0.744376515,-0.230760014,8.54884754,1.084308906,3.400588376,0.226130844,0.304160744,12.17054153,0.637170316,-0.100220843,0.643872103,0.171009821,5.292330484,1.743872103,4.979330078,1.281625918,3.603594146,-0.106056482,0.015348412,31.50705266,120.4033464,11.89224351
1570520518,31.50704689,120.4033572,718.3401061,0.707204909,-0.141361437,111.3190747,-5.08155245,11.56093801,0.083312501,12.41880954,0.860500465,-0.776156759,-0.864357834,8.535643558,1.117052578,3.620750301,0.244204253,0.344798731,12.91128287,0.684131282,-0.099222271,0.707204909,0.141361437,5.349481037,1.807204909,4.949681694,1.338776471,3.819051558,-0.110225437,0.013784012,31.5070503,120.4033534,11.86046458
1570520518,31.50704425,120.4033645,718.3630244,0.71970365,-0.118712356,111.2778876,-5.374270741,12.25060482,0.082914027,13.16595603,0.927725422,-0.805102002,-0.986519986,8.379673104,1.130373844,3.855263829,0.275478959,0.375008294,13.6589618,0.732095217,-0.098823797,0.71970365,0.118712356,5.390668167,1.81970365,4.927032613,1.379963601,4.054145555,-0.11800123,0.019283623,31.50704782,120.4033608,11.83152081
1570520519,31.50704141,120.4033729,721.8809852,0.744162103,-0.031968755,111.1798691,-5.689164588,13.05236639,0.02151589,13.96361525,0.988970134,-0.858562051,-0.670830561,8.415142087,1.137594522,4.080940389,0.28591348,0.387632762,14.51676362,0.810554014,-0.03742566,0.744162103,0.031968755,5.488686632,1.844162103,4.840289012,1.477982066,4.284156572,-0.118440086,0.042032205,31.50704509,120.4033685,11.77806243
1570520519,31.50703834,120.4033815,722.304974,0.718295524,0.006045851,111.1482531,-6.029560352,13.86647734,0.014117922,14.79709039,1.068299795,-0.912683403,-0.689102456,8.42722705,1.161297338,4.315209519,0.315495357,0.411015432,15.39704706,0.871766599,-0.030027691,0.718295524,-0.006045851,5.520302702,1.818295524,4.802274406,1.509598136,4.533136901,-0.118718975,0.043713395,31.50704235,120.4033768,11.72394293
1570520519,31.50703508,120.4033905,722.7404219,0.7814403,0.035917581,111.0817619,-6.391022895,14.72523621,0.006520198,15.69395837,1.13495939,-0.980715333,-0.433667392,8.513115905,1.250497523,4.564275063,0.304398297,0.417587853,16.32668405,0.9341928,-0.022429967,0.7814403,-0.035917581,5.58679384,1.8814403,4.772402676,1.576089274,4.788728817,-0.148432423,0.04082621,31.50703926,120.4033855,11.65591311
1570520519,31.50703165,120.4034001,723.2904614,0.76660366,-0.043572299,111.0558448,-6.771334633,15.63149288,-0.003077254,16.64402971,1.206395033,-1.079326299,0.019547521,8.859500654,1.284453733,4.79668402,0.344673001,0.454511562,17.30722598,1.001093395,-0.012832516,0.76660366,0.043572299,5.61271101,1.86660366,4.851892556,1.602006444,5.026945037,-0.129915564,0.054966013,31.50703599,120.4033948,11.55730452
1570520519,31.50702809,120.4034101,723.8233122,0.68752784,-0.069832113,111.0144046,-7.166060422,16.58049757,-0.012374428,17.63335734,1.278152791,-1.171570524,0.158477023,9.068793569,1.32504571,5.013667693,0.331169886,0.464398629,18.33243774,1.074299875,-0.003535342,0.68752784,0.069832113,5.654151192,1.78752784,4.87815237,1.643446626,5.242327194,-0.153093002,0.050630044,31.50703256,120.4034044,11.46506292
1570520520,31.50702454,120.4034203,723.9780108,0.781419106,0.036978699,110.925955,-7.559677293,17.55420111,-0.015071368,18.65560599,1.351647548,-1.266575631,0.378827933,9.178220152,1.370977747,5.203788588,0.320257801,0.479465534,19.37922313,1.159582858,-0.000838402,0.781419106,-0.036978699,5.742600757,1.881419106,4.771341558,1.731896191,5.421274673,-0.169945529,0.056724098,31.50702902,120.4034144,11.37006069
1570520520,31.50702072,120.403431,724.6712897,0.745953836,0.068405447,110.9007713,-7.98323118,18.57445256,-0.027167963,19.71335718,1.430298452,-1.360991912,0.633571919,9.232290245,1.380131172,5.375550053,0.351654875,0.489259004,20.48104115,1.239005623,0.011258193,0.745953836,-0.068405447,5.767784472,1.845953836,4.73991481,1.757079906,5.609421045,-0.15084905,0.053271365,31.50702537,120.4034247,11.27564756
1570520520,31.50701678,120.4034421,725.4046757,0.742362705,0.094148467,110.8436837,-8.42009032,19.62700257,-0.039964249,20.81271249,1.515691586,-1.466072083,0.579648328,9.424184086,1.436840287,5.55273219,0.326703725,0.511435907,21.61769351,1.321035094,0.02405448,0.742362705,-0.094148467,5.824872086,1.842362705,4.71417179,1.81416752,5.785556646,-0.186662805,0.065517219,31.50702161,120.4034355,11.17057084
1570520520,31.50701271,120.4034535,726.2469236,0.863322684,0.080326417,110.8183049,-8.871363495,20.70995124,-0.054660213,21.93566588,1.597496357,-1.564174565,0.781279251,9.55087197,1.477113966,5.706007773,0.341222624,0.520744505,22.78798009,1.403827716,0.038750443,0.863322684,-0.080326417,5.850250876,1.963322684,4.72799384,1.83954631,5.947790809,-0.177178378,0.061138024,31.50701772,120.4034464,11.07247209
1570520520,31.50700855,120.4034653,726.9688505,0.836349448,-0.021391953,110.7602903,-9.332615547,21.82614842,-0.067255835,23.09490248,1.688000244,-1.667932189,0.816699024,9.742645902,1.523728891,5.875429235,0.342928799,0.517940238,23.99245694,1.492625917,0.051346065,0.836349448,0.021391953,5.908265478,1.936349448,4.82971221,1.897560912,6.119918129,-0.187843497,0.058933079,31.50701376,120.4034577,10.96871853
1570520521,31.50700459,120.4034772,727.5819153,0.868134312,-0.207784746,110.6762469,-9.77169176,22.95564501,-0.077951212,24.27772825,1.777242907,-1.774463323,0.906615007,10.01935472,1.545169491,6.010272383,0.358466445,0.57015716,25.19886523,1.607210001,0.062041442,0.868134312,0.207784746,5.992308885,1.968134312,5.016105003,1.981604319,6.248143466,-0.173514757,0.100900206,31.50700969,120.4034693,10.86219175
1570520521,31.50700028,120.4034894,728.3153013,0.878342829,-0.242262175,110.6346522,-10.24957522,24.12313997,-0.090746156,25.48188784,1.872512667,-1.87267144,0.955079595,10.04078033,1.585276531,6.114560175,0.358440555,0.573999447,26.45664734,1.70416999,0.074836386,0.878342829,0.242262175,6.033903564,1.978342829,5.050582432,2.023198998,6.361666255,-0.177548999,0.081130728,31.50700558,120.4034811,10.7639883
1570520521,31.5069959,120.403502,728.9111774,0.815351455,-0.090487262,110.5945539,-10.73521998,25.3143839,-0.101140739,26.70047412,1.974739086,-1.974250977,0.957880637,9.923853657,1.615578397,6.241916267,0.37927366,0.569817516,27.73913545,1.804853567,0.08523097,0.815351455,0.090487262,6.074001845,1.915351455,4.898807519,2.063297279,6.50681166,-0.178914415,0.068629207,31.50700147,120.403493,10.66241372
1570520521,31.50699142,120.4035148,729.6560225,0.805964818,-0.096896377,110.5785708,-11.23195239,26.53317667,-0.114134932,27.96149759,2.07698761,-2.08269853,0.958408272,9.973190725,1.641369744,6.3696119,0.387107941,0.605872341,29.05121815,1.907993733,0.098225162,0.805964818,0.096896377,6.089985001,1.905964818,4.905216634,2.079280435,6.635919965,-0.176054812,0.089407808,31.50699719,120.4035054,10.55397154
1570520521,31.50698687,120.4035279,730.5326479,0.783488259,-0.084411611,110.5533098,-11.73644609,27.7747685,-0.129428738,29.26127465,2.181943226,-2.203060327,0.852379778,10.1114254,1.665103486,6.500438963,0.394182747,0.61422191,30.38715798,2.014431139,0.113518969,0.783488259,0.084411611,6.115246011,1.883488259,4.892731868,2.104541445,6.761258317,-0.17688168,0.079787319,31.50699278,120.4035181,10.43361555
1570520522,31.5069823,120.403541,728.7679379,0.750343494,-0.176706194,110.4795239,-12.24315712,29.0154103,-0.098622264,30.5789666,2.285823372,-2.33105026,0.845789832,10.29208748,1.7125228,6.589615534,0.380255605,0.626308159,31.72324406,2.118460691,0.082712495,0.750343494,0.176706194,6.189031847,1.850343494,4.985026451,2.178327281,6.824491575,-0.190271697,0.095947807,31.50698828,120.403531,10.30563177
1570520522,31.50697768,120.4035542,729.5070535,0.861811039,-0.517612529,110.4354764,-12.75541196,30.27600147,-0.111515404,31.88929355,2.386692962,-2.446344534,0.999748411,10.61581978,1.76418572,6.513700964,0.393786098,0.662671571,33.07964547,2.226490058,0.095605634,0.861811039,0.517612529,6.233079369,1.961811039,5.325932786,2.222374803,6.763709449,-0.159370892,0.11681777,31.50698379,120.4035438,10.19034389
1570520522,31.50697316,120.4035674,730.1946028,0.804273189,-0.334343397,110.4370226,-13.25657883,31.52519328,-0.123508329,33.18151612,2.493234203,-2.54099473,0.999466839,10.31687622,1.756634636,6.467408012,0.375398996,0.624645486,34.4208836,2.339311467,0.10759856,0.804273189,0.334343397,6.231533114,1.904273189,5.142663654,2.220828548,6.725303327,-0.163029673,0.089943327,31.50697942,120.4035564,10.09570026
1570520522,31.50696864,120.4035805,730.5784846,0.774160118,-0.410774151,110.3699237,-13.75774554,32.77343524,-0.130200979,34.47200046,2.599789409,-2.645478338,1.024485496,10.2927635,1.813166278,6.450775014,0.39060468,0.618279235,35.76127286,2.451706691,0.114291209,0.774160118,0.410774151,6.298632099,1.874160118,5.219094408,2.287927533,6.712545713,-0.145969902,0.101108264,31.50697505,120.4035691,9.991223478
1570520522,31.50696412,120.4035937,731.495217,0.756240726,-0.465050884,110.3536786,-14.25891212,34.02642713,-0.146193316,35.76765297,2.712634372,-2.738847799,1.017242175,10.25677878,1.816248366,6.45034089,0.362022242,0.626182325,37.10590669,2.566233955,0.130283547,0.756240726,0.465050884,6.31487712,1.856240726,5.273371141,2.304172554,6.720837543,-0.178038256,0.110113196,31.50697072,120.4035818,9.897861134
1570520523,31.50695961,120.4036072,728.4241633,0.647356674,-0.108420868,110.4293451,-14.7589695,35.3060175,-0.092585227,37.07323571,2.824432268,-2.850033195,0.963919421,9.917595866,1.732647726,6.535224728,0.386481148,0.598101279,38.47381155,2.693690562,0.076675457,0.647356674,0.108420868,6.239210706,1.747356674,4.916741125,2.22850614,6.819697971,-0.146243315,0.047960354,31.50696633,120.4035946,9.786683179
1570520523,31.50695499,120.4036206,729.0486873,0.629931824,-0.204658668,110.5273981,-15.27122351,36.58465843,-0.103476818,38.41176196,2.913285595,-2.985473459,1.002889812,10.16579397,1.672027184,6.66943125,0.341937142,0.632782741,39.84634217,2.809821915,0.087567048,0.629931824,0.204658668,6.141157669,1.729931824,5.012978925,2.130453103,6.942456974,-0.174121796,0.082518003,31.50696163,120.4036076,9.65125081
1570520523,31.50695049,120.4036336,729.5987267,0.692037355,-0.134434357,110.6675839,-15.77017212,37.81580169,-0.113068424,39.74477831,3.019002391,-3.08286081,1.10735045,10.04766598,1.563494195,6.765374274,0.342877533,0.638767435,41.17045618,2.916524897,0.097158655,0.692037355,0.134434357,6.000971811,1.792037355,4.942754614,1.990267245,7.045113701,-0.173257936,0.071828138,31.50695709,120.4036207,9.55387161
1570520523,31.50694543,120.4036482,730.1602254,0.61608469,0.034948136,110.8497649,-16.33121193,39.20178795,-0.122858647,41.11167621,3.108344981,-3.193244425,1.135402888,9.859670971,1.42613793,6.922173636,0.356811185,0.626980171,42.66080897,3.037240047,0.106948878,0.61608469,-0.034948136,5.818790865,1.71608469,4.773372121,1.808086299,7.205887229,-0.158503375,0.0482118,31.50695227,120.4036339,9.443496638
1570520523,31.50694043,120.4036624,730.7503719,0.659774217,-0.130612718,111.0140715,-16.88559898,40.55262602,-0.133148759,42.51248921,3.210453848,-3.29812754,1.150065278,9.958910382,1.294769512,7.089741212,0.333023664,0.644395651,44.11676676,3.148124697,0.11723899,0.659774217,0.130612718,5.654484223,1.759774217,4.938932975,1.643779657,7.380939723,-0.177597979,0.073375825,31.50694743,120.4036476,9.338622686
1570520524,31.50693504,120.4036773,728.034552,0.635683636,-0.259225326,111.2199529,-17.48322806,41.96331118,-0.085738026,43.96012682,3.31511259,-3.391336208,1.130748903,9.949529126,1.161805673,7.220315636,0.347893291,0.684711141,45.64561324,3.2472286,0.069828256,0.635683636,0.259225326,5.448602816,1.735683636,5.067545583,1.43789825,7.524002133,-0.16272108,0.070551355,31.50694241,120.4036617,9.245423816
1570520524,31.5069298,120.403692,728.2751942,0.547850343,-0.111739446,111.3925758,-18.06422535,43.36544718,-0.089927029,45.42229916,3.41187646,-3.48593403,1.103161062,9.618679062,1.014359739,7.354578532,0.358309271,0.671188656,47.15935521,3.357357851,0.074017259,0.547850343,0.111739446,5.275979986,1.647850343,4.920059703,1.26527542,7.656279068,-0.162527736,0.052887977,31.50693727,120.4036759,9.150836219
1570520524,31.5069244,120.403707,728.7679379,0.544686005,-0.128485893,111.5672269,-18.66296291,44.79323223,-0.09851544,46.91115836,3.49455441,-3.605090959,1.088054102,9.638788601,0.832912517,7.504341176,0.313943408,0.664786783,48.70397997,3.463146113,0.08260567,0.544686005,0.128485893,5.101328871,1.644686005,4.93680615,1.090624305,7.80596834,-0.203870778,0.062445939,31.50693191,120.4036903,9.031690039
1570520524,31.50691913,120.4037215,729.3065183,0.627069458,-0.128811334,111.7642285,-19.24728632,46.16591998,-0.107903917,48.39698935,3.569417385,-3.718314628,1.234031217,9.612853117,0.646925756,7.582135295,0.360225981,0.715331005,50.19289933,3.557085872,0.091994148,0.627069458,0.128811334,4.904327224,1.727069458,4.937131591,0.893622658,7.914024613,-0.158859506,0.086936165,31.5069265,120.4037047,8.918477442
1570520524,31.5069135,120.4037369,729.7820732,0.603561507,0.048045954,111.9463569,-19.87152538,47.62885382,-0.116191248,49.88919906,3.654561058,-3.831477042,1.231932192,9.416351851,0.439881038,7.660982685,0.338609488,0.678111327,51.78037948,3.655861325,0.100281479,0.603561507,-0.048045954,4.722198882,1.703561507,4.760274303,0.711494316,8.008328111,-0.197645937,0.049469288,31.50692114,120.4037191,8.805326499
1570520525,31.50690716,120.4037539,728.0803886,0.683538172,-0.051298064,112.1618817,-20.5744871,49.23998093,-0.086476788,51.41361094,3.725295067,-3.951830852,1.353389786,9.50104324,0.275656115,7.771661066,0.366210572,0.695224389,53.53562077,3.750802186,0.070567019,0.683538172,0.051298064,4.506674102,1.783538172,4.859618321,0.495969536,8.169486076,-0.161789206,0.056548448,31.50691554,120.4037338,8.684984762
1570520525,31.50690156,120.403769,728.5674027,0.623537302,-0.230409869,112.3262053,-21.19539951,50.67441646,-0.094963522,52.9576208,3.807011021,-4.076308088,1.257014744,9.679948065,0.099773623,7.860841151,0.378637389,0.709280398,55.09614123,3.839759533,0.079053753,0.623537302,0.230409869,4.342350483,1.723537302,5.038730126,0.331645917,8.276490063,-0.162832945,0.07276,31.50690995,120.4037487,8.560520132
1570520525,31.50689527,120.4037858,728.8366929,0.588288658,-0.323602554,112.5069652,-21.89281698,52.27699462,-0.099648235,54.53525811,3.880387899,-4.198863389,1.197172578,9.731230454,-0.053330212,7.935977441,0.370592531,0.711325714,56.8412546,3.935817814,0.083738465,0.588288658,0.323602554,4.161590605,1.688288658,5.131922811,0.150886039,8.3630846,-0.172805701,0.06581262,31.50690416,120.4037639,8.437978094
1570520525,31.50688916,120.403802,729.0486873,0.638711934,-0.235485171,112.6725825,-22.57027642,53.81687583,-0.103333069,56.15801682,3.965166531,-4.319301215,1.235616559,9.570222827,-0.204365998,8.030345728,0.395186964,0.711379787,58.52138312,4.021570768,0.087423299,0.638711934,0.235485171,3.995973239,1.738711934,5.043805428,-0.014731327,8.455690125,-0.156851818,0.053904996,31.50689827,120.4037795,8.317554323
1570520525,31.50688327,120.4038176,729.3408957,0.60038772,-0.178869693,112.7873653,-23.22334269,55.29690992,-0.108418067,57.81140167,4.044854564,-4.433525134,1.148986587,9.443359013,-0.344113785,8.160928568,0.41145125,0.717586802,60.13708285,4.10226079,0.092508297,0.60038772,0.178869693,3.881190454,1.70038772,4.98718995,-0.129514112,8.569096079,-0.160476404,0.060636695,31.50689222,120.4037955,8.203345146
1570520526,31.50687622,120.4038348,727.7881801,0.667079941,-0.258368172,112.7804556,-24.00502677,56.93368729,-0.081300773,59.48540262,4.111271696,-4.542343205,1.148607995,9.401656188,-0.412684605,8.25885656,0.428177675,0.736718045,61.95057851,4.138366518,0.065391003,0.667079941,0.258368172,3.888100163,1.767079941,5.066688429,-0.122604403,8.690695681,-0.178125943,0.06976872,31.50688598,120.4038115,8.094542429
1570520526,31.50686949,120.4038525,728.1204956,0.616147572,-0.223651206,112.8379609,-24.75122937,58.61131308,-0.08708273,61.11028183,4.175284109,-4.671476019,1.169624662,9.376017433,-0.463300451,8.313845378,0.43235128,0.734502638,63.78465195,4.224513062,0.071172961,0.616147572,0.223651206,3.830594853,1.716147572,5.031971463,-0.180109713,8.78124119,-0.175315995,0.064366523,31.50687992,120.4038271,7.965424939
1570520526,31.50686334,120.4038686,728.4069745,0.568229521,-0.296863367,112.8790084,-25.43312305,60.14454547,-0.092065775,62.77630858,4.238492474,-4.788470194,1.131538765,9.36991772,-0.494357488,8.393012969,0.435629908,0.726026837,65.46082919,4.303319321,0.076156005,0.568229521,0.296863367,3.78954739,1.668229521,5.105183624,-0.221157176,8.879097986,-0.169011829,0.068984999,31.50687368,120.4038431,7.848446906
1570520526,31.50685648,120.4038866,728.7221013,0.590293543,-0.351064897,112.9041056,-26.19373915,61.85447031,-0.097546347,64.43994133,4.344028886,-4.965930711,1.23607719,9.616985139,-0.577289604,8.432020619,0.471907447,0.740446983,67.33023482,4.391082451,0.081636577,0.590293543,0.351064897,3.764450116,1.690293543,5.159385154,-0.24625445,8.933725846,-0.171961874,0.072215497,31.5068678,120.4038592,7.671002968
1570520526,31.50685022,120.403903,728.8939887,0.622264216,-0.274869535,112.9044215,-26.88782882,63.41145208,-0.100528171,66.16647999,4.367018584,-5.039350738,1.227520994,9.322103152,-0.480395818,8.512514208,0.428935859,0.74490942,69.03310884,4.469649551,0.084618401,0.622264216,0.274869535,3.764134284,1.722264216,5.083189792,-0.246570282,9.011089502,-0.17247576,0.067807344,31.506861,120.4038756,7.597600553
1570520527,31.50684296,120.4039208,726.5792392,0.714663798,-0.227017932,112.8377476,-27.69279569,65.10047818,-0.060107712,67.91059033,4.438523225,-5.186696047,1.422960792,9.182730419,-0.476501836,8.579079765,0.450411798,0.722837108,70.90374489,4.508400088,0.044197943,0.714663798,0.227017932,3.830808118,1.814663798,5.035338189,-0.179896448,9.08788374,-0.192011754,0.059108002,31.50685451,120.4038923,7.45027354
1570520527,31.50683623,120.4039384,726.8427997,0.749439183,-0.300341268,112.8626317,-28.43899705,66.76670567,-0.064687207,69.57941035,4.520408368,-5.34081562,1.50028429,9.236223887,-0.469130731,8.60253736,0.428906195,0.702274261,72.72763204,4.589431866,0.048777437,0.749439183,0.300341268,3.80592402,1.849439183,5.108661525,-0.204780546,9.164148294,-0.215069344,0.086259323,31.50684842,120.4039084,7.296171929
1570520527,31.50682946,120.403956,727.0949012,0.80321112,-0.361130814,112.9033828,-29.18963323,68.44053307,-0.069066077,71.42177259,4.568698834,-5.446249918,1.575868728,9.305303611,-0.451351312,8.675842928,0.45441002,0.748068519,74.5603011,4.669911668,0.053156307,0.80321112,0.361130814,3.76517297,1.90321112,5.169451071,-0.245531596,9.178630584,-0.170771923,0.075454591,31.50684135,120.403926,7.190757941
1570520527,31.5068227,120.4039737,727.2610589,0.771546301,-0.313379683,112.9038041,-29.9391603,70.12101039,-0.071944352,73.08348583,4.631166851,-5.547973449,1.401805582,9.309045762,-0.415902684,8.665173443,0.415062214,0.756393923,76.39841483,4.754367258,0.056034582,0.771546301,0.313379683,3.764751663,1.871546301,5.12169994,-0.245952903,9.227936929,-0.196447203,0.071624825,31.50683513,120.4039419,7.0890532
1570520527,31.50681589,120.4039914,727.4272167,0.767861106,-0.453487079,112.9441933,-30.69423096,71.81003759,-0.074821974,74.88128649,4.667961226,-5.65371298,1.424523273,9.328942415,-0.398916376,8.717918536,0.395587339,0.780588328,78.24665702,4.837706429,0.058912204,0.767861106,0.453487079,3.72436243,1.867861106,5.261807336,-0.286342136,9.264003982,-0.180053425,0.090746234,31.50682814,120.403959,6.983334462
1570520528,31.50680853,120.4040095,725.5937518,0.803109913,-0.402446573,112.9030935,-31.51028412,73.52756376,-0.042798427,76.48469325,4.804607784,-5.862020344,1.536723525,9.446825582,-0.447755177,8.639997172,0.443324501,0.73083758,80.14773708,4.879341709,0.026888657,0.803109913,0.402446573,3.765462217,1.903109913,5.21076683,-0.245242349,9.288006672,-0.209997565,0.065589997,31.50682276,120.4039747,6.775046146
1570520528,31.50680165,120.4040274,725.6968842,0.831918766,-0.300994449,112.9291639,-32.27311565,75.22514112,-0.04457482,78.26552196,4.805715603,-5.924374725,1.457225664,9.232375705,-0.402736157,8.677816601,0.388407226,0.775791983,82.00710313,4.959583182,0.02866505,0.831918766,0.300994449,3.739391846,1.931918766,5.109314706,-0.27131272,9.32386614,-0.204763522,0.076563343,31.50681556,120.4039915,6.712713283
1570520528,31.50679476,120.4040454,725.943256,0.777817597,-0.282010965,112.9612,-33.03705564,76.93126836,-0.048850561,79.9100913,4.897563578,-6.0998534,1.513768544,9.232967617,-0.424665058,8.651246079,0.42053613,0.726574482,83.87460703,5.042671555,0.032940792,0.777817597,0.282010965,3.70735576,1.877817597,5.090331222,-0.303348806,9.363420465,-0.190168251,0.070875659,31.50680964,120.4040074,6.537254992
1570520528,31.50678784,120.4040634,726.0864955,0.76455485,-0.469525834,112.9695354,-33.80432163,78.64499551,-0.051325643,81.64094437,4.945172058,-6.20802924,1.434756351,9.480562246,-0.409099245,8.676956485,0.410467528,0.762297511,85.75039515,5.126198807,0.035415874,0.76455485,0.469525834,3.699020316,1.86455485,5.277846091,-0.31168425,9.405658107,-0.183979119,0.082341316,31.50680302,120.4040239,6.429101025
1570520528,31.50678091,120.4040815,726.0234701,0.713342541,-0.558442157,112.9755192,-34.57269608,80.36347267,-0.050200107,83.27921827,5.050718884,-6.418893389,1.551740279,9.641768236,-0.475281964,8.600210027,0.445268274,0.730860965,87.63092545,5.210867467,0.034290337,0.713342541,0.558442157,3.693036545,1.813342541,5.366762414,-0.317668021,9.405026738,-0.180747705,0.081826497,31.50679723,120.4040398,6.218258058
1570520529,31.50677329,120.4040997,723.9321741,0.75240541,-0.367203143,112.8780694,-35.41757605,82.09524961,-0.013673417,85.085775,5.082605617,-6.491049005,1.43819816,9.340682018,-0.42872712,8.640784985,0.390364765,0.759614619,89.55767857,5.233138744,-0.002236352,0.75240541,0.367203143,3.790486336,1.85240541,5.1755234,-0.22021823,9.433596868,-0.235516568,0.068558561,31.50679018,120.4040569,6.146126224
1570520529,31.50676629,120.4041179,724.1097911,0.730412338,-0.2305978,112.8948942,-36.19371138,83.81942713,-0.016746639,86.82243829,5.157285904,-6.627574966,1.441590638,9.251973744,-0.431609806,8.658555264,0.416479508,0.754100099,91.44678613,5.31343062,0.000836869,0.730412338,0.2305978,3.773661609,1.830412338,5.038918057,-0.237042957,9.469441358,-0.212805478,0.060129614,31.50678375,120.4040736,6.009623642
1570520529,31.50675927,120.4041361,724.3790812,0.69842941,-0.348049937,112.8879085,-36.97206395,85.55120461,-0.021419183,88.56307266,5.232284096,-6.768289341,1.454701639,9.412450793,-0.409691104,8.66990902,0.413286054,0.761910287,93.34368031,5.395152216,0.005509414,0.69842941,0.348049937,3.780647218,1.79842941,5.156370194,-0.230057348,9.500666862,-0.218441404,0.085083114,31.50677731,120.4040904,5.868933175
1570520529,31.50675225,120.4041544,724.39627,0.675739811,-0.500652309,112.9029617,-37.75041617,87.28678211,-0.021691113,90.25900454,5.341199294,-6.937621835,1.432534297,9.601333388,-0.469716725,8.635178323,0.445314616,0.735809355,95.2439701,5.478579683,0.005781343,0.675739811,0.500652309,3.765594025,1.775739811,5.308972566,-0.245110541,9.507018796,-0.214426508,0.075708491,31.50677132,120.4041068,5.699624461
1570520529,31.50674522,120.4041726,724.2243826,0.66930562,-0.53241838,112.9028043,-38.52987685,89.02330979,-0.018662454,92.07489346,5.370493044,-7.052128553,1.436168523,9.558485308,-0.389826546,8.664052711,0.390370935,0.74826426,97.1456065,5.561443072,0.002752684,0.66930562,0.53241838,3.765751456,1.76930562,5.340738637,-0.24495311,9.512255786,-0.218831411,0.071455014,31.50676421,120.404124,5.585143638
1570520530,31.50673767,120.404191,723.0670079,0.720839036,-0.360404289,112.8210107,-39.36699389,90.76363782,0.001567184,93.79112491,5.454444678,-7.196129178,1.461819005,9.428746221,-0.380445049,8.624659013,0.407819275,0.744357768,99.07651678,5.594489417,-0.017476954,0.720839036,0.360404289,3.847545053,1.820839036,5.168724546,-0.163159513,9.514172049,-0.241545338,0.060890814,31.50675794,120.4041406,5.441168004
1570520530,31.50673058,120.4042093,723.1529515,0.797203624,-0.350884985,112.8049502,-40.15310671,92.50206606,9.71E-05,95.51626339,5.53004568,-7.346892779,1.551675482,9.565066957,-0.351586818,8.631701401,0.419166691,0.773727022,100.9828372,5.672261368,-0.016006827,0.797203624,0.350884985,3.863605545,1.897203624,5.159205242,-0.147099021,9.543298547,-0.241339936,0.084711312,31.50675156,120.4041572,5.290429986
1570520530,31.50672352,120.4042276,723.3305685,0.803610905,-0.319115078,112.8051534,-40.93589287,94.24239447,-0.002972493,97.24469186,5.713364671,-7.533543598,1.570865107,9.617334907,-0.46101001,8.616657213,0.529722061,0.739769143,102.8893626,5.753858924,-0.012937277,0.803610905,0.319115078,3.863402349,1.903610905,5.127435335,-0.147302217,9.541050685,-0.223296852,0.056077764,31.50674604,120.4041743,5.103805359
1570520530,31.50671646,120.4042459,723.5196445,0.803610905,-0.319115078,112.8051534,-41.71867873,95.98462307,-0.006241444,99.40953179,5.566140507,-7.601565306,1.780508358,9.332325871,-0.176888417,8.838653703,0.323408469,0.788471553,104.7975859,5.83630961,-0.009668325,0.803610905,0.319115078,3.863402349,1.903610905,5.127435335,-0.147302217,9.545578512,-0.226825848,0.075454683,31.50673609,120.404194,5.035816798
1570520530,31.50670943,120.4042643,723.6571544,0.663704366,-0.357022626,112.8053235,-42.49813793,97.72780184,-0.008609831,100.7776908,5.783524858,-7.774968181,1.429237185,9.669619229,-0.291227094,8.609418916,0.445527565,0.761190427,106.7051651,5.922159525,-0.007299939,0.663704366,0.357022626,3.863232296,1.763704366,5.165342883,-0.14747227,9.559032837,-0.219248834,0.067909563,31.50673231,120.4042079,4.862435514
1570520531,31.50670196,120.4042826,722.9008501,0.683020235,-0.467654491,112.6965356,-43.32638329,99.4662313,0.004622614,102.6607519,5.852927433,-7.905662386,1.486502192,9.384680841,-0.230325818,8.62247998,0.419589769,0.718046336,108.630397,5.962281636,-0.020532384,0.683020235,0.467654491,3.972020121,1.783020235,5.275974748,-0.038684445,9.518097967,-0.250837705,0.090086361,31.50672524,120.4042259,4.731771312
1570520531,31.50669495,120.4043008,722.9925234,0.667266591,-0.257886883,112.6978215,-44.10362445,101.1970611,0.003055163,104.2269022,5.970144146,-8.053917005,1.378137899,9.636066656,-0.237177684,8.476231526,0.453548451,0.759296667,110.5259455,6.044571066,-0.018964932,0.667266591,0.257886883,3.970734303,1.767266591,5.06620714,-0.039970263,9.474829354,-0.245975763,0.061715178,31.50671985,120.4042412,4.583542122
1570520531,31.50668794,120.404319,723.3305685,0.714892436,-0.308727197,112.6878584,-44.88086537,102.9259914,-0.002811752,105.8763215,6.049928088,-8.206403685,1.471805804,9.778562355,-0.198098735,8.415514609,0.447871658,0.760540503,112.4197964,6.126008122,-0.013098017,0.714892436,0.308727197,3.980697328,1.814892436,5.117047454,-0.030007238,9.464269564,-0.244749101,0.088157943,31.50671381,120.4042571,4.431082603
1570520531,31.50668098,120.4043371,723.4909966,0.660862007,-0.454822112,112.68081,-45.65256211,104.6501719,-0.005578222,107.5621618,6.144824582,-8.351151481,1.382978087,9.976086202,-0.194984663,8.362212338,0.478927277,0.758165732,114.3069145,6.210267785,-0.010331548,0.660862007,0.454822112,3.987745717,1.760862007,5.263142369,-0.022958849,9.428548665,-0.222896034,0.077122738,31.50670775,120.4042734,4.286363021
1570520531,31.50667407,120.4043552,723.3935938,0.578207359,-0.537370097,112.6616467,-46.41871466,106.3696029,-0.003844253,109.2170125,6.229157039,-8.484807638,1.25112764,10.03021451,-0.190837421,8.284991267,0.46982063,0.75447766,116.1872999,6.297350056,-0.012065516,0.578207359,0.537370097,4.006909036,1.678207359,5.345690354,-0.00379553,9.38623759,-0.221607974,0.082775185,31.50670174,120.4042894,4.152734987
1570520532,31.50666666,120.4043731,723.662884,0.49293406,-0.387357944,112.5323836,-47.24030644,108.0643359,-0.008509735,110.885072,6.319294504,-8.618147194,1.191285091,9.862942367,-0.175088116,8.208344995,0.483510836,0.757311962,118.0704974,6.32380568,-0.007400034,0.49293406,0.387357944,4.136172132,1.59293406,5.195678201,0.125467566,9.325821058,-0.247764253,0.079584617,31.50669571,120.4043055,4.019424219
1570520532,31.5066598,120.404391,723.960822,0.337103483,-0.215787875,112.5079917,-48.00091473,109.7666681,-0.01367499,112.4888651,6.410066487,-8.742740555,1.038492056,9.686405016,-0.161335425,8.157640174,0.478606527,0.733597773,119.9331147,6.408168023,-0.00223478,0.337103483,0.215787875,4.160564104,1.437103483,5.024108132,0.149859538,9.314407913,-0.255277761,0.076983726,31.50668995,120.404321,3.894858953
1570520532,31.50665297,120.4044089,724.5223207,0.232290335,-0.285809722,112.5080471,-48.75819647,111.4652009,-0.023439793,114.0854404,6.509845758,-8.871737323,0.934387503,9.750271884,-0.175780588,8.058893807,0.500933113,0.753377539,121.7908436,6.493797694,0.007530024,0.232290335,0.285809722,4.160508672,1.332290335,5.094129979,0.149804106,9.262659679,-0.23763384,0.096770332,31.50668429,120.4043365,3.765890564
1570520532,31.5066462,120.4044267,725.0150644,0.05733918,-0.127072976,112.4990349,-49.50882532,113.1542342,-0.032004273,115.7052962,6.607711759,-8.993656183,0.745153439,9.531309255,-0.184260333,8.007745384,0.503078297,0.718204054,123.6370976,6.581108891,0.016094504,0.05733918,0.127072976,4.169520891,1.15733918,4.935393233,0.158816325,9.22773768,-0.236422635,0.069202452,31.50667852,120.4043522,3.644000904
1570520532,31.50663944,120.4044444,725.7312616,-0.028413779,-0.143055105,112.4673448,-50.25834521,114.837568,-0.044468329,117.3927853,6.714143486,-9.115941504,0.592180961,9.48963827,-0.211520191,7.980760176,0.525675465,0.727176719,125.4777608,6.666853008,0.02855856,-0.028413779,0.143055105,4.201210925,1.071586221,4.951375362,0.190506359,9.18170051,-0.230731757,0.086310543,31.50667255,120.4043686,3.521746444
1570520533,31.5066327,120.404462,725.5078081,-0.17479447,-0.006589015,112.4673194,-51.00564719,116.5152021,-0.040531975,119.1389184,6.798726016,-9.244572608,0.488385901,9.367860041,-0.21607119,7.983198523,0.52532027,0.723882726,127.3123351,6.752020838,0.024622205,-0.17479447,0.006589015,4.201236346,0.92520553,4.814909272,0.19053178,9.123505808,-0.220859072,0.072275758,31.50666616,120.4043854,3.393147721
1570520533,31.50662605,120.4044796,726.4073518,-0.289226915,-0.000425135,112.4514146,-51.7429701,118.183337,-0.056195349,120.7736558,6.869135666,-9.364229678,0.399930781,9.330416667,-0.218697013,7.963141712,0.5040194,0.704654182,129.1339419,6.841842675,0.040285579,-0.289226915,0.000425135,4.217141181,0.810773085,4.808745392,0.206436615,9.101756076,-0.224755238,0.080734013,31.50666011,120.4044011,3.273521391
1570520533,31.50661945,120.4044971,727.3355435,-0.44475624,-0.118286075,112.4423475,-52.47474893,119.8438725,-0.07235839,122.4124397,6.929032234,-9.482721992,0.29921307,9.375099275,-0.208466105,7.900246133,0.487335317,0.717427973,130.9462693,6.93320795,0.05644862,-0.44475624,0.118286075,4.226208276,0.65524376,4.926606332,0.21550371,9.037565219,-0.201557213,0.09449636,31.50665396,120.4044168,3.155060302
1570520533,31.50661292,120.4045145,728.0803886,-0.607018688,-0.020179574,112.4102022,-53.19876609,121.4939586,-0.085321179,123.9532644,7.019531675,-9.599962464,0.163729646,9.241940046,-0.177978621,7.825904313,0.481370374,0.670507746,132.7457753,7.026819168,0.069411409,-0.607018688,0.020179574,4.258353546,0.492981312,4.828499831,0.24764898,8.997732228,-0.20426739,0.060108313,31.50664845,120.4044317,3.037849611
1570520533,31.50660643,120.4045318,728.8710703,-0.806777785,-0.236840801,112.3863427,-53.9183479,123.1411949,-0.09908355,125.4449988,7.101772886,-9.720351805,-0.023681696,9.454532208,-0.162200447,7.723939242,0.479162501,0.681879475,134.540744,7.123114883,0.083173781,-0.806777785,0.236840801,4.282213031,0.293222215,5.045161058,0.271508465,8.963304038,-0.188385982,0.097909075,31.50664308,120.4044461,2.917489451
1570520534,31.50659991,120.4045489,728.9054478,-0.952907194,-0.224897971,112.3293293,-54.641256,124.7627824,-0.099645889,127.0084027,7.186736201,-9.841541763,-0.156294292,9.435494782,-0.120270113,7.640250062,0.468932253,0.669657138,136.3142854,7.204926226,0.08373612,-0.952907194,0.224897971,4.33922643,0.147092806,5.033218228,0.328521864,8.883080435,-0.187261435,0.080665398,31.50663743,120.4044612,2.796330452
1570520534,31.50659354,120.404566,729.5127831,-1.169113571,-0.190804466,112.2976049,-55.34753208,126.3910198,-0.110207747,128.5267566,7.273197931,-9.962337343,-0.335578389,9.381374384,-0.065875717,7.585061947,0.456400697,0.663581893,138.0863043,7.304584909,0.094297978,-1.169113571,0.190804466,4.370950835,-0.069113571,4.999124723,0.360246269,8.851056179,-0.184012747,0.093640969,31.50663198,120.4044759,2.675565308
1570520534,31.50658721,120.404583,730.3263831,-1.299556805,-0.099596158,112.2459527,-56.04937293,128.0097579,-0.124369341,130.0868218,7.35470552,-10.0810463,-0.438156579,9.33460607,-0.004805903,7.510990095,0.446675612,0.675135474,139.8478438,7.403943428,0.108459572,-1.299556805,0.099596158,4.422603092,-0.199556805,4.907916415,0.411898526,8.779893205,-0.167064927,0.083994684,31.50662633,120.404491,2.556887993
1570520534,31.50658095,120.4046,731.1571719,-1.449274348,-0.0217575,112.1560677,-56.74345213,129.6208965,-0.13883067,131.6123238,7.445769768,-10.19726876,-0.568254138,9.281125798,0.100712116,7.495772819,0.45596028,0.656159443,141.5991086,7.506827,0.1229209,-1.449274348,0.0217575,4.512488061,-0.349274348,4.830077757,0.501783495,8.76397941,-0.165411868,0.082270775,31.50662088,120.4045058,2.440696861
1570520534,31.50657477,120.4046169,732.2572509,-1.604698931,-0.060016194,111.96594,-57.42866091,131.2272854,-0.157991694,133.1457855,7.544611359,-10.3003066,-0.838721918,9.317773067,0.266725792,7.429676055,0.449261972,0.668785639,143.3421478,7.615505587,0.142081925,-1.604698931,0.060016194,4.702615799,-0.504698931,4.868336451,0.691911233,8.698687825,-0.160679236,0.083945071,31.50661547,120.4045207,2.337690884
1570520535,31.50656854,120.4046333,732.6124847,-1.751128761,-0.011247162,111.6760414,-58.11941393,132.7804767,-0.164153297,134.7285382,7.614435588,-10.43012082,-0.937555757,9.384443833,0.525786523,7.427550671,0.440863474,0.67915255,145.040137,7.695353108,0.148243527,-1.751128761,0.011247162,4.992514372,-0.651128761,4.819567419,0.981809806,8.64451821,-0.160145031,0.094447284,31.50660963,120.4045359,2.207909913
1570520535,31.50656255,120.40465,733.6724567,-1.846348824,-0.038628817,111.4062082,-58.78355553,134.3707165,-0.182613912,136.1680682,7.691081314,-10.53090323,-0.97715853,9.398494354,0.802742342,7.322541155,0.397597064,0.669678535,146.7592894,7.815609504,0.166704143,-1.846348824,0.038628817,5.262347541,-0.746348824,4.846949074,1.251642975,8.576148795,-0.172825645,0.08145603,31.50660442,120.4045498,2.107158092
1570520535,31.50655671,120.4046667,734.6980511,-1.97537955,0.103832614,111.0826919,-59.43106523,135.9524067,-0.2004744,137.6212904,7.793634717,-10.64203618,-0.990930621,9.287714377,1.138129954,7.260838349,0.399868735,0.64782257,148.4633369,7.946891134,0.184564631,-1.97537955,-0.103832614,5.58586386,-0.87537955,4.704487643,1.575159294,8.532655958,-0.163712182,0.063331533,31.50659936,120.4045639,1.996056377
1570520535,31.50655097,120.4046833,735.8038597,-1.980088211,-0.018051609,110.6556702,-60.06748688,137.533147,-0.219734556,139.1082721,7.907293239,-10.7506287,-0.98274041,9.437420226,1.571445016,7.234573358,0.396142527,0.671322941,150.1615589,8.087654919,0.203824786,-1.980088211,0.018051609,6.012885604,-0.880088211,4.826371866,2.002181038,8.487525319,-0.159959204,0.101507757,31.50659426,120.4045785,1.887496176
1570520535,31.50654542,120.4046999,736.9440457,-2.077668519,0.072009355,110.1038563,-60.68284149,139.1062876,-0.239594623,140.5366728,8.039186775,-10.85255997,-1.023662213,9.357640509,2.113990452,7.121568002,0.410742943,0.656287839,151.8435341,8.243833602,0.223684854,-2.077668519,-0.072009355,6.564699448,-0.977668519,4.736310902,2.553994882,8.396863061,-0.136480332,0.074547906,31.50658954,120.4045925,1.78559632
1570520536,31.50653982,120.4047158,737.522733,-2.208544508,0.064409637,109.3630818,-61.30374054,140.6167309,-0.24965557,141.9443977,8.194104969,-10.95149963,-1.108902599,9.315168798,2.834450495,7.115350644,0.431562981,0.632139409,153.4719705,8.366917357,0.233745801,-2.208544508,-0.064409637,7.305473933,-1.108544508,4.74391062,3.294769367,8.393059437,-0.139255035,0.087763662,31.50658509,120.4046065,1.686687948
1570520536,31.50653465,120.4047323,738.622812,-2.238694813,-0.281394455,108.6383581,-61.8769609,142.1889213,-0.268815191,143.3498451,8.365624106,-11.06136232,-1.050636498,9.656541777,3.604883685,7.010470435,0.416198322,0.645985829,155.1341856,8.560321504,0.252905421,-2.238694813,0.281394455,8.030197675,-1.138694813,5.089714712,4.019493109,8.313429322,-0.150931492,0.107316734,31.50658078,120.4046205,1.576856841
1570520536,31.50652975,120.4047488,739.2416064,-2.321145702,-0.10442047,107.7822016,-62.42024389,143.7516117,-0.279574879,144.7345054,8.581358844,-11.14070626,-1.199218809,9.428776575,4.498871907,6.943733274,0.450916493,0.630224829,156.7744746,8.776214336,0.26366511,-2.321145702,0.10442047,8.886354197,-1.221145702,4.912740727,4.875649631,8.258914166,-0.129247803,0.064169864,31.50657692,120.4046346,1.497544382
1570520536,31.50652511,120.4047653,740.0036403,-2.39365705,-0.179509117,106.7751423,-62.9346982,145.3200016,-0.292834294,146.1052169,8.818052773,-11.22218667,-1.350534226,9.447920571,5.52054016,6.91154142,0.478628628,0.636469635,158.4069177,9.020427127,0.276924525,-2.39365705,0.179509117,9.893413456,-1.29365705,4.987829374,5.88270889,8.238135401,-0.128417672,0.079316495,31.50657328,120.4046486,1.416095471
1570520536,31.50652078,120.4047818,740.6797305,-2.480813224,-0.256974724,105.6147394,-63.41477992,146.8902912,-0.304593582,147.4774263,9.065803662,-11.31820432,-1.39350977,9.496675856,6.720759107,6.84689344,0.504923708,0.639953921,160.0256308,9.296208456,0.288683812,-2.480813224,0.256974724,11.05381633,-1.380813224,5.065294981,7.043111764,8.187660906,-0.102129031,0.084081041,31.50656972,120.4046627,1.320109671
1570520537,31.50651643,120.4047976,740.9948573,-2.528682314,-0.241423357,104.1518166,-63.89707987,148.3931336,-0.310053994,148.9415938,9.336809573,-11.43908971,-1.360494027,9.52538629,8.135845134,6.857583761,0.496344825,0.636482115,161.5850677,9.539735356,0.294144224,-2.528682314,0.241423357,12.51673912,-1.428682314,5.049743614,8.506034554,8.111997234,-0.135063899,0.082503042,31.50656597,120.4046777,1.199258615
1570520537,31.50651281,120.4048142,741.4933306,-2.428008214,-0.435409716,102.4909158,-64.29843736,149.9662721,-0.318713183,150.1688374,9.653470391,-11.5243487,-1.255533289,9.726813299,9.82245759,6.794542262,0.527608502,0.607170969,163.1709931,9.887144754,0.302803414,-2.428008214,0.435409716,14.17763999,-1.328008214,5.243729973,10.16693542,8.110631447,-0.139962003,0.08288241,31.50656356,120.4046908,1.114028801
1570520537,31.50650968,120.4048308,741.8141869,-2.289948856,-0.651464758,100.5398298,-64.64546406,151.5460596,-0.324272356,151.4833589,10.02074165,-11.62275506,-1.098451071,9.954568832,11.79415148,6.716779082,0.579543423,0.646882487,164.7384749,10.28608937,0.308362586,-2.289948856,0.651464758,16.12872596,-1.189948856,5.459785015,12.11802139,8.05392888,-0.10577133,0.105738139,31.5065612,120.4047049,1.015654009
1570520537,31.50650713,120.4048475,741.6652179,-2.198412244,-0.629398775,98.26125941,-64.92818089,153.1286959,-0.321631707,152.8965152,10.40792866,-11.82633367,-0.158535028,9.98313572,14.20242601,6.751250661,0.559973623,0.555722935,166.2796383,10.74378107,0.305721937,-2.198412244,0.629398775,18.40729635,-1.098412244,5.437719032,14.39659178,8.043586826,-0.115414988,0.072288174,31.5065586,120.40472,0.812109654
1570520537,31.50650521,120.4048642,741.6079221,-2.143909916,-0.841433664,95.7644354,-65.14104397,154.7198809,-0.320591162,154.0591607,10.88010899,-11.92655994,-0.115494955,10.2758759,16.70162683,6.621233197,0.624788101,0.623375205,167.7970887,11.26773226,0.304681393,-2.143909916,0.841433664,20.90412036,-1.043909916,5.649753921,16.89341579,7.98722071,-0.077777269,0.108372651,31.5065577,120.4047332,0.711912061
1570520538,31.50650378,120.4048804,741.7110545,-2.048515377,-0.539013413,92.95180851,-65.29957724,156.2540677,-0.322352168,155.2586542,11.40256109,-12.06374761,0.181561912,10.10154072,19.5685797,6.573600441,0.646575868,0.583710526,169.2392197,11.81465107,0.306442399,-2.048515377,0.539013413,23.71674725,-0.948515377,5.34733367,19.70604268,7.94291655,-0.069606919,0.056272764,31.50655705,120.4047469,0.574754309
1570520538,31.50650328,120.4048971,741.8199165,-1.969481585,-0.590315109,90.07497917,-65.35499255,157.8414507,-0.324212549,156.4361802,11.99881373,-12.17496969,0.475650585,10.07811862,22.48667791,6.533115421,0.646612636,0.615189583,170.6826054,12.47759392,0.308302779,-1.969481585,0.590315109,26.59357659,-0.869481585,5.398635366,22.58287202,7.930760872,-0.07836061,0.1103869,31.50655709,120.4047608,0.463562007
1570520538,31.50650352,120.4049137,741.9287785,-1.891960066,-0.51024285,87.0824574,-65.32835769,159.4202828,-0.326073591,157.5137581,12.64363871,-12.27907994,0.787368305,9.952111711,25.5202622,6.409535923,0.695093853,0.585165966,172.0815235,13.21002039,0.310163821,-1.891960066,0.51024285,29.58609836,-0.791960066,5.318563107,25.57539379,7.870448978,-0.042685847,0.066618451,31.50655793,120.404774,0.359479448
1570520538,31.50650454,120.4049302,742.0605588,-1.904688794,-0.505589103,84.00071799,-65.21523754,160.991514,-0.328335324,158.5914382,13.35328489,-12.3871819,1.018019012,9.848542144,28.6409264,6.386600631,0.666243972,0.56284674,173.4348321,14.0163201,0.312425554,-1.904688794,0.505589103,32.66783777,-0.804688794,5.31390936,28.6571332,7.870822487,-0.064476862,0.082158425,31.50655928,120.4047875,0.25140555
1570520538,31.50650634,120.4049466,742.2782827,-1.905098669,-0.574544204,80.89143575,-65.0156322,162.5494443,-0.332097891,159.6849768,14.12105524,-12.51313287,1.271373829,9.969024669,31.83645187,6.332555916,0.666118852,0.607075825,174.7374379,14.89393477,0.316188122,-1.905098669,0.574544204,35.77712001,-0.805098669,5.382864461,31.76641544,7.831602811,-0.01870485,0.102671669,31.50656104,120.4048014,0.125483428
1570520539,31.50650884,120.4049622,741.8428348,-1.9910784,-0.354354883,77.63183744,-64.73841284,164.0285265,-0.324462891,160.7102697,14.93305329,-12.6368548,1.462380421,9.742251057,35.04391837,6.276794199,0.60889187,0.574026109,175.9347481,15.80551736,0.308553122,-1.9910784,0.354354883,39.03671832,-0.8910784,5.16267514,35.02601375,7.758693099,-0.039232461,0.061659912,31.50656344,120.4048149,0.001789011
1570520539,31.50651215,120.404978,742.3241194,-2.029194398,-0.113772304,74.43408727,-64.37138154,165.5304065,-0.332827855,161.6877968,15.80066688,-12.70490771,1.618379102,9.281463742,38.25524697,6.19440995,0.588123368,0.605641075,177.1121207,16.80758988,0.316918086,-2.029194398,0.113772304,42.23446849,-0.929194398,4.922092561,38.22376392,7.701393991,-0.026890376,0.08219221,31.50656647,120.4048282,-0.066237198
1570520539,31.50651621,120.4049935,743.1549082,-2.104611926,0.210266815,71.20739151,-63.92119178,166.9990368,-0.347294151,162.5423522,16.68093971,-12.75973252,1.747977164,8.757548409,41.47611607,6.124852579,0.591141767,0.553391231,178.2224568,17.86905079,0.331384381,-2.104611926,-0.210266815,45.46116425,-1.004611926,4.598053442,41.45045968,7.684497914,-0.001343574,0.040977699,31.50657011,120.4048404,-0.121038127
1570520539,31.50652106,120.4050086,744.1117477,-2.250646505,-0.05823544,67.97572054,-63.38340834,168.4391667,-0.363961706,163.3932595,17.62207625,-12.83144492,1.682127117,8.876208904,44.74260956,6.091388511,0.54648395,0.575263925,179.2680101,18.99599525,0.348051936,-2.250646505,0.05823544,48.69283522,-1.150646505,4.866555697,44.68213065,7.681499157,-7.17E-05,0.106286705,31.50657425,120.4048528,-0.192726347
1570520539,31.50652659,120.4050234,744.908159,-2.302443964,-0.249498698,64.77510408,-62.77022797,169.839397,-0.377830695,164.4044179,18.75908049,-12.87955864,1.228024283,8.700128024,47.93590675,6.151204188,0.510715764,0.555113855,180.2440679,20.17240761,0.361920926,-2.302443964,0.249498698,51.89345168,-1.202443964,5.057818955,47.88274711,7.599176017,-0.002342524,0.080863007,31.50657932,120.4048677,-0.240810946
1570520540,31.50653257,120.4050369,745.1717196,-2.293353893,-0.090071294,61.45360683,-62.10715392,171.1246809,-0.382402888,164.9952848,19.63146307,-12.95151566,1.804523341,8.555585797,51.1512814,5.945158247,0.445415632,0.548245738,181.0950139,21.34181467,0.366493119,-2.293353893,0.090071294,55.21494893,-1.193353893,4.898391551,51.20424436,7.530699241,-0.006494335,0.072636953,31.50658396,120.4048774,-0.312750155
1570520540,31.50653939,120.4050506,745.7332183,-2.399194263,-0.182370482,58.38466557,-61.35094162,172.4251627,-0.392175244,165.6375436,20.65519689,-12.96956814,1.747275585,8.334195155,54.2134153,5.872924457,0.43327581,0.531189721,181.9177379,22.60127293,0.376265475,-2.399194263,0.182370482,58.28389019,-1.299194263,4.990690739,54.27318562,7.517748882,0.008986052,0.071467872,31.50658961,120.4048883,-0.330782831
1570520540,31.5065468,120.4050638,746.2316915,-2.547197718,-0.459680949,55.51395527,-60.52931159,173.681945,-0.400849058,166.2403369,21.68817272,-13.02193196,1.629777821,8.438877211,57.12489946,5.79620643,0.339279707,0.531467859,182.6720499,23.89957609,0.384939289,-2.547197718,0.459680949,61.15460049,-1.447197718,5.268001206,57.14389592,7.50009711,0.003381771,0.088813125,31.50659549,120.4048988,-0.383127626
1570520540,31.50655464,120.4050766,746.3806606,-2.541762055,-0.678205353,53.05800361,-59.66000428,174.8997778,-0.403424033,166.7949191,22.76705865,-13.04429961,1.554621945,8.353640413,59.593678,5.7245278,0.24542924,0.51767924,183.370157,25.22300288,0.387514263,-2.541762055,0.678205353,63.61055215,-1.441762055,5.48652561,59.59984758,7.467787649,-0.057813733,0.093328147,31.50660194,120.4049091,-0.405477116
1570520540,31.50656284,120.405089,746.3348239,-2.53056373,-0.647059576,50.99125025,-58.75078122,176.0777115,-0.402600125,167.3201329,23.86615722,-13.07265457,1.467594576,8.024895187,61.65216516,5.645781291,0.192722146,0.503032761,184.0146942,26.56419117,0.386690355,-2.53056373,0.647059576,65.67730551,-1.43056373,5.455379833,61.66660094,7.420849366,-0.053249555,0.068724702,31.50660868,120.4049193,-0.433814376
1570520541,31.50657076,120.4051006,745.6931112,-2.4503804,-0.618256377,49.16483951,-57.87260529,177.1739486,-0.391377857,167.8674963,25.04474757,-13.07051327,1.310657937,7.722558917,63.3060097,5.678444869,0.128306287,0.503518323,184.6001608,27.8409675,0.375468088,-2.4503804,0.618256377,67.50371625,-1.3503804,5.426576634,63.49301168,7.379415033,-0.095374616,0.072519944,31.50661596,120.40493,-0.431654258
1570520541,31.50657947,120.4051124,745.641545,-2.436787301,-0.888292055,47.80072521,-56.906835,178.2920335,-0.390455453,168.2732138,25.96025115,-13.10173473,1.599223962,7.804199124,64.70777048,5.507907589,0.025145183,0.465795629,185.165836,29.20582557,0.374545684,-2.436787301,0.888292055,68.86783055,-1.336787301,5.696612312,64.85712598,7.388982339,-0.103326795,0.075536135,31.50662169,120.4049381,-0.46286143
1570520541,31.50658835,120.4051239,745.3092295,-2.434476809,-1.071582929,46.68032748,-55.92221564,179.3854187,-0.384633568,168.6833862,26.95864674,-13.11255619,1.598324274,7.734312468,65.83821496,5.342280812,-0.028922855,0.494378913,185.7009792,30.57644162,0.368723799,-2.434476809,1.071582929,69.98822829,-1.334476809,5.879903186,65.97752372,7.322869939,-0.107531383,0.102793033,31.50662808,120.4049467,-0.473667978
1570520541,31.50659735,120.4051351,744.8623224,-2.519668723,-0.838001279,45.86476539,-54.92429116,180.4541046,-0.376812156,169.0896988,27.99147317,-13.09967119,1.466379573,7.272488511,66.6475194,5.243012505,-0.08079435,0.468530054,186.2080788,31.94786156,0.360902386,-2.519668723,0.838001279,70.80379037,-1.419668723,5.646321536,66.7930858,7.291045558,-0.09440981,0.051339255,31.50663476,120.4049554,-0.460767845
1570520541,31.50660644,120.4051463,744.5471956,-2.629274216,-0.850716593,45.39769312,-53.91638769,181.5132905,-0.371290761,169.5840962,29.17976454,-13.14395199,1.148760019,7.013806985,67.1214105,5.322491215,-0.157180338,0.450456181,186.7022103,33.32393506,0.355380992,-2.629274216,0.850716593,71.27086264,-1.529274216,5.65903685,67.26015807,7.312895307,-0.124403363,0.088373048,31.50664233,120.4049657,-0.50503027
1570520542,31.50661466,120.4051572,743.5158716,-2.457981216,-0.926870706,45.14675541,-53.00494864,182.5506285,-0.353268853,170.0307927,30.35758654,-13.13247268,1.026390521,6.89618255,67.31774419,5.330132155,-0.191960676,0.46546457,187.2201141,34.60400028,0.337359084,-2.457981216,0.926870706,71.52180035,-1.357981216,5.735190963,67.51109578,7.227930854,-0.173962694,0.095261132,31.50665002,120.4049754,-0.493533638
1570520542,31.50662365,120.4051682,743.2007448,-2.353772267,-0.860902627,45.00613654,-52.00813309,183.593665,-0.347747181,170.4717757,31.51039099,-13.13226534,0.931437648,6.685820532,67.45952493,5.351601442,-0.172485969,0.458769588,187.7047907,35.96291707,0.331837412,-2.353772267,0.860902627,71.66241923,-1.253772267,5.669222884,67.65171466,7.211975917,-0.148477487,0.073933588,31.50665752,120.404985,-0.493309015
1570520542,31.50663267,120.4051791,742.9830208,-2.261009998,-0.852010474,44.86685476,-51.00799122,184.6300515,-0.3439254,170.9356385,32.87650145,-13.11102117,0.686038091,6.439672592,67.60234913,5.485733543,-0.096966966,0.498354867,188.1820319,37.32182164,0.32801563,-2.261009998,0.852010474,71.80170101,-1.161009998,5.660330731,67.79099644,7.182245459,-0.124996788,0.086544973,31.50666666,120.4049958,-0.472045618
