time,ins1000_lat,ins1000_lon,ins1000_alt,ins1000_roll,ins1000_pitch,ins1000_yaw,ins1000_ned_x,ins1000_ned_y,ins1000_ned_z,algo_pose_x,algo_pose_y,algo_pose_z,algo_roll,algo_pitch,algo_yaw,align_pose_x,align_pose_y,align_pose_z,align_roll,align_pitch,align_yaw,align_roll_by_manual,align_pitch_by_manual,align_yaw_by_manual,algo_lat,algo_lon,algo_alt
1570519589,31.50769499,120.4017452,719.1938132,-0.792150303,-0.961411,0.167090972,0,0,0,2.51445397,0.136043726,-0.017971962,1.011198693,5.78878706,0.042612106,2.51445397,0.136043726,-0.017971962,-0.792150303,0.961411,5.600302718,0.358349697,5.78878706,0.042612105,31.50769499,120.4017452,12.55230001
1570519590,31.50769834,120.4017455,717.1655426,-0.688438463,-0.973427638,0.097531258,0.371442807,0.032298206,0.035400011,2.956144933,0.160541402,-0.026403029,0.972374901,5.883482875,0.012190081,2.887262205,0.14123534,-0.053371972,-0.688438463,0.973427638,5.669862432,0.462061537,5.800803698,0.112171819,31.50769898,120.4017454,12.54386895
1570519590,31.50770136,120.4017457,717.4061849,-0.791775315,-1.064944632,0.110501778,0.706295725,0.048447308,0.031200041,3.252752204,0.170958828,-0.025144103,1.036475978,5.779806676,0.02710893,3.222042942,0.158817389,-0.049172002,-0.791775315,1.064944632,5.656891912,0.358724685,5.892320692,0.099201299,31.50770165,120.4017456,12.54512791
1570519590,31.5077045,120.4017458,717.6525567,-1.078202403,-0.984467854,0.11240648,1.054454059,0.061746567,0.026900088,3.576257707,0.190836075,-0.025442005,0.958881038,5.771583728,-0.012386968,3.569775362,0.180571918,-0.044872049,-1.078202403,0.984467854,5.65498721,0.072297597,5.811843914,0.097296597,31.50770457,120.4017457,12.54483005
1570519590,31.50770764,120.4017461,717.893199,-0.986401633,-0.869955247,0.110632079,1.402612393,0.085495243,0.022700154,3.87849287,0.217909402,-0.016232579,0.630156783,5.567014909,-0.038704578,3.918557845,0.191929925,-0.040672116,-0.986401633,0.869955247,5.656761611,0.164098367,5.697331307,0.099070998,31.5077073,120.4017458,12.55403954
1570519590,31.50771094,120.4017463,718.2197849,-0.952172924,-0.927188166,0.122308086,1.768511279,0.109243917,0.017000248,3.999531219,0.220847196,-0.005070003,0.646327213,5.237714938,-0.035140548,4.28499108,0.205070683,-0.034972209,-0.952172924,0.927188166,5.645085604,0.198327076,5.754564226,0.087394991,31.50770839,120.4017459,12.56520214
1570519591,31.50771516,120.4017466,717.635368,-0.791000224,-0.973819597,0.029643472,2.236418337,0.137742323,0.027200394,4.225564483,0.230539958,-0.011335527,0.6429966,5.41679026,-0.077603856,4.753393426,0.223736564,-0.045172356,-0.791000224,0.973819597,5.737750218,0.359499776,5.801195657,0.180059605,31.50771043,120.401746,12.55893667
1570519591,31.50771875,120.4017469,718.0077905,-0.676293952,-0.962450492,0.017141208,2.634471976,0.165290782,0.020700548,4.661117384,0.251336887,-0.017475714,0.717872096,5.510668565,-0.031975014,5.152200489,0.236328007,-0.03867251,-0.676293952,0.962450492,5.750252482,0.474206048,5.789826552,0.192561869,31.50771436,120.4017463,12.55279662
1570519591,31.50772247,120.4017472,718.3401061,-0.630567595,-1.031150511,0.028595471,3.046939814,0.191889291,0.014900734,5.196755186,0.274315017,-0.014414548,0.802969725,5.390604064,-0.040552946,5.565253326,0.251313075,-0.032872695,-0.630567595,1.031150511,5.738798219,0.519932405,5.858526571,0.181107606,31.50771918,120.4017466,12.55585799
1570519591,31.5077261,120.4017474,718.4604272,-0.66520309,-1.122690968,0.052359156,3.449428591,0.214688011,0.012800939,5.738561851,0.301157886,-0.012109174,0.841988995,5.378679437,-0.058913573,5.967995773,0.269075901,-0.0307729,-0.66520309,1.122690968,5.715034534,0.48529691,5.950067028,0.157343921,31.50772407,120.4017469,12.55816361
1570519591,31.50773016,120.4017477,719.1135991,-0.757010225,-1.134038879,0.064793937,3.899595109,0.239386621,0.0014012,6.25352061,0.324649739,-0.015101288,0.884919237,5.371914231,-0.064909771,6.418365539,0.289739596,-0.019373162,-0.757010225,1.134038879,5.702599753,0.393489775,5.961414939,0.14490914,31.50772871,120.4017472,12.55517178
1570519592,31.50773464,120.4017479,718.884416,-0.802431185,-1.260402538,0.020287077,4.396330567,0.256485653,0.005401525,6.663963886,0.345470896,-0.01257847,0.809173452,5.379740864,-0.081019369,6.914304835,0.322644116,-0.023373486,-0.802431185,1.260402538,5.747106613,0.348068815,6.087778598,0.189416,31.50773241,120.4017474,12.55769486
1570519592,31.50773858,120.4017482,719.1938132,-0.745114333,-1.214565535,0.019358597,4.833191668,0.282134208,1.85E-06,6.984073673,0.358211623,-0.012668706,0.797195597,5.512447307,-0.085405012,7.351531997,0.341025612,-0.017973807,-0.745114333,1.214565535,5.748035094,0.405385667,6.041941595,0.190344481,31.5077353,120.4017476,12.55760484
1570519592,31.50774252,120.4017485,719.9271992,-0.653412541,-1.157272378,0.018059913,5.270052776,0.3106326,-0.012797807,7.270892412,0.366904055,-0.017532492,0.866101606,5.526589885,-0.057738628,7.789045545,0.356571697,-0.005174155,-0.653412541,1.157272378,5.749333777,0.497087459,5.984648438,0.191643164,31.50773788,120.4017478,12.55274126
1570519592,31.50774649,120.4017487,720.3168105,-0.848254887,-1.180173682,0.020197254,5.710240235,0.33058147,-0.019597426,7.639897825,0.382461485,-0.015998927,0.961659339,5.475417797,-0.07844728,8.229009465,0.380958291,0.001625464,-0.848254887,1.180173682,5.747196436,0.302245113,6.007549742,0.189505823,31.50774121,120.401748,12.55427511
1570519592,31.50775043,120.4017489,720.7064218,-0.996789129,-1.054495532,-0.025207389,6.147101341,0.352430232,-0.026397016,8.162883576,0.41125306,-0.017200653,0.903860122,5.46584067,-0.076092151,8.66585479,0.403120346,0.008425055,-0.996789129,1.054495532,5.792601079,0.153710871,5.881871592,0.234910466,31.50774592,120.4017483,12.55307383
1570519593,31.50775482,120.4017492,719.9329287,-0.709918215,-1.134843469,-0.061730451,6.63385773,0.382828506,-0.012896526,8.529447573,0.437342834,-0.018433175,0.694246636,5.335728689,-0.063976373,9.153201972,0.421790148,-0.005075436,-0.709918215,1.134843469,5.829124141,0.440581785,5.962219529,0.271433528,31.50774924,120.4017484,12.55184165
1570519593,31.50775874,120.4017495,720.4543203,-0.767687419,-0.997050742,-0.016240226,7.068501272,0.404677264,-0.021996055,8.916778677,0.452022409,-0.017187409,0.940168814,5.494574866,-0.041426611,9.587840957,0.443729363,0.004024094,-0.767687419,0.997050742,5.783633917,0.382812581,5.824426802,0.225943304,31.50775273,120.4017487,12.55308779
1570519593,31.50776269,120.4017496,720.9699823,-1.110725897,-1.101037107,-0.092469633,7.506471169,0.42082634,-0.030995552,9.332443651,0.470754509,-0.019649055,1.189183697,5.445947152,-0.06261953,10.0252167,0.471673674,0.01302359,-1.110725897,1.101037107,5.859863323,0.039774103,5.928413167,0.30217271,31.50775647,120.4017489,12.55062658
1570519593,31.50776668,120.40175,721.8637965,-0.732861971,-1.089016549,-0.061796296,7.948876213,0.455974344,-0.046595011,9.703376807,0.503446573,-0.021215453,0.878312259,5.475741159,-0.041079327,10.46891434,0.481160917,0.028623049,-0.732861971,1.089016549,5.829189986,0.417638029,5.916392609,0.271499373,31.50775983,120.4017489,12.54906059
1570519593,31.50777072,120.4017503,722.5570754,-0.641312256,-0.859789817,-0.052484239,8.396825178,0.483522774,-0.058694432,10.14976582,0.516319809,-0.020145288,1.686267745,5.646146757,-0.023160015,10.91736416,0.498766375,0.04072247,-0.641312256,0.859789817,5.819877929,0.509187744,5.687165877,0.262187316,31.50776385,120.4017493,12.55013128
1570519594,31.50777535,120.4017504,719.8813625,-0.996508352,-0.974576011,-0.060285863,8.910192348,0.497771946,-0.011993733,10.60116659,0.526414976,-0.018545133,2.71838668,5.488041335,-0.037728669,11.42956459,0.536177653,-0.005978229,-0.996508352,0.974576011,5.827679553,0.153991648,5.801952071,0.26998894,31.50776791,120.4017497,12.55173199
1570519594,31.50777975,120.4017508,720.5058865,-0.812564737,-1.066551483,-0.118499578,9.398057555,0.530070101,-0.022893026,11.0507485,0.556519479,-0.016418054,2.639909202,5.505094511,-0.056193795,11.9182059,0.553068616,0.004921065,-0.812564737,1.066551483,5.885893268,0.337935263,5.893927543,0.328202655,31.50777197,120.4017498,12.55385966
1570519594,31.5077842,120.4017511,721.27365,-0.801726249,-0.722427248,-0.063700851,9.891466689,0.55761852,-0.036292276,11.53456473,0.57540622,-0.019247066,3.087601082,5.669458643,-0.028163653,12.41188577,0.575242383,0.018320315,-0.801726249,0.722427248,5.831094542,0.348773751,5.549803308,0.273403929,31.50777633,120.4017501,12.55103132
1570519594,31.50778883,120.4017513,721.898174,-0.984769243,-0.551329125,-0.144231282,10.40483394,0.582317099,-0.047191453,12.00071496,0.593455954,-0.015428277,3.34803617,5.494552588,-0.045730996,12.92513635,0.602257157,0.029219492,-0.984769243,0.551329125,5.911624972,0.165730757,5.378705185,0.353934359,31.50778053,120.4017504,12.55485079
1570519594,31.50779372,120.4017517,722.5685346,-0.605856616,-0.986409322,-0.178148758,10.9470296,0.622214812,-0.058890538,12.4728618,0.626902148,-0.009076235,3.110023297,5.142187927,-0.039787903,13.46859677,0.617046703,0.040918577,-0.605856616,0.986409322,5.945542449,0.544643384,5.813785382,0.387851836,31.50778479,120.4017506,12.56120356
1570519595,31.50779887,120.4017521,719.8469851,-0.549008265,-0.88305001,-0.13327935,11.51805355,0.652613055,-0.011389526,12.98194477,0.647199433,-0.01453939,3.327657655,5.544695407,0.032672587,14.03978495,0.644184591,-0.006582436,-0.549008265,0.88305001,5.90067304,0.601491735,5.71042607,0.342982427,31.50778938,120.4017509,12.55574122
1570519595,31.50780387,120.4017522,720.2938921,-0.984565487,-0.803368156,-0.142080535,12.07244583,0.670661996,-0.019188494,13.50583596,0.663976202,-0.018523034,3.635385627,5.625052404,0.03608288,14.59318467,0.681937952,0.001216532,-0.984565487,0.803368156,5.909474226,0.165934513,5.630744216,0.351783613,31.5077941,120.4017513,12.55175846
1570519595,31.50780909,120.4017527,721.3252162,-0.708434435,-1.284612538,-0.186882443,12.65123139,0.708659807,-0.037187365,14.03372713,0.70451679,-0.015188689,3.112705033,5.403755872,0.007140125,15.17285885,0.702294707,0.019215403,-0.708434435,1.284612538,5.954276133,0.442065565,6.111988598,0.39658552,31.50779887,120.4017514,12.55509375
1570519595,31.50781402,120.401753,721.7434754,-0.388261546,-1.306754997,-0.121635233,13.19786218,0.744757719,-0.044486247,14.58595115,0.732248148,-0.013882324,3.092523392,5.736327343,0.051562348,15.72035011,0.721310506,0.026514286,-0.388261546,1.306754997,5.889028923,0.762238454,6.134131057,0.33133831,31.50780385,120.4017517,12.55640114
1570519595,31.50781949,120.4017533,722.007036,-0.628539374,-0.87219004,-0.224399114,13.80436733,0.772306111,-0.049084956,15.14097108,0.747206124,-0.019122594,3.403487298,6.028893237,0.081178318,16.32655351,0.754849331,0.031112995,-0.628539374,0.87219004,5.991792805,0.521960626,5.6995661,0.434102192,31.50780884,120.4017521,12.55116195
1570519596,31.50782501,120.4017538,720.0188724,-0.514442699,-0.963284836,-0.14464468,14.41641632,0.816003577,-0.014383591,15.69359555,0.778515883,-0.022938405,3.13099137,5.52244186,0.127485119,16.9398955,0.772877927,-0.00358837,-0.514442699,0.963284836,5.91203837,0.636057301,5.790660896,0.354347757,31.50781383,120.4017524,12.54734726
1570519596,31.50783036,120.4017541,720.2996217,-0.571508154,-1.032136158,-0.166756122,15.00961605,0.843551961,-0.019282214,16.25475159,0.808337497,-0.019128134,3.13427409,5.607904065,0.104888969,17.53286084,0.805079696,0.001310253,-0.571508154,1.032136158,5.934149812,0.578991846,5.859512218,0.376459199,31.50781889,120.4017527,12.55115873
1570519596,31.50783571,120.4017544,720.4944274,-0.662647641,-0.838143387,-0.270172798,15.60281579,0.872050292,-0.02268078,16.82600834,0.838557591,-0.02108843,3.184063313,5.631834779,0.148094898,18.12592163,0.836336327,0.004708819,-0.662647641,0.838143387,6.037566488,0.487852359,5.665519447,0.479875875,31.50782405,120.401753,12.5491997
1570519596,31.50784112,120.4017547,721.4054303,-0.594095035,-0.906502887,-0.224483386,16.20266826,0.903398452,-0.038579274,17.39224952,0.874143358,-0.022556016,3.034368926,5.502134476,0.188124324,18.72588786,0.865426088,0.020607313,-0.594095035,0.906502887,5.991877076,0.556404965,5.733878947,0.434186463,31.50782916,120.4017532,12.54773341
1570519596,31.50784659,120.401755,721.9898472,-0.707672762,-1.124804443,-0.291020106,16.80917343,0.929046937,-0.048777694,17.95265255,0.901613184,-0.015371317,3.262604934,5.491151305,0.192139581,19.33190036,0.900855204,0.030805733,-0.707672762,1.124804443,6.058413796,0.442827238,5.952180503,0.500723183,31.50783421,120.4017535,12.55491945
1570519597,31.50785227,120.4017554,718.626585,-0.490460819,-1.07820061,-0.247510881,17.43896289,0.972744372,0.009924009,18.53452236,0.936008363,-0.008100283,3.163912228,5.650469611,0.227386768,19.96289302,0.920666572,-0.02789597,-0.490460819,1.07820061,6.014904571,0.660039181,5.90557667,0.457213958,31.50783947,120.4017538,12.56219193
1570519597,31.50785766,120.4017557,719.0849512,-0.73144985,-0.849684009,-0.269622389,18.03659778,0.993643122,0.001925681,19.11778471,0.961338111,-0.012976898,3.374353965,5.797366121,0.256625546,20.55960283,0.959930004,-0.019897643,-0.73144985,0.849684009,6.037016079,0.41905015,5.677060069,0.479325466,31.50784472,120.4017541,12.55731682
1570519597,31.50786308,120.401756,719.8355259,-0.547969882,-0.837923348,-0.282471631,18.63755903,1.025941215,-0.01117258,19.69737052,1.000846413,-0.00774177,3.224205847,5.53267562,0.205637401,21.1607677,0.988186062,-0.006799382,-0.547969882,0.837923348,6.049865321,0.602530118,5.665299408,0.492174708,31.50784996,120.4017543,12.56255349
1570519597,31.50786827,120.4017563,719.8928217,-0.513246631,-0.941033812,-0.29372284,19.21301821,1.05348958,-0.012170861,20.27927951,1.036366345,-0.003899444,3.018938922,5.476598597,0.225917743,21.73608227,1.018605101,-0.005801101,-0.513246631,0.941033812,6.06111653,0.637253369,5.768409872,0.503425917,31.50785521,120.4017546,12.56639742
1570519597,31.50787404,120.4017566,719.875633,-0.604912077,-1.009875505,-0.281175308,19.85278689,1.081037933,-0.011868889,20.86252513,1.056860519,-0.009406885,3.065491116,5.592158119,0.257220415,22.37538082,1.055486619,-0.006103072,-0.604912077,1.009875505,6.048568999,0.545587923,5.837251565,0.490878386,31.50786047,120.401755,12.56089164
1570519598,31.50787979,120.401757,717.377537,-0.594186485,-1.055209558,-0.189352743,20.49033786,1.119985622,0.031733143,21.44380031,1.087368324,-0.019993371,2.80555372,5.601374625,0.247656758,23.0136184,1.080803646,-0.049705104,-0.594186485,1.055209558,5.956746433,0.556313515,5.882585618,0.39905582,31.50786571,120.4017553,12.55030687
1570519598,31.50788527,120.4017573,717.8645511,-0.639807971,-1.124112176,-0.200008167,21.09795182,1.146584027,0.023235137,22.0316065,1.117752239,-0.021331087,2.781270539,5.650407188,0.231684439,23.62082952,1.115399071,-0.041207098,-0.639807971,1.124112176,5.967401857,0.510692029,5.951488236,0.409711244,31.50787101,120.4017556,12.54897093
1570519598,31.50789075,120.4017576,717.8244441,-0.399876124,-1.0204001,-0.133949262,21.70556574,1.181731937,0.023937189,22.60745568,1.14716703,-0.018662011,2.656306418,5.76359213,0.232013247,24.22889976,1.141488266,-0.041909151,-0.399876124,1.0204001,5.901342952,0.750623876,5.84777616,0.343652339,31.50787621,120.4017559,12.55164181
1570519598,31.50789628,120.4017579,717.6181792,-0.479774312,-0.963384545,-0.179313067,22.31872358,1.208330331,0.027539319,23.1763893,1.168032358,-0.02520325,2.893825027,5.709288574,0.249039294,24.8416267,1.176640808,-0.04551128,-0.479774312,0.963384545,5.946706757,0.670725688,5.790760605,0.389016144,31.50788133,120.4017562,12.5451024
1570519598,31.5079016,120.4017581,718.0880046,-0.652290502,-1.112084648,-0.096811634,22.90859698,1.229229059,0.019341422,23.76000558,1.196903338,-0.037367045,2.892873816,5.62518831,0.241748372,25.43061431,1.215124309,-0.037313384,-0.652290502,1.112084648,5.864205324,0.498209498,5.939460708,0.306514711,31.50788659,120.4017566,12.53294053
1570519599,31.50790788,120.4017587,716.2258918,-0.584164933,-1.24919738,-0.028012087,23.60491356,1.286225676,0.051843983,24.34961991,1.228810519,-0.035897876,2.775477229,5.713535083,0.193626488,26.12913377,1.228389134,-0.069815944,-0.584164933,1.24919738,5.795405777,0.566335067,6.07657344,0.237715164,31.50789191,120.4017568,12.53441171
1570519599,31.50791343,120.4017591,716.5410186,-0.332135219,-1.031446205,-0.019928919,24.220289,1.322323513,0.046346307,24.95703334,1.262111242,-0.038860738,2.672739736,5.866169356,0.231546521,26.74502169,1.254313165,-0.064318269,-0.332135219,1.031446205,5.787322609,0.818364781,5.858822265,0.229631996,31.50789739,120.4017571,12.53145097
1570519599,31.507919,120.4017593,716.6097735,-0.630354275,-0.779183593,0.015745132,24.83788199,1.34037239,0.045148695,25.54975505,1.280970998,-0.04295464,3.034306102,5.796691678,0.214560369,27.3613022,1.298417636,-0.063120656,-0.630354275,0.779183593,5.751648559,0.520145725,5.606559653,0.193957946,31.50790273,120.4017576,12.52735919
1570519599,31.50792461,120.4017597,716.8561454,-0.48146868,-0.813531147,0.026336294,25.45991014,1.37457033,0.040851165,26.13609276,1.321172015,-0.041093121,2.795305853,5.470876426,0.190784724,27.98361823,1.326900479,-0.058823126,-0.48146868,0.813531147,5.741057396,0.66903132,5.640907207,0.183366783,31.50790803,120.4017578,12.52922287
1570519599,31.50793021,120.4017599,716.8103088,-0.699153146,-0.653046224,0.026902532,26.08082948,1.398318869,0.041653688,26.71948956,1.349391942,-0.045036958,2.829671368,5.52071373,0.202958436,28.603781,1.365668404,-0.059625649,-0.699153146,0.653046224,5.740491158,0.451346854,5.480422284,0.182800545,31.50791329,120.4017581,12.52528124
1570519600,31.5079364,120.4017605,716.4550749,-0.550917151,-0.778641525,0.12979393,26.76716709,1.45436552,0.047856557,27.31257897,1.382807832,-0.045617441,2.727184785,5.336207042,0.119049693,29.29227654,1.378875598,-0.065828518,-0.550917151,0.778641525,5.637599761,0.599582849,5.606017585,0.079909148,31.50791864,120.4017584,12.52470305
1570519600,31.50794206,120.4017608,716.7816609,-0.676967436,-0.961977162,0.097366159,27.39473916,1.480963887,0.042159237,27.88959912,1.405432519,-0.043019556,2.795686512,5.401214443,0.156039251,29.91934476,1.415476655,-0.060131198,-0.676967436,0.961977162,5.670027531,0.473532564,5.789353222,0.112336918,31.50792384,120.4017587,12.52730322
1570519600,31.50794738,120.4017611,717.0394919,-0.551427279,-0.996182007,0.153778215,27.98461256,1.513261924,0.037661816,28.48589254,1.435157191,-0.043874187,2.678113669,5.567151176,0.102552417,30.50947789,1.44261855,-0.055633778,-0.551427279,0.996182007,5.613615476,0.599072721,5.823558067,0.055924863,31.50792922,120.4017591,12.526451
1570519600,31.50795328,120.4017614,717.268675,-0.597393386,-0.927278705,0.188180154,28.63879546,1.540810225,0.033664737,29.08647108,1.463048315,-0.051219775,2.684283778,5.617072588,0.102452397,31.16311768,1.480948606,-0.051636699,-0.597393386,0.927278705,5.579213536,0.553106614,5.754654765,0.021522923,31.50793463,120.4017594,12.5191079
1570519600,31.50795894,120.4017617,717.6926638,-0.643423129,-1.064693633,0.177883289,29.26636755,1.568358527,0.026267604,29.68132657,1.490449733,-0.055599643,2.696862002,5.586165709,0.105376547,31.79028137,1.516604538,-0.044239566,-0.643423129,1.064693633,5.589510402,0.507076871,5.892069693,0.031819789,31.50793999,120.4017597,12.51473055
1570519601,31.50796482,120.4017623,717.5207764,-0.516605553,-0.835980814,0.129819272,29.91833286,1.621555323,0.029270654,30.28744057,1.524173051,-0.049334798,2.670218013,5.734440578,0.101143155,32.44429222,1.529193085,-0.047242615,-0.516605553,0.835980814,5.637574418,0.633894447,5.663356874,0.079883805,31.50794546,120.40176,12.52099803
1570519601,31.50797075,120.4017626,718.002061,-0.310578928,-0.778782485,0.173997873,30.57584214,1.656703166,0.020873794,30.89126421,1.549798791,-0.053541947,2.803704422,5.586184777,0.081100967,33.10200523,1.560296336,-0.038845756,-0.310578928,0.778782485,5.593395817,0.839921072,5.606158545,0.035705204,31.5079509,120.4017604,12.51679355
1570519601,31.50797611,120.4017629,718.259892,-0.413667624,-0.858932576,0.152069482,31.17015068,1.680451686,0.016376688,31.51566442,1.571666695,-0.05585272,3.02327696,5.560924006,0.076419335,33.69569191,1.596390159,-0.03434865,-0.413667624,0.858932576,5.615324208,0.736832376,5.686308636,0.057633595,31.50795653,120.4017608,12.5144856
1570519601,31.50798199,120.4017632,718.6380441,-0.482511523,-0.755556132,0.186527626,31.82211603,1.708949912,0.009779929,32.1371326,1.608084385,-0.058727805,2.88128776,5.586733874,0.054512028,34.34722084,1.633552256,-0.027751891,-0.482511523,0.755556132,5.580866064,0.667988477,5.582932192,0.023175451,31.50796214,120.4017611,12.5116134
1570519601,31.50798758,120.4017635,719.2110019,-0.493699818,-0.629527125,0.174599335,32.44192665,1.734598311,-0.00021693,32.74945079,1.637720094,-0.064348346,2.843006958,5.548200655,0.034405005,34.96647143,1.670318524,-0.017755031,-0.493699818,0.629527125,5.592794356,0.656800182,5.456903185,0.035103743,31.50796766,120.4017614,12.50599575
1570519602,31.50799341,120.4017642,718.2140554,-0.378707687,-0.607006281,0.105138385,33.08834797,1.803944128,0.017186424,33.36020483,1.671912344,-0.062577127,2.761463285,5.395311143,0.036950289,35.61658917,1.666282678,-0.035158385,-0.378707687,0.607006281,5.662255305,0.771792313,5.434382341,0.104564692,31.50797317,120.4017617,12.50776991
1570519602,31.50799902,120.4017645,718.4604272,-0.367139979,-0.549754564,0.093434547,33.71037613,1.832442347,0.012889703,33.94572057,1.695740631,-0.066754571,2.876502623,5.394590242,0.046929717,36.23833245,1.700436392,-0.030861664,-0.367139979,0.549754564,5.673959144,0.783360021,5.377130624,0.116268531,31.50797844,120.4017621,12.50359534
1570519602,31.5080046,120.4017648,718.9589005,-0.149660015,-0.572788573,0.13825787,34.32907797,1.865690287,0.004193025,34.53089373,1.730638974,-0.068553706,2.773195332,5.326403068,0.003871711,36.85724354,1.729530164,-0.022164986,-0.149660015,0.572788573,5.629135821,1.000839985,5.400164633,0.071445208,31.50798373,120.4017624,12.50179914
1570519602,31.50801019,120.401765,719.7209344,-0.573266411,-0.50386558,0.071275537,34.94888861,1.879939338,-0.009103591,35.15008026,1.750353549,-0.071008233,3.146132063,5.369861946,0.017776886,37.47534862,1.777638079,-0.00886837,-0.573266411,0.50386558,5.696118154,0.577233589,5.33124164,0.138427541,31.5079893,120.4017628,12.49934777
1570519602,31.50801608,120.4017653,720.0990865,-0.332194738,-0.653252502,-0.02102462,35.60196276,1.911287377,-0.015699955,35.75502732,1.787341049,-0.059325041,2.770762173,5.226356702,0.00976844,38.12826711,1.812076212,-0.002272006,-0.332194738,0.653252502,5.78841831,0.818305262,5.480628562,0.230727697,31.50799476,120.4017631,12.5110341
1570519603,31.50802198,120.4017661,718.2713511,-0.055398594,-0.527334881,-0.4122729,36.25614548,1.984432933,0.016203766,36.37506281,1.814646041,-0.063568522,2.855038128,5.368187408,0.095114967,38.78648881,1.805039807,-0.034175727,-0.055398594,0.527334881,6.179666591,1.095101406,5.354710941,0.621975978,31.50800035,120.4017634,12.5067939
1570519603,31.50802758,120.4017662,718.7698244,-0.075865785,-0.550681653,-0.904889932,36.87706488,1.998681975,0.007507344,36.95011117,1.849571604,-0.067969958,3.118654173,5.34694273,0.378212635,39.40569704,1.85325915,-0.025479306,-0.075865785,0.550681653,6.672283622,1.074634215,5.378057713,1.114593009,31.50800554,120.4017637,12.50239557
1570519603,31.50803315,120.4017663,719.5261287,-0.08317812,-0.654312543,-1.489280368,37.49465796,2.004381523,-0.005689038,37.55169848,1.896845367,-0.066545037,3.140801846,5.293186733,0.870228213,40.02073665,1.909650447,-0.012282923,-0.08317812,0.654312543,7.256674058,1.06732188,5.481688603,1.698983445,31.50801098,120.4017638,12.50382379
1570519603,31.50803869,120.4017663,719.5891541,0.216795764,-0.545977454,-2.201360544,38.10892462,2.009131124,-0.006785382,38.12157103,1.951530461,-0.057650391,3.128265954,5.414331401,1.410071043,40.63237121,1.96665261,-0.011186579,0.216795764,0.545977454,7.968754234,1.367295764,5.373353514,2.411063621,31.50801615,120.4017638,12.51272162
1570519603,31.50804426,120.4017662,719.9959541,0.315238756,-0.633394825,-3.107655646,38.72651766,1.998681627,-0.013881651,38.69813026,2.009325309,-0.063175044,3.434916089,5.318861705,2.126790143,41.24578796,2.039111203,-0.004090311,0.315238756,0.633394825,8.875049336,1.465738756,5.460770885,3.317358723,31.50802137,120.4017638,12.50720024
1570519604,31.50805044,120.4017663,720.3282696,0.284979055,-0.585928313,-4.150763094,39.41174656,2.007230988,-0.019677434,39.28137717,2.076911194,-0.067999666,3.508614101,5.373857567,2.988426035,41.9284074,2.099463843,0.001705472,0.284979055,0.585928313,9.918156784,1.435479055,5.413304373,4.360466171,31.50802667,120.4017638,12.50237899
1570519604,31.50805603,120.401766,720.8954978,0.415602757,-0.783434189,-5.413494426,40.03155719,1.97208296,-0.02957357,39.88170738,2.1645568,-0.066746991,3.51893507,5.306279109,3.889565822,42.54154855,2.196718791,0.011601609,0.415602757,0.783434189,11.18088812,1.566102757,5.610810249,5.623197507,31.50803213,120.4017635,12.5036352
1570519604,31.50806161,120.4017654,721.1590584,0.250154953,-0.938043717,-6.710069698,40.650259,1.915086231,-0.034169658,40.50462887,2.262829461,-0.063917342,3.616026833,5.495421217,5.111713221,43.15139092,2.315600416,0.016197697,0.250154953,0.938043717,12.47746339,1.400654953,5.765419777,6.919772777,31.50803781,120.4017631,12.50646857
1570519604,31.50806714,120.4017645,721.4856444,0.006381881,-1.05644965,-8.154962653,41.26341689,1.838140695,-0.039865728,41.11743919,2.38450627,-0.066157406,3.55073654,5.573910198,6.381371859,43.75371278,2.45377276,0.021893766,0.006381881,1.05644965,13.92235634,1.156881881,5.88382571,8.364665727,31.50804342,120.4017625,12.50423224
1570519604,31.50807267,120.4017637,722.0184951,0.328926214,-1.144758747,-9.87128644,41.87657481,1.756445453,-0.049161739,41.7407125,2.530839589,-0.064982692,3.18609915,5.639222025,7.766024702,44.35555736,2.596670771,0.031189777,0.328926214,1.144758747,15.63868013,1.479426214,5.972134807,10.08098952,31.50804915,120.4017616,12.50541083
1570519605,31.50807872,120.4017628,720.947064,0.206720341,-1.211296652,-11.88403849,42.54738934,1.675700145,-0.030457303,42.3509167,2.681652105,-0.064958568,3.258283499,5.678341671,9.426584789,45.01486216,2.744417574,0.012485341,0.206720341,1.211296652,17.65143218,1.357220341,6.038672712,12.09374157,31.50805476,120.4017607,12.50543881
1570519605,31.50808407,120.4017613,721.1304105,-0.02431239,-1.019044267,-14.07355908,43.14058909,1.534158491,-0.033653337,42.97767866,2.86512377,-0.069040784,3.04542835,5.863848638,11.34551875,45.59083563,2.944853458,0.015681376,-0.02431239,1.019044267,19.84095277,1.12618761,5.846420327,14.28326216,31.50806055,120.4017594,12.50136063
1570519605,31.50808969,120.4017595,721.2851091,-0.038647786,-0.931888184,-16.49002615,43.76372601,1.36316861,-0.036349115,43.57936952,3.079582951,-0.068868327,2.726074279,5.643971562,13.48469432,46.19363548,3.177596894,0.018377153,-0.038647786,0.931888184,22.25741984,1.111852214,5.759264244,16.69972923,31.50806614,120.4017578,12.50153704
1570519605,31.50809476,120.4017577,721.6002359,0.232838209,-1.181008086,-19.03254558,44.32587981,1.185529153,-0.041845252,44.17632139,3.318236389,-0.08104739,2.461261859,5.538107519,15.68896838,46.73509268,3.410828046,0.023873291,0.232838209,1.181008086,24.79993927,1.383338209,6.008384146,19.24224866,31.50807172,120.4017559,12.48936198
1570519605,31.50809987,120.4017553,721.8523374,-0.049265457,-1.071687225,-21.91818972,44.89246874,0.957542726,-0.046241312,44.7517104,3.578871315,-0.094661621,2.70251786,5.773644477,18.38466957,47.27590319,3.694597001,0.028269351,-0.049265457,1.071687225,27.68558341,1.101234543,5.899063285,22.1278928,31.50807711,120.4017538,12.47575168
1570519606,31.50810569,120.4017526,718.884416,0.009586455,-1.101233095,-25.02041775,45.53778097,0.700108076,0.005563246,45.29689066,3.882282304,-0.101759753,2.367600373,5.759312862,21.14745342,47.89207926,4.015576027,-0.023535208,0.009586455,1.101233095,30.78781144,1.160086455,5.928609155,25.23012083,31.50808228,120.4017512,12.46865737
1570519606,31.50811034,120.4017498,718.9589005,0.174836938,-1.125711037,-28.0464118,46.0533658,0.436973811,0.00426694,45.80729144,4.212583447,-0.108933993,2.159187071,5.722009735,24.15764728,48.37861183,4.329189495,-0.022238902,0.174836938,1.125711037,33.81380549,1.325336938,5.953087097,28.25611488,31.50808716,120.4017483,12.4614868
1570519606,31.50811528,120.4017463,718.6724216,0.082023859,-1.095879539,-31.41461268,46.60110533,0.104493732,0.00927092,46.31821897,4.562070252,-0.133787128,2.18225546,5.904831096,27.3367922,48.89016778,4.715028983,-0.027242882,0.082023859,1.095879539,37.18200637,1.232523859,5.923255599,31.62431576,31.50809206,120.4017452,12.4366374
1570519606,31.50811978,120.4017426,719.0161963,-0.152779707,-1.164129798,-34.67573335,47.10005844,-0.244135345,0.003274604,46.7911294,4.954545074,-0.150343445,1.893559059,5.857851888,30.49442147,49.35156144,5.112033171,-0.021246565,-0.152779707,1.164129798,40.44312704,0.997720293,5.991505858,34.88543643,31.50809666,120.4017416,12.42008464
1570519606,31.50812385,120.4017389,719.3198639,-0.244704379,-0.980688069,-37.91874012,47.55133381,-0.596564162,-0.002022011,47.20858374,5.374534734,-0.125981999,1.806941759,5.698248782,33.7034199,49.76513687,5.508026724,-0.015949951,-0.244704379,0.980688069,43.68613381,0.905795621,5.808064129,38.1284432,31.50810079,120.4017376,12.44444934
1570519607,31.50812847,120.4017343,718.9016047,-0.041139271,-0.861187992,-41.52757369,48.06359227,-1.034487801,0.0052819,47.6306456,5.81949559,-0.116623394,1.507320968,5.465747724,37.02268604,50.23079531,5.995210526,-0.023253861,-0.041139271,0.861187992,47.29496738,1.109360729,5.688564052,41.73727677,31.50810498,120.4017334,12.45381132
1570519607,31.50813232,120.4017298,719.0391146,0.045939473,-0.588905558,-45.08835495,48.4904744,-1.46196204,0.002885228,48.03451609,6.289758133,-0.130716262,1.489420122,5.474857722,40.5499238,50.61255966,6.463418345,-0.02085719,0.045939473,0.588905558,50.85574864,1.196439473,5.416281618,45.29805803,31.50810903,120.4017289,12.43972177
1570519607,31.50813585,120.4017249,719.3657005,-0.29968246,-0.449845246,-48.64868661,48.88187547,-1.925534076,-0.002811649,48.39818078,6.790653154,-0.139054113,1.471572069,5.249075738,44.06604272,50.95539508,6.963975743,-0.015160312,-0.29968246,0.449845246,54.4160803,0.85081754,5.277221306,48.85838969,31.50811275,120.401724,12.43138704
1570519607,31.50813925,120.4017198,719.9501175,-0.367424853,-0.473848374,-52.27271123,49.25886241,-2.415704484,-0.013008571,48.71782085,7.30789495,-0.134971563,1.111703583,5.091879743,47.59786188,51.28121646,7.489548394,-0.004963391,-0.367424853,0.473848374,58.04010492,0.783075147,5.301224434,52.48241431,31.50811608,120.401719,12.43547246
1570519607,31.50814243,120.4017144,720.3168105,-0.289717435,-0.334636757,-55.7329287,49.61145609,-2.92582366,-0.019405615,49.02258243,7.862161097,-0.136232873,0.802303308,5.240171705,51.22168368,51.58076339,8.032517552,0.001433653,-0.289717435,0.334636757,61.50032239,0.860782565,5.162012817,55.94263178,31.50811932,120.4017135,12.43421403
1570519608,31.50814532,120.4017093,719.6808273,-0.420792749,-0.210237021,-58.68165074,49.9318949,-3.411244291,-0.008302863,49.2954448,8.407885195,-0.148856335,0.995154635,5.29750598,54.71579873,51.85080019,8.547681942,-0.009669099,-0.420792749,0.210237021,64.44904443,0.729707251,5.037613081,58.89135382,31.50812226,120.401708,12.42159325
1570519608,31.50814848,120.4017026,720.7006922,-0.102170885,-0.008136001,-62.23604877,50.28227119,-4.048655729,-0.026099728,49.54505894,8.990853438,-0.148756447,0.803872974,5.306171529,58.06610658,52.13534935,9.217076191,0.008127767,-0.102170885,0.008136001,68.00344246,1.048329115,4.835512061,62.44575185,31.50812503,120.4017022,12.42169577
1570519608,31.50815089,120.4016965,721.2679204,-0.124367305,0.151683878,-65.28266073,50.5494886,-4.630020542,-0.03599721,49.76532777,9.578711888,-0.128469292,1.118769752,5.173731923,61.18055494,52.34279271,9.822350875,0.018025249,-0.124367305,-0.151683878,71.05005442,1.026132695,4.675692182,65.49236381,31.50812754,120.4016963,12.4419854
1570519608,31.50815306,120.4016901,721.9497402,-0.184585628,0.027016107,-68.36549167,50.79009524,-5.236083851,-0.047894824,49.95747733,10.17121411,-0.123602835,1.31796588,4.930986448,64.22372106,52.52127804,10.44952491,0.029922863,-0.184585628,-0.027016107,74.13288536,0.965914372,4.800359953,68.57519475,31.5081298,120.4016903,12.4468542
1570519608,31.5081549,120.4016836,722.5513459,-0.265817673,0.232290332,-71.42758921,50.99411201,-5.85259652,-0.058392654,50.1111841,10.80916726,-0.117918686,1.221850876,4.966653672,67.2951616,52.66230868,11.0834185,0.040420692,-0.265817673,-0.232290332,77.1949829,0.884682327,4.595085728,71.63729229,31.50813176,120.4016838,12.45254054
1570519609,31.5081573,120.4016763,721.5028331,-0.2631022,-0.070468097,-74.48446815,51.26022058,-6.540354797,-0.040089846,50.24972603,11.47595403,-0.125495833,1.11569702,4.770808614,70.3017393,52.85795731,11.79443666,0.022117884,-0.2631022,0.070468097,80.25186184,0.8873978,4.897844157,74.69417123,31.50813361,120.4016769,12.44496558
1570519609,31.50815862,120.4016698,721.9497402,-0.309712182,-0.071156793,-77.16193225,51.40658061,-7.159717279,-0.047887997,50.36495985,12.13354922,-0.129166108,1.139779619,4.954920202,73.38087391,52.94133668,12.4253717,0.029916035,-0.309712182,0.071156793,82.92932594,0.840787818,4.898532853,77.37163533,31.50813524,120.4016702,12.44129738
1570519609,31.50815983,120.4016625,722.671667,-0.239069162,-0.035778925,-79.88249975,51.54074415,-7.85222534,-0.060486097,50.42710166,12.76429602,-0.121155326,1.159545884,5.055895066,76.22548187,53.00523088,13.12785643,0.042514135,-0.239069162,0.035778925,85.64989344,0.911430838,4.863154985,80.09220283,31.50813637,120.4016636,12.44930985
1570519609,31.50816078,120.4016555,723.5081854,-0.070140739,-0.076471554,-82.26400543,51.64607933,-8.522884732,-0.075084381,50.46693166,13.41589898,-0.117702627,1.22751586,4.944379815,78.8824728,53.04263823,13.80570613,0.057112419,-0.070140739,0.076471554,88.03139912,1.080359261,4.903847614,82.47370851,31.50813731,120.4016568,12.45276417
1570519609,31.50816144,120.4016484,723.9951995,-0.184350533,-0.120825429,-84.42308594,51.71925976,-9.199243788,-0.083582846,50.48776596,14.08829853,-0.106716389,1.379078292,4.937105285,81.30982364,53.04748083,14.4859954,0.065610884,-0.184350533,0.120825429,90.19047963,0.966149467,4.948201489,84.63278902,31.50813811,120.4016498,12.463752
1570519610,31.50816274,120.4016401,722.453943,-0.413402919,-0.262954174,-86.48984484,51.86340226,-9.979146455,-0.0566805,50.48245135,14.74840783,-0.103930709,1.419596704,4.996795264,83.53878014,53.11252118,15.27643514,0.038708539,-0.413402919,0.262954174,92.25723853,0.737097081,5.090330234,86.69954792,31.50813866,120.4016429,12.46653912
1570519610,31.50816326,120.4016327,723.2217065,0.075382332,-0.373903452,-88.26610726,51.92105986,-10.68305384,-0.07007889,50.44584922,15.40949291,-0.096883068,1.076767014,4.893357326,85.53457303,53.0991512,15.98257341,0.052106929,0.075382332,0.373903452,94.03350095,1.225882332,5.201279512,88.47581034,31.50813893,120.4016359,12.47358804
1570519610,31.50816353,120.4016253,723.811853,0.226328607,-0.356877092,-89.82244067,51.95099788,-11.38981108,-0.080377424,50.40851481,16.05811085,-0.096765384,1.524484078,5.052458759,87.37310331,53.05791556,16.68876156,0.062405462,0.226328607,0.356877092,95.58983436,1.376828607,5.184253152,90.03214375,31.50813918,120.4016291,12.47370702
1570519610,31.50816359,120.4016178,724.3389742,-0.02962646,-0.291989724,-91.09386344,51.95765146,-12.09751828,-0.089576066,50.36297234,16.6706731,-0.09635047,1.785211937,5.022264995,89.02745694,52.99341789,17.39355501,0.071604105,-0.02962646,0.291989724,96.86125713,1.12087354,5.119365784,91.30356652,31.50813933,120.4016226,12.47412315
1570519610,31.50816356,120.4016104,724.9176616,-0.233585289,-0.077312657,-92.14732157,51.95432604,-12.80617545,-0.099674712,50.31070709,17.27786851,-0.108026784,1.727456084,5.020529985,90.33848301,52.91889627,18.09829082,0.081702751,-0.233585289,0.077312657,97.91471526,0.916914711,4.904688717,92.35702465,31.50813941,120.4016162,12.46244805
1570519611,31.50816406,120.401603,723.2560839,0.067637823,-0.111780699,-92.86081554,52.00976592,-13.51103268,-0.070672806,50.22733733,17.90344466,-0.091829213,1.385843582,4.668233816,91.40467446,52.90322434,18.80515127,0.052700845,0.067637823,0.111780699,98.62820923,1.218137823,4.939156759,93.07051862,31.50813923,120.4016096,12.47864671
1570519611,31.50816399,120.4015942,723.8863375,-0.022107058,-0.073619367,-93.44439645,52.00200564,-14.34698215,-0.081671046,50.1716574,18.5415696,-0.09165204,1.777932367,4.69245146,92.33080958,52.81149868,19.63608937,0.063699084,-0.022107058,0.073619367,99.21179014,1.128392942,4.900995427,93.65409953,31.50813931,120.4016028,12.47882527
1570519611,31.50816388,120.4015865,724.6770193,-0.191267778,-0.103386852,-93.65481621,51.98981015,-15.07748801,-0.095469461,50.10880498,19.17276996,-0.092428126,1.738839863,4.641907995,92.90751163,52.72595632,20.36167193,0.0774975,-0.191267778,0.103386852,99.4222099,0.959232222,4.930762912,93.86451929,31.50813932,120.4015962,12.47805057
1570519611,31.50816388,120.4015783,725.278625,0.108000403,-0.32068386,-93.82562581,51.98981139,-15.85454104,-0.105967579,50.04874944,19.80208807,-0.092881314,1.567502167,4.617570738,93.1567628,52.64787141,21.13479168,0.087995618,0.108000403,0.32068386,99.5930195,1.258500403,5.14805992,94.03532889,31.50813935,120.4015895,12.47759884
1570519611,31.50816391,120.4015709,725.685425,0.583388532,-0.466650635,-93.88466245,51.9931389,-16.55749853,-0.113065767,49.99737987,20.42712359,-0.078733197,1.671643014,4.818528732,93.32288176,52.5805418,21.83452523,0.095093806,0.583388532,0.466650635,99.65205614,1.733888532,5.294026695,94.09436553,31.50813946,120.4015829,12.49174853
1570519612,31.50816403,120.4015625,725.3874869,0.335596565,-0.564120441,-93.94035051,52.00644557,-17.35735012,-0.107863534,49.95136985,21.11416943,-0.080684047,2.203773696,5.084944474,93.48222484,52.51340394,22.6316652,0.089891573,0.335596565,0.564120441,99.7077442,1.486096565,5.391496501,94.15005359,31.50813966,120.4015757,12.48979956
1570519612,31.50816392,120.4015547,725.9719039,0.208025019,-0.381853987,-94.02875138,51.99425028,-18.09545552,-0.118061583,49.87339665,21.82460344,-0.073246008,2.02216559,5.123872208,93.56386974,52.4270981,23.36480885,0.100089622,0.208025019,0.381853987,99.79614507,1.358525019,5.209230047,94.23845446,31.50813961,120.4015681,12.4972394
1570519612,31.50816383,120.4015465,726.4474589,0.200850748,-0.171038469,-94.19031117,51.98427267,-18.87155862,-0.126359419,49.79946794,22.50219431,-0.066434563,1.81605322,5.075696641,93.67828059,52.3391803,24.13598071,0.108387458,0.200850748,0.171038469,99.95770486,1.351350748,4.998414529,94.40001425,31.50813956,120.401561,12.50405263
1570519612,31.50816373,120.4015391,726.9516617,0.177661702,-0.196025287,-94.31207409,51.97318619,-19.57736598,-0.135157383,49.72491015,23.19398625,-0.063813844,1.761058761,4.767445112,93.81458488,52.25722329,24.83710124,0.117185422,0.177661702,0.196025287,100.0794678,1.328161702,5.023401347,94.52177719,31.50813952,120.4015536,12.50667526
1570519612,31.50816354,120.4015313,727.6563998,-0.047638266,-0.236996646,-94.40883473,51.95212081,-20.31737131,-0.147455244,49.64460615,23.9023861,-0.067199759,1.784846529,4.70863241,93.9846107,52.16190132,25.57124383,0.129483283,-0.047638266,0.236996646,100.1762284,1.102861734,5.064372706,94.61853779,31.50813944,120.4015461,12.50329135
1570519613,31.50816366,120.4015233,727.667859,0.064164473,-0.402985166,-94.40915888,51.96542773,-21.07542544,-0.147652678,49.541438,24.62174678,-0.060169384,1.46167585,4.756775438,94.00956144,52.09896394,26.32679795,0.129680716,0.064164473,0.402985166,100.1765526,1.214664473,5.230361226,94.61886199,31.50813917,120.4015385,12.51032368
1570519613,31.50816346,120.4015157,728.33249,-0.178364584,-0.412486193,-94.51386315,51.94325363,-21.80403146,-0.159250412,49.44186288,25.3271771,-0.052844635,1.527475411,4.887460218,94.11476344,52.0036844,27.04948753,0.14127845,-0.178364584,0.412486193,100.2812568,0.972135416,5.239862253,94.72356619,31.50813891,120.401531,12.51765044
1570519613,31.50816331,120.401508,728.9856619,-0.17052885,-0.404096732,-94.53009707,51.9266235,-22.53168753,-0.170648021,49.34197764,25.99929245,-0.047521152,1.243290359,4.919450771,94.16177973,51.91401621,27.77178909,0.15267606,-0.17052885,0.404096732,100.2974908,0.97997115,5.231472792,94.73980019,31.50813862,120.4015238,12.52297588
1570519613,31.50816317,120.4015003,729.6961296,-0.142786975,-0.476167787,-94.66807003,51.91110222,-23.26029355,-0.183045536,49.24925813,26.66323026,-0.043638203,1.155296004,4.854899026,94.16794787,51.8253558,28.49514722,0.165073574,-0.142786975,0.476167787,100.4354637,1.007713025,5.303543847,94.87777309,31.50813839,120.4015168,12.52686087
1570519613,31.50816297,120.4014927,730.2690874,-0.21838987,-0.40640581,-94.73265818,51.88892826,-23.98604976,-0.193043031,49.16570055,27.32455237,-0.039019925,1.228624654,4.951281628,94.31932618,51.73036276,29.21500142,0.17507107,-0.21838987,0.40640581,100.5000519,0.93211013,5.23378187,94.94236129,31.50813824,120.4015098,12.53148132
1570519614,31.50816298,120.401485,729.7018591,-0.263621481,-0.489374933,-94.73230689,51.89003867,-24.71560561,-0.183140239,49.07443696,27.99760155,-0.033135841,1.128625927,4.879671812,94.38159098,51.65815441,29.94097589,0.165168278,-0.263621481,0.489374933,100.4997006,0.886878519,5.316750993,94.94200999,31.50813803,120.4015026,12.53736764
1570519614,31.50816283,120.4014775,730.3378423,-0.161205355,-0.412235231,-94.78142781,51.8734087,-25.42521279,-0.194237588,48.97905961,28.67716664,-0.026977017,1.014514639,4.930316219,94.45677535,51.57030011,30.64531993,0.176265626,-0.161205355,0.412235231,100.5488215,0.989294645,5.239611291,94.99113089,31.50813779,120.4014954,12.54352877
1570519614,31.50816263,120.4014701,730.9566367,-0.193571141,-0.413573695,-94.78974332,51.85123484,-26.12912033,-0.205034927,48.87929837,29.36313203,-0.026996029,1.055095992,4.940610623,94.54025249,51.47750275,31.34343607,0.187062966,-0.193571141,0.413573695,100.557137,0.956928859,5.240949755,94.99944639,31.50813752,120.4014881,12.54351213
1570519614,31.50816248,120.4014627,731.5811607,-0.063140746,-0.610961059,-94.88725647,51.83460494,-26.83112798,-0.21593215,48.77418481,30.0447896,-0.029299131,1.003891346,4.905804408,94.56403859,51.39041221,32.04021906,0.197960189,-0.063140746,0.610961059,100.6546502,1.087359254,5.438337119,95.09695959,31.5081372,120.4014809,12.54121142
1570519614,31.50816221,120.4014555,732.2343326,-0.319148898,-0.68693212,-94.93425292,51.80466966,-27.52363624,-0.227329447,48.67352154,30.71785668,-0.035387553,1.09942129,5.088016459,94.66781387,51.29103823,32.72621369,0.209357486,-0.319148898,0.68693212,100.7016466,0.831351102,5.51430818,95.14395599,31.5081369,120.4014737,12.53512546
1570519615,31.50816226,120.4014481,730.463893,-0.216796105,-0.625552852,-94.85402666,51.81021519,-28.22184389,-0.196426353,48.57568213,31.36470612,-0.035606318,0.876761331,5.151579262,94.63404346,51.22639274,33.42144432,0.178454392,-0.216796105,0.625552852,100.6214203,0.933703895,5.452928912,95.06372969,31.50813661,120.4014668,12.53490912
1570519615,31.50816211,120.401441,731.1056057,-0.038772267,-0.601874585,-94.96834337,51.79358537,-28.89630321,-0.207623471,48.48028576,31.99171195,-0.038980213,0.874134898,5.1340147,94.73890828,51.1420706,34.09081843,0.189651509,-0.038772267,0.601874585,100.7357371,1.111727733,5.429250645,95.17804649,31.50813632,120.4014602,12.53153763
1570519615,31.50816183,120.4014336,731.4665692,-0.336442727,-0.468840553,-94.99180852,51.76254141,-29.59546106,-0.213920522,48.39187102,32.60840857,-0.038021877,1.083656245,5.105627716,94.79668143,51.04092534,34.78331758,0.19594856,-0.336442727,0.468840553,100.7592022,0.814057273,5.296216613,95.20151159,31.50813609,120.4014536,12.53249844
1570519615,31.50816165,120.401427,731.9363945,-0.250281332,-0.39229237,-95.07328146,51.74258516,-30.2233732,-0.222117742,48.29513667,33.20483196,-0.034438854,0.877254727,4.952158843,94.80007322,50.95797114,35.40604586,0.204145781,-0.250281332,0.39229237,100.8406751,0.900218668,5.21966843,95.28298449,31.50813576,120.4014473,12.53608383
1570519615,31.50816147,120.4014201,732.6182143,-0.093049904,-0.458380293,-95.12233553,51.72262906,-30.8788337,-0.234014768,48.21252875,33.7644062,-0.031316975,0.847628454,4.893636467,94.84894329,50.87224876,36.05618306,0.216042806,-0.093049904,0.458380293,100.8897292,1.057450096,5.285756353,95.33203859,31.50813553,120.4014413,12.53920804
1570519616,31.50816141,120.4014131,730.5612958,-0.315281247,-0.565708757,-95.13734074,51.71597805,-31.54569324,-0.198111561,48.11860165,34.34953266,-0.027745209,1.032852985,4.906499658,94.86663831,50.79861864,36.71899864,0.1801396,-0.315281247,0.565708757,100.9047344,0.835218753,5.393084817,95.34704379,31.50813521,120.4014351,12.54278224
1570519616,31.50816119,120.4014064,731.0311212,-0.335622011,-0.469445617,-95.1860893,51.6915868,-32.18120494,-0.206308588,48.01959186,34.92031252,-0.020009172,0.85430725,5.029970062,94.85356676,50.71048822,37.34884234,0.188336627,-0.335622011,0.469445617,100.953483,0.814877989,5.296821677,95.39579239,31.50813484,120.401429,12.55052065
1570519616,31.50816108,120.4013998,731.604079,0.079415013,-0.491139707,-95.27721212,51.67939222,-32.81196691,-0.216305477,47.92797149,35.47918764,-0.017983482,0.660158935,4.938964402,94.84275463,50.63497003,37.97518599,0.198333515,0.079415013,0.491139707,101.0446058,1.229915013,5.318515767,95.48691519,31.50813453,120.4014231,12.55254876
1570519616,31.50816083,120.4013933,732.1254706,-0.080463336,-0.360690774,-95.35755924,51.65167465,-33.43132961,-0.22540249,47.859566,36.0357452,-0.016722591,1.051621941,4.991857153,94.93448355,50.54515294,38.58862817,0.207430529,-0.080463336,0.360690774,101.1249529,1.070036664,5.188066834,95.56726229,31.50813442,120.4014172,12.55381227
1570519616,31.50816057,120.4013868,732.4234087,-0.212098052,-0.318280838,-95.40578533,51.62284828,-34.04404271,-0.230599486,47.77627848,36.57227769,-0.010489816,0.955430066,4.908943308,94.93556325,50.45490088,39.19534298,0.212627525,-0.212098052,0.318280838,101.173179,0.938401948,5.145656898,95.61548839,31.50813416,120.4014114,12.56004749
1570519617,31.50816057,120.4013802,730.939448,0.035958357,-0.233490115,-95.69858297,51.62285013,-34.67005474,-0.204696116,47.68729621,37.10139697,-0.005300032,0.811076885,4.815203003,94.93956817,50.39199471,39.81818636,0.186724154,0.035958357,0.233490115,101.4659767,1.186458357,5.060866175,95.90828609,31.50813384,120.4014058,12.56523969
1570519617,31.50816037,120.4013739,731.306141,0.444754079,-0.276604471,-96.08116164,51.6006765,-35.26756873,-0.211093024,47.61807553,37.623642,-0.000556847,0.938177993,4.817392054,95.10543251,50.30988907,40.41044755,0.193121062,0.444754079,0.276604471,101.8485553,1.595254079,5.103980531,96.29086469,31.50813369,120.4014003,12.56998542
1570519617,31.50815992,120.4013678,731.9077467,0.062543385,-0.239886671,-96.60744018,51.55078326,-35.84988377,-0.221590185,47.55735429,38.14067636,-0.001568023,1.396227621,4.895437434,95.46432175,50.20173149,40.98480117,0.203618224,0.062543385,0.239886671,102.3748339,1.213043385,5.067262731,96.81714329,31.50813361,120.4013948,12.56897688
1570519617,31.50815955,120.4013618,732.4119495,0.249849016,-0.09765039,-97.3383808,51.50976029,-36.4236493,-0.23038727,47.44915635,38.68060872,2.56E-05,1.140109596,4.852120144,95.90423239,50.10325842,41.55153992,0.212415308,0.249849016,0.09765039,103.1057745,1.400349016,4.92502645,97.54808389,31.50813313,120.401389,12.57057295
1570519617,31.50815909,120.4013558,732.9104228,0.474727361,-0.274459293,-98.25665358,51.45875828,-36.99266515,-0.239084412,47.33585836,39.21254437,0.005301664,1.14727052,4.780813732,96.58878487,49.99533411,42.11255025,0.22111245,0.474727361,0.274459293,104.0240473,1.625227361,5.101835353,98.46635669,31.5081326,120.4013833,12.57585147
1570519618,31.50815846,120.4013496,732.3088171,0.276679441,-0.205309552,-99.22296667,51.38890686,-37.57972988,-0.228581548,47.22875374,39.74868915,0.000601575,1.502668107,4.890639696,97.44135114,49.86684208,42.68962391,0.210609586,0.276679441,0.205309552,104.9903604,1.427179441,5.032685612,99.43266979,31.50813212,120.4013776,12.57115393
1570519618,31.50815774,120.4013439,732.8244791,0.206882709,-0.038066173,-100.4344081,51.3090764,-38.11929763,-0.237578994,47.09913811,40.27743669,0.000667786,1.366178877,4.978604345,98.44059947,49.7331945,43.21843823,0.219607032,0.206882709,0.038066173,106.2018018,1.357382709,4.865442233,100.6441112,31.50813144,120.4013719,12.57122254
1570519618,31.50815689,120.4013383,733.586513,0.125899947,-0.353618045,-101.7215098,51.21483179,-38.6550657,-0.250876533,46.96086905,40.79212008,0.000234193,1.282177103,4.72667456,99.587593,49.58558756,43.74202362,0.232904572,0.125899947,0.353618045,107.4889035,1.276399947,5.180994105,101.9312129,31.50813066,120.4013664,12.57079124
1570519618,31.50815597,120.4013328,733.9245581,0.111903217,-0.264466798,-103.0904644,51.11282559,-39.1737348,-0.256774192,46.81064293,41.31863217,0.000410997,1.210218494,5.023102356,100.8273584,49.43197659,44.24781663,0.238802231,0.111903217,0.264466798,108.8578581,1.262403217,5.091842858,103.3001675,31.50812979,120.4013607,12.57097037
1570519618,31.50815492,120.4013275,734.4574088,0.072986865,-0.186694044,-104.6330701,50.99640521,-39.68195461,-0.266071989,46.64578365,41.82274153,0.000216063,1.170948672,5.037107175,102.2162514,49.26507446,44.74176477,0.248100028,0.072986865,0.186694044,110.4004638,1.223486865,5.014070104,104.8427732,31.50812877,120.4013553,12.57077756
1570519619,31.50815366,120.4013217,734.9215047,-0.114360083,-0.172040004,-106.4158806,50.85670049,-40.22437246,-0.274169715,46.47059581,42.31721405,0.002809039,1.201261274,4.925715102,103.686225,49.07156929,45.26739799,0.256197753,-0.114360083,0.172040004,112.1832742,1.036139917,4.999416064,106.6255836,31.50812765,120.4013499,12.57337257
1570519619,31.50815225,120.4013165,735.6491611,-0.197807202,-0.196492823,-108.5380101,50.70036388,-40.72024323,-0.28686782,46.25764223,42.78741533,0.001481071,1.052796005,4.913099591,105.3991136,48.86619394,45.7450484,0.268895858,-0.197807202,0.196492823,114.3054038,0.952692798,5.023868883,108.7477132,31.50812616,120.4013447,12.57204626
1570519619,31.50815075,120.4013117,736.0273132,-0.259455341,-0.113062981,-110.6108864,50.53404803,-41.17526647,-0.293466228,46.03319672,43.26236171,0.005344339,0.901986366,4.887082651,107.3952508,48.65499464,46.18105525,0.275494266,-0.259455341,0.113062981,116.3782801,0.891044659,4.940439041,110.8205895,31.50812458,120.4013395,12.57591117
1570519619,31.5081488,120.4013066,736.6117302,-0.787874975,-0.07006588,-113.10246,50.31783706,-41.66638778,-0.303664757,45.78657047,43.75147506,0.006406427,0.94638789,4.882830124,109.5794177,48.39052528,46.64796347,0.285692796,-0.787874975,0.07006588,118.8698536,0.362625025,4.89744194,113.312163,31.50812281,120.4013342,12.5769749
1570519619,31.50814681,120.4013017,737.2076063,-1.034138233,-0.092608355,-115.4830626,50.09719085,-42.12711097,-0.314063477,45.51116144,44.20542247,0.009018824,0.492156193,4.711307757,111.8409646,48.12469785,47.08418174,0.296091516,-1.034138233,0.092608355,121.2504563,0.116361767,4.919984415,115.6927657,31.50812075,120.4013291,12.57958855
1570519620,31.50814477,120.4012968,736.382547,-0.940535538,-0.247237785,-117.5457225,49.87100057,-42.59353368,-0.299662161,45.22056907,44.6862188,-0.012047907,0.124711941,4.737668655,114.1724501,47.85278166,47.52551356,0.2816902,-0.940535538,0.247237785,123.3131162,0.209964462,5.074613845,117.7554256,31.50811858,120.4013238,12.55852319
1570519620,31.5081422,120.4012914,737.0643668,-0.720717192,-0.563783525,-120.205356,49.58604512,-43.10460415,-0.311560963,44.92810544,45.10705135,0.005429923,0.169473133,4.87434709,116.5505166,47.51791111,48.00536182,0.293589002,-0.720717192,0.563783525,125.9727497,0.429782808,5.391159585,120.4150591,31.50811633,120.401319,12.57600202
1570519620,31.50813974,120.4012869,737.5800288,-0.796379815,-0.686655934,-122.3590802,49.31328597,-43.53872921,-0.320560141,44.60940893,45.55276064,0.00844798,0.342680983,5.185385106,118.9972376,47.20290739,48.40987977,0.302588179,-0.796379815,0.686655934,128.1264739,0.354120185,5.514031994,122.5687833,31.50811388,120.401314,12.57902111
1570519620,31.50813682,120.4012818,738.0498542,-1.0097289,-0.711321311,-124.4035317,48.98952293,-44.01560193,-0.328759374,44.259797,45.98516,0.015532968,0.398544716,5.410296274,121.2985692,46.83286222,48.8518036,0.310787413,-1.0097289,0.711321311,130.1709254,0.1407711,5.538697371,124.6132348,31.50811113,120.4013091,12.58610688
1570519620,31.50813398,120.401277,738.4165472,-0.736376597,-0.564284315,-126.1590198,48.6746301,-44.4763256,-0.335158602,43.89909148,46.40979817,0.025566544,0.109643018,5.440613521,123.2945319,46.47326519,49.2785515,0.31718664,-0.736376597,0.564284315,131.9264135,0.414123403,5.391660375,126.3687229,31.50810828,120.4013043,12.59614116
1570519621,31.50813068,120.4012715,736.8409133,-0.518599327,-0.460790231,-127.9030492,48.30873319,-44.99689568,-0.307657746,43.52850083,46.80940505,0.025256877,0.338733149,5.369987283,125.0915686,46.05690829,49.75971747,0.289685785,-0.518599327,0.460790231,133.6704429,0.631900673,5.288166291,128.1127523,31.50810532,120.4012997,12.595832
1570519621,31.5081274,120.4012667,737.1273922,-0.407816731,-0.492270767,-129.7948435,47.94505385,-45.45191996,-0.312657278,43.14240267,47.22758103,0.022564111,0.655919672,5.230042711,126.8780097,45.64934443,50.17589226,0.294685316,-0.407816731,0.492270767,135.5622372,0.742683269,5.319646827,130.0045466,31.50810223,120.4012949,12.59313983
1570519621,31.50812399,120.401262,737.6602429,-0.108199715,-0.46630112,-131.7906864,47.56696033,-45.9012447,-0.321956905,42.731093,47.64570542,0.016072598,0.784304455,5.281970658,128.7665842,45.22801211,50.58494789,0.303984943,-0.108199715,0.46630112,137.5580801,1.042300285,5.29367718,132.0003895,31.50809892,120.4012901,12.58664879
1570519621,31.50812033,120.4012574,738.0956908,-0.152637183,-0.358483697,-133.8686546,47.16114712,-46.33252068,-0.329556815,42.30129693,48.06933135,0.01693386,1.039230226,5.31119287,130.7683074,44.78091413,50.97326056,0.311584854,-0.152637183,0.358483697,139.6360483,0.997862817,5.185859757,134.0783577,31.50809545,120.4012852,12.58751052
1570519621,31.50811644,120.401253,738.5311388,-0.386428356,-0.437234067,-136.0616276,46.72983183,-46.75144754,-0.337156949,41.84951652,48.46463914,0.017911615,1.125016944,5.22768521,132.8124425,44.30968413,51.34672392,0.319184988,-0.386428356,0.437234067,141.8290213,0.764071644,5.264610127,136.2713307,31.50809175,120.4012806,12.58848844
1570519622,31.50811219,120.4012481,736.966964,-0.391439338,-0.414778084,-138.2024682,46.25860028,-47.22167129,-0.309856938,41.37039171,48.84589674,0.019346416,0.882474164,5.284177923,134.9971162,43.79358509,51.76721331,0.291884976,-0.391439338,0.414778084,143.9698619,0.759060662,5.242154144,138.4121713,31.5080878,120.4012761,12.58992319
1570519622,31.5081082,120.4012441,737.3966823,-0.283415943,-0.482541592,-140.3889775,45.816197,-47.6016506,-0.31735732,40.86164869,49.21532884,0.015247903,0.839602773,5.28610979,137.186911,43.31523707,52.10081204,0.299385359,-0.283415943,0.482541592,146.1563712,0.867084057,5.309917652,140.5986806,31.50808357,120.4012717,12.58582441
1570519622,31.50810353,120.4012399,737.9008852,-0.606836988,-0.545336858,-142.7793314,45.29839645,-47.99587946,-0.326158083,40.35608469,49.55007406,0.017408495,0.897836842,5.291728329,139.4470144,42.76044149,52.4410115,0.308186121,-0.606836988,0.545336858,148.5467251,0.543663012,5.372712918,142.9890345,31.50807934,120.4012677,12.58798455
1570519622,31.50809892,120.4012362,738.3363331,-0.919675964,-0.479493349,-145.0686666,44.78724842,-48.3502107,-0.333759032,39.81869153,49.87517253,0.020032427,0.751671973,5.350507668,141.7124413,42.21627409,52.74218382,0.315787071,-0.919675964,0.479493349,150.8360603,0.230824036,5.306869409,145.2783697,31.50807481,120.4012637,12.59060783
1570519622,31.5080944,120.4012327,738.5597867,-0.9617523,-0.58890212,-147.1881701,44.28607934,-48.68174326,-0.337660027,39.25549865,50.1795139,0.027933278,0.312844638,5.254782514,143.9503318,41.68432615,53.02167564,0.319688065,-0.9617523,0.58890212,152.9555637,0.1887477,5.41627818,147.3978731,31.50807003,120.4012599,12.59850778
1570519623,31.5080893,120.4012286,737.2190654,-0.606348666,-0.474735343,-149.1786879,43.72060087,-49.0759722,-0.314260925,38.68512184,50.47096658,0.019831238,0.322680585,5.315346986,146.2174506,41.08209399,53.35708403,0.296288963,-0.606348666,0.474735343,154.9460815,0.544151334,5.302111403,149.3883909,31.50806518,120.4012563,12.59040475
1570519623,31.50808432,120.4012253,737.7805641,-0.652421806,-0.329434213,-151.2085811,43.16842766,-49.38660637,-0.324062306,38.11503237,50.73535623,0.012158596,0.561716614,5.330538495,148.2710841,40.50150019,53.61065784,0.306090345,-0.652421806,0.329434213,156.9759747,0.498078194,5.156810273,151.4182841,31.5080603,120.4012529,12.58273098
1570519623,31.50807886,120.4012222,738.1186092,-1.232420772,-0.533846253,-153.4922199,42.56303269,-49.6801418,-0.329964113,37.54168015,50.97977439,0.016100385,0.818010609,5.091242876,150.3555731,39.86967229,53.84187121,0.311992152,-1.232420772,0.533846253,159.2596136,-0.081920772,5.361222313,153.701923,31.50805538,120.4012497,12.58667152
1570519623,31.50807362,120.4012193,737.9810993,-0.959905296,-0.589708888,-155.5974527,41.98203086,-49.958478,-0.327565807,36.94290394,51.17924999,0.020423922,0.12168391,5.208479644,152.4100966,39.26364142,54.06041355,0.309593845,-0.959905296,0.589708888,161.3648464,0.190594704,5.417084948,155.8071558,31.50805018,120.401247,12.59099338
1570519623,31.50806827,120.4012166,738.4910317,-0.810607997,-0.62410089,-157.9150767,41.38883236,-50.21211584,-0.336467709,36.33270084,51.38419679,-0.01244366,0.257435347,5.222728457,154.5522623,38.64795757,54.25315691,0.318495748,-0.810607997,0.62410089,163.6824704,0.339892003,5.45147695,158.1247798,31.50804489,120.4012442,12.55812416
1570519624,31.50806258,120.4012138,738.1014204,-0.808449383,-0.695924774,-160.1152236,40.75793516,-50.47905298,-0.329669683,35.71604781,51.56571895,0.002334813,0.421517475,5.293633338,156.8006187,37.99342939,54.4553439,0.311697722,-0.808449383,0.695924774,165.8826173,0.342050617,5.523300834,160.3249267,31.50803953,120.4012417,12.57290084
1570519624,31.50805701,120.4012118,738.1186092,-1.120500576,-0.650716427,-162.4952134,40.14034306,-50.67189454,-0.329972089,35.08853957,51.71883958,0.011092944,0.485182316,5.342402847,159.1075857,37.35958484,54.58514741,0.312000127,-1.120500576,0.650716427,168.2626071,0.029999424,5.478092487,162.7049165,31.50803403,120.4012394,12.58165695
1570519624,31.50805165,120.4012099,738.0154768,-0.928424391,-0.62664612,-164.6731083,39.54603535,-50.847637,-0.328174418,34.45062553,51.83782536,0.010109103,0.123274932,5.296881119,161.4020429,36.7506251,54.70027823,0.310202456,-0.928424391,0.62664612,170.440502,0.222075609,5.45402218,164.8828114,31.50802842,120.4012375,12.58067083
1570519624,31.50804555,120.4012082,738.4967613,-1.042308976,-0.928816726,-166.7492883,38.8696776,-51.01388053,-0.336577265,33.79257576,51.95780166,0.00406138,0.278827164,5.247161501,163.763071,36.0609852,54.79771298,0.318605304,-1.042308976,0.928816726,172.516682,0.108191024,5.756192786,166.9589914,31.50802262,120.4012355,12.57462081
1570519624,31.50803999,120.4012068,738.7545923,-1.132163505,-0.958007153,-168.5921545,38.25319402,-51.14592578,-0.341079951,33.13666009,52.04678266,0.005312904,0.1833485,5.517995222,165.7884193,35.43435299,54.86713933,0.323107989,-1.132163505,0.958007153,174.3595482,0.018336495,5.785383213,168.8018576,31.50801682,120.4012339,12.57586986
