time,ins1000_lat,ins1000_lon,ins1000_alt,ins1000_roll,ins1000_pitch,ins1000_yaw,ins1000_ned_x,ins1000_ned_y,ins1000_ned_z,algo_pose_x,algo_pose_y,algo_pose_z,algo_roll,algo_pitch,algo_yaw,algo_vel_x,algo_vel_y,algo_vel_z,align_pose_x,align_pose_y,align_pose_z,align_roll,align_pitch,align_yaw,align_vel_x,align_vel_y,align_vel_z,algo_lat,algo_lon,algo_alt
1571030101.448,31.50768637,120.40175301999999,719.0391145773779,-0.4972208052578582,1.7167192303132965,-3.342789209487547,0.0,0.0,0.0,1.1952032795,0.0307935158489,0.0148061217225,0.8391167319832304,1.8365943343067215,-0.011698698882787727,0.9128500039215446,0.02298436343146589,0.039464314178911566,1.1952032795,0.0307935158489,0.0148061217225,-0.4972208052578584,-1.716719230313297,4.170893205572222,1.0037991278946348,-0.026920409571065916,0.009999619317556847,31.50768637000016,120.40175301999999,12.549600005149841
1571030101.548,31.5076873,120.40175299,719.2740272733815,-0.5093485228135455,1.739302891879366,-3.3430712414554886,0.10311695912704447,-0.0028498397674507174,-0.004099999129835122,1.30887111256,0.031937446919,0.0111240180517,0.8230051153502134,1.8113051399757403,0.008151141550017494,0.9803096922111006,0.01945843398304407,0.03652506709123242,1.2982682808911785,0.035133370056716726,0.01890612085233512,-0.5093485228135456,-1.7393028918793665,4.171175237540163,1.0583961533035822,-0.028399571795160932,0.008327484255859236,31.50768739519932,120.40175302525279,12.54591790214181
1571030101.648,31.507688280000004,120.40175295,719.5146695473366,-0.49821161261364194,1.7626434859200588,-3.32009325337911,0.21177784089712437,-0.0066496301184469295,-0.008299996614759983,1.41666337805,0.0353314989134,0.010791058801,0.8211049164440553,1.7854766758800997,-0.006994702617994574,1.04668267029181,0.022689210727959656,0.035281580654000846,1.4068628965993548,0.04050319993822216,0.023106118337259982,-0.498211612613642,-1.7626434859200593,4.148197249463784,1.1195329212468386,-0.030194050483827724,0.005304484885472024,31.507688367706248,120.40175300592733,12.545584945939481
1571030101.748,31.507689319999997,120.40175292000002,719.7438526653888,-0.4985444473488502,1.7741023695947429,-3.3201482099623734,0.3270914283895141,-0.009499470068658075,-0.012299991354061207,1.51374195197,0.0358274390141,0.00926688046783,0.8253802448987589,1.7489730553821268,0.005542831578058172,1.1040341432261997,0.01581929281577646,0.026851408026338987,1.522123252478482,0.045019327784484864,0.02710611307656121,-0.4985444473488504,-1.7741023695947433,4.148252206047048,1.1874221935487352,-0.04111338949559785,0.0009815661431281117,31.507689243219946,120.40175301547686,12.544060772284865
1571030101.848,31.50769042,120.4017529,719.9558470495872,-0.46450374819286294,1.78655531597717,-3.3196716713472463,0.4490577237427733,-0.011399366287448962,-0.01599998455922655,1.62335499495,0.038653126744,0.00910135071168,0.8304707635195805,1.7215485411840807,-0.015781712323405722,1.1602170496151856,0.018665435132111587,0.030660840534577728,1.6440493505705063,0.04868176029508088,0.030806106281726548,-0.46450374819286305,-1.7865553159771703,4.147775667431921,1.2468773356347425,-0.04293144666053687,-0.0014215372097647807,31.507690232072456,120.40175300241091,12.543895249255002
1571030101.948,31.507691570000002,120.40175287,720.173571011737,-0.44278635133005345,1.8329089511731096,-3.3083883694477647,0.5765679429531758,-0.014249208393140256,-0.019799975029859446,1.75724292635,0.0422373177794,0.00933592123434,0.7892445929389863,1.6778095343636303,-0.03931494584003461,1.2320041203104481,0.018033229005492236,0.03416844697680105,1.7715050642613888,0.05337416380075813,0.03460609675235945,-0.4427863513300535,-1.83290895117311,4.1364923655324395,1.3090807650916685,-0.04677245381483376,-0.0025333833407484283,31.507691439933385,120.40175298505434,12.54412982892245
1571030102.048,31.507692770000002,120.40175283000002,720.397024551838,-0.42133791391474656,1.8908976880871906,-3.2968019064617757,0.7096220831185043,-0.018048995984099953,-0.023699961263345837,1.8893091041,0.0459781726906,0.00914967385468,0.7746332742725299,1.6138936965077773,-0.06514219822835675,1.3072953572645147,0.018633847805974126,0.03172416861630222,1.9044903906550195,0.05909653785798184,0.03850608298584584,-0.42133791391474656,-1.8908976880871908,4.12490590254645,1.3821241084426936,-0.05131348951469799,-0.0022835619796367354,31.507692631386274,120.4017529657716,12.543943595141172
1571030102.148,31.50769405,120.40175281,720.6720442935007,-0.3869593249731746,1.891884859234836,-3.2962378553799283,0.8515465014928081,-0.01994889153734486,-0.028499943206670098,2.04168331347,0.049435449764,0.0102982288263,0.7630544593744357,1.562597028492558,-0.08054900846163897,1.38402771338227,0.0229393392851279,0.04036173846948509,2.046372527254976,0.06304741723211638,0.0433060649291701,-0.3869593249731746,-1.8918848592348365,4.124341851464604,1.4453658536933756,-0.05567942528144777,0.005310421597905797,31.50769400593887,120.40175295256343,12.545092167332768
1571030102.248,31.50769537,120.40175277,721.010089392628,-0.352721439727863,1.904360412110835,-3.284254303396711,0.9979060564834729,-0.023748680775556613,-0.034399923243078834,2.18080306558,0.0512758585143,0.0125667529986,0.7853053485791112,1.5108349574434006,-0.08386355160360211,1.4258878738401424,0.02940858391843798,0.05827974240088613,2.1926618787683694,0.06896209128155209,0.04920604496557883,-0.352721439727863,-1.9043604121108355,4.112358299481385,1.4852629424676496,-0.048571071880682104,0.011250453710911145,31.507695260752765,120.40175295435755,12.54736071266234
1571030102.348,31.50769674,120.40175274,721.3939711153656,-0.35345578699645647,1.9502848962590527,-3.2500379850129915,1.1498095358474523,-0.026598520193795883,-0.041099895313952806,2.31279949213,0.0541216385991,0.0174183425349,0.7758473749422824,1.3200019466180108,-0.12591301816175407,1.473778389252644,0.017956527507604438,0.059095615615981964,2.344508304901802,0.074007039060937,0.0559060170364528,-0.35345578699645647,-1.9502848962590529,4.078141981097668,1.5471698408221561,-0.059148781531729554,0.021194227838143488,31.50769645145996,120.40175294448555,12.552212323993444
1571030102.448,31.507697430000004,120.40175292000002,719.1307878245989,-0.3070910882912393,1.9978468492244208,-3.145947037331849,1.2263156592277666,-0.009499469767197455,-0.0015998819800138175,2.46157087853,0.0556903480204,0.0220783136828,0.8124277538373958,1.2319091759926317,-0.18032426710367477,1.5383052356416766,0.01571499606940002,0.056648156376797876,2.4212535640007276,0.05801548985474696,0.016406003702513817,-0.3070910882912393,-1.9978468492244212,3.974051033416525,1.6289581611266826,-0.06927656067261648,0.008645660191717799,31.507697793276325,120.40175295060793,12.556872324086726
1571030102.548,31.507698930000004,120.40175289000001,719.5261287032391,-0.30466385627889114,1.9521572620595022,-3.077044660069218,1.3926333367784696,-0.01234931190684041,-0.008499847296646657,2.62192802844,0.0571509119848,0.0247684956215,0.816759324495845,1.246014180823938,-0.24739422033747824,1.607339939998055,0.030526050788185127,0.05988749401953544,2.587512682793098,0.06326876354502767,0.02330596901914666,-0.30466385627889114,-1.9521572620595027,3.905148656153893,1.6946475845963134,-0.05824244733750047,0.012769939311493644,31.507699239558352,120.40175295963131,12.55956253875047
1571030102.647,31.50770049,120.40175284000001,719.9443878936846,-0.33716403817143165,1.9169988664331132,-3.0202110791099077,1.5656037211762839,-0.01709904724361272,-0.015799807452982928,2.79608515725,0.0599738204607,0.0293809546065,0.7857721918404589,1.2551712340857917,-0.3044917752115665,1.6680007683720441,0.04737962005689673,0.06882343589007628,2.760396355122964,0.07051788116281124,0.03060592917548293,-0.33716403817143165,-1.9169988664331137,3.848315075194583,1.7525676551056895,-0.04311123141307405,0.015328927013724973,31.50770081046537,120.40175295641444,12.564175040461123
1571030102.747,31.50770209,120.40175279000002,720.3511879282275,-0.4274857064511159,1.8918183598832037,-2.975800149643864,1.743009244296018,-0.021848783427502128,-0.02289976188998366,2.97482590515,0.0648247470503,0.0348095832826,0.6794647174693887,1.2141688557799093,-0.35525323994527164,1.7255682650802384,0.05087256358606426,0.07296025595822224,2.937714702935205,0.0778310990824583,0.037705883612483664,-0.42748570645111583,-1.891818359883204,3.803904145728539,1.8067974035474885,-0.04374780988677439,0.007131035280005216,31.50770242297155,120.40175293254845,12.569603716023266
1571030102.847,31.507703740000004,120.40175274,720.7121513391598,-0.5192980417818905,1.9240100785631822,-2.9316328478616307,1.9259586899135452,-0.026598518589134368,-0.029199709105902083,3.16068628526,0.0662689389067,0.0418978395335,0.603947615896233,1.0658854302387957,-0.39494396689995787,1.7923900028283624,0.03975206205373442,0.062350825692347435,3.12057639422598,0.08522444028542461,0.044005830828402086,-0.5192980417818905,-1.9240100785631824,3.7597368439463055,1.8619422458883743,-0.05004110138445089,3.3887879656837574e-05,31.5077040992381,120.40175294562425,12.576692026108503
1571030102.947,31.50770545,120.4017527,721.0960330618975,-0.5981851155259205,1.9223487110594122,-2.852745774117601,2.115560842796804,-0.03039830763220941,-0.0358996486965536,3.34067392029,0.0686032063755,0.0470212112289,0.5249870021314879,0.9993283021080704,-0.47318672608105533,1.8531663500203897,0.03355796944165512,0.06575523424924024,3.310103827169077,0.0917640837572353,0.05070577041905361,-0.5981851155259205,-1.9223487110594126,3.6808497702022756,1.9273870416172882,-0.05791585796736844,0.008146484006058712,31.507705722660592,120.40175294843779,12.581815457902849
1571030103.047,31.50770738,120.40175265,721.5601288759535,-0.6751462870180738,1.875402270122988,-2.727447617987276,2.3295562561132437,-0.03514804248902925,-0.04399957399918919,3.54408806404,0.0706024759286,0.054121673452,0.45607670339109013,0.9591261984243008,-0.5766661200416993,1.9109195757258233,0.025989256040423202,0.07065062839987629,3.524008243572405,0.09960612079078346,0.0588056957216892,-0.6751462870180738,-1.8754022701229882,3.555551614071951,1.9801108995305312,-0.06222196752731614,0.007370367522734989,31.50770755729833,120.4017529583416,12.588915990665555
1571030103.147,31.507709,120.40175263999998,721.9210922868859,-0.6617481373255664,1.8647705322665804,-2.624049540385613,2.5091793494614603,-0.036097991198661084,-0.050299504938053685,3.75076776208,0.0713903974756,0.0616195960458,0.45403744079894526,0.8660567795770174,-0.69300668053939,1.95131571901993,-0.012603450552508094,0.05951152245741391,3.703598846952578,0.10315199784427859,0.0651056266605537,-0.6617481373255663,-1.8647705322665808,3.4521535364702878,1.9999734781351635,-0.1041434840571079,0.0014182680936829794,31.50770942122674,120.40175298149266,12.596413993276656
1571030103.247,31.50771063,120.40175266,722.276326119867,-0.5695321399119502,1.9016132832768247,-2.542526451744211,2.6899112280501516,-0.03419809446607436,-0.05649943076026176,3.95085196495,0.0679240904272,0.0683270677769,0.5578533564579301,0.7173817466459045,-0.7940167038484944,1.9760091477420312,-0.027556033041124948,0.06132450422298896,3.8843393075511354,0.10386435197897506,0.07130555248276177,-0.5695321399119502,-1.9016132832768249,3.370630447828885,2.020607322046486,-0.12165153845728331,0.00484389131844684,31.507711225122836,120.40175304841942,12.603121548891068
1571030103.347,31.50771266,120.4017527,722.7633402457283,-0.4189855550932933,1.9397444214230963,-2.402666430382848,2.9149944886022205,-0.03039830545001332,-0.06499933128189417,4.15434639419,0.062248818593,0.0770526324468,0.6951370533470306,0.5489025760486773,-0.9180670829648517,2.029380624286283,-0.02502007452452756,0.05809874356508499,4.109453976296185,0.1033180067365088,0.07980545300439416,-0.4189855550932933,-1.9397444214230968,3.2307704264675223,2.0715513232615557,-0.12016241612466388,0.010309163127132565,31.50771305948421,120.40175313911617,12.611847205087543
1571030103.447,31.50771366,120.40175297999998,719.2854864292842,-0.3125986690651519,1.9080672085027754,-2.2515859819910395,3.0258729113007963,-0.003799788723845232,-0.00429927941620134,4.36009804289,0.0569770876698,0.0830577834002,0.7580821419052047,0.5136469293169678,-1.0519810459181587,2.0563390825273093,-0.018450277277368622,0.06060035151258898,4.220705237052965,0.07832475380330559,0.01910540113870134,-0.3125986690651518,-1.908067208502776,3.0796899780757143,2.108393279346712,-0.11972883660945732,-0.012560863416349433,31.50771491425367,120.40175322590875,12.61785245500505
1571030103.547,31.50771557,120.40175301999999,719.634990684314,-0.2535778741572482,1.9093868895665698,-2.1474807677041783,3.2376507546312565,4.2143522005488876e-10,-0.010399174986136739,4.57812861623,0.0531512234098,0.0870471662032,0.7847911064021262,0.5018293678792544,-1.1623126779884563,2.0754598289108457,-0.0007745159226320846,0.07081384275451966,4.43251587826029,0.077586110051869,0.025205296708636738,-0.25357787415724825,-1.90938688956657,2.975584763788852,2.1119521436607163,-0.10824634610935971,-0.007851206332551083,31.507716879942233,120.40175329935053,12.62184195034206
1571030103.647,31.50771748,120.40175305,719.9787653613926,-0.22915555246814964,1.9329349404218847,-2.0325330647969673,3.4494285994783787,0.0028498425570633312,-0.01639906298082283,4.78084470125,0.0482945238442,0.092007860216,0.7738374372275403,0.4650983307741695,-1.2700923977439778,2.082838445432972,-0.0011452531914711611,0.05572427461963696,4.644312791743781,0.07779731411495222,0.03120518470332283,-0.2291555524681497,-1.932934940421885,2.8606370608816416,2.125879423772779,-0.10397221456077264,-0.017530949171323314,31.507718707391252,120.40175338131273,12.626802755519748
1571030103.747,31.5077194,120.40175306999998,720.2881625707631,-0.2255138626885251,1.8644162567651792,-1.883366608421873,3.6623152283229436,0.004749735221959983,-0.021798943766151435,4.99124037327,0.0447024329545,0.0960090757446,0.684547652840208,0.5053192118558796,-1.4159164269841868,2.1043042997357766,0.00219436921042896,0.05664068170208585,4.857204644142055,0.07897439328529458,0.03660506548865143,-0.22551386268852516,-1.8644162567651796,2.7114706045065478,2.1466869249368528,-0.09773081891525966,-0.0125324913450245,31.507720604259173,120.4017534511323,12.630804093554616
1571030103.847,31.50772135,120.40175312,720.637666825793,-0.21092455792410847,1.7847358644067355,-1.7682085467634894,3.8785282111212744,0.009499470281271738,-0.027898817653188024,5.19769440232,0.0396994503609,0.0984613531116,0.5914564550038383,0.6227223612898504,-1.5220876446212246,2.119297081367021,-0.02342807953469679,0.058150763825267696,5.073463690814372,0.07735000230238037,0.04270493937568802,-0.21092455792410844,-1.7847358644067357,2.596312542848164,2.1596907953803153,-0.13535285503897765,-0.0071640060257688485,31.5077224653977,120.40175353520296,12.6332564977929
1571030103.946,31.50772331,120.40175319000001,720.97571192492,-0.12826003528733687,1.7172809811708454,-1.6751746929658717,4.095849978550216,0.016149100211727663,-0.03379868142642106,5.39358553424,0.0343809058131,0.0992851283711,0.49237629119248827,0.7257043838787365,-1.6132763169197775,2.1075524259632306,-0.010227407972019872,0.05470128676060014,5.290858864803466,0.07384193974550352,0.04860480314892106,-0.12826003528733687,-1.7172809811708456,2.5032786890505467,2.1781495940838305,-0.11847796566785558,-0.0134453502612802,31.507724231239486,120.40175362098809,12.634080399759114
1571030104.046,31.50772526,120.40175323000001,721.2621908224855,-0.17079454714248155,1.6480492810573493,-1.5152798351478147,4.3120629631504315,0.019948888492851258,-0.03879853724978899,5.58399491401,0.0330599278302,0.0953835791578,0.2632813185996562,0.9395485036818141,-1.777892935672628,2.0632259254813827,0.030823328776364373,0.058312380066591084,5.507104184040489,0.07316739634979133,0.053604658972288985,-0.17079454714248157,-1.6480492810573495,2.3433838312324893,2.15878733474244,-0.0867641516638888,-0.012950495808253904,31.507725948168247,120.40175366386164,12.630178978666663
1571030104.146,31.507727209999995,120.40175328000001,721.5601288759535,-0.2257364071064596,1.6016737631538314,-1.389923080978639,4.528275946535041,0.024698622977737505,-0.04399838565575109,5.75062042997,0.032940594714,0.0884053270116,-0.15215582856862803,1.1999782127500993,-1.9035016386601213,2.0060587060483632,0.010456625552710838,0.062075167897346864,5.723363231290722,0.07154300594971591,0.05880450737825109,-0.2257364071064596,-1.6016737631538316,2.2180270770633137,2.1459673398963557,-0.11604445593782028,-0.007141452531132901,31.507727450772133,120.40175369046837,12.62320084311068
1571030104.246,31.50772913,120.40175336999998,721.8809852412268,-0.1675681520037659,1.6253944541689307,-1.3089256205008604,4.741162578193941,0.03324814227286654,-0.04959823195580659,5.91750260225,0.0298003451336,0.0872554543462,-0.4444439701160848,1.298321332282948,-2.0017774348367845,1.9518514462864593,-0.016270414179817862,0.06317363965486142,5.936351191150169,0.06607115304961189,0.06440435367830659,-0.1675681520037659,-1.6253944541689307,2.1370296165855356,2.132200558949401,-0.14671911477659497,-0.0026091713312104037,31.507728955296727,120.40175374891176,12.622051092796028
1571030104.346,31.50773105,120.40175347,722.2247599183053,-0.06261863096681014,1.6266210777654455,-1.1813764121217352,4.954049210624577,0.042747612536869095,-0.05559806888818919,6.06604031047,0.0223930426746,0.0880629379178,-0.5366897397047505,1.3243807229704117,-2.123529714470261,1.8847522313634582,-0.017761877237663922,0.06319556873885421,6.14935288107883,0.059649448409253805,0.07040419061068919,-0.06261863096681013,-1.6266210777654457,2.0094804082064095,2.1245911729112406,-0.14711747869618827,0.00043063872981975314,31.507730293835785,120.40175384947833,12.622858688235283
1571030104.446,31.507731960000005,120.40175373999999,718.0994637933634,0.05395774495166072,1.6278820934551397,-1.042092176713861,5.054948544133097,0.06839617670120979,0.016402010090451835,6.23404568599,0.015660712341,0.0874011546031,-0.9060015381879467,1.4187659538907167,-2.219398592318934,1.8590646525464873,-0.002045193505258646,0.06346083639563854,6.250612365589231,0.035461824655696014,-0.0015958883679518428,0.05395774495166072,-1.62788209345514,1.8701961727985354,2.1170532951494834,-0.14484789119980837,-0.02511521275410848,31.50773180802114,120.40175394590213,12.622197035700083
1571030104.546,31.507733870000003,120.40175383999998,718.3057285996105,0.07763221928960505,1.6165914455332195,-0.9959259278412567,5.266726387648977,0.07789564352382827,0.012802181758977849,6.41661897235,0.0111516021464,0.0839595107669,-1.5966942245407842,1.6157862081483993,-2.270916073103214,1.8594220985579117,0.029953198407753814,0.07353603384013786,6.462505382360667,0.02902409853145739,0.002003939963522142,0.07763221928960505,-1.6165914455332198,1.8240299239259317,2.1322304997773824,-0.1170100225411925,-0.024904024654708416,31.507733453868898,120.40175402114116,12.618755540810525
1571030104.646,31.507735810000003,120.40175391,718.4776159381497,0.010316727254708585,1.6159724048229986,-0.8937399317853073,5.481830585681159,0.08454527189813565,0.00980236607611662,6.59897303329,0.00966157498839,0.0822546441454,-2.1133118718634987,1.7193570883331013,-2.3715439035645054,1.8636584371622442,0.04885399583005595,0.07742584842119915,6.677683218544164,0.025483987802631697,0.005003755646383369,0.01031672725470859,-1.6159724048229989,1.721843927869982,2.1539468884983224,-0.09951857567224581,-0.03613840926997315,31.50773509813321,120.40175406456852,12.61705082654953
1571030104.746,31.507737749999997,120.40175400000001,718.6036666530784,-0.04651933874085512,1.684322533399715,-0.825811244943809,5.696934781511955,0.09309479212982685,0.007602554642288428,6.79570063385,0.00685677403453,0.0795494196429,-2.5158627681459387,1.790415106169455,-2.4333626221303364,1.8843297623155129,0.022359278976478127,0.07455804217126344,6.892888510975935,0.020044183618485117,0.00720356708021156,-0.04651933874085512,-1.6843225333997152,1.6539152410284836,2.168434380524519,-0.13734103138266743,-0.03236168194008353,31.50773687184591,120.40175412402179,12.61434577126056
1571030104.846,31.507739710000003,120.40175412999999,718.855768082936,0.03462373879330827,1.6504933856046442,-0.7787898149406696,5.914256548927193,0.10544409643244723,0.0032027522146824694,6.99067608504,0.000821342271913,0.0769481211915,-2.8414828099639386,1.9822320877750685,-2.4689979132287583,1.8886200885068503,0.009549561640594282,0.08838719734542061,7.110366060282267,0.010837041990756746,0.011603369507817516,0.03462373879330827,-1.6504933856046442,1.6068938110253443,2.174328366785685,-0.1526622446178725,-0.0068368457147988376,31.50773862933673,120.40175421721344,12.611744647845626
1571030104.946,31.50774168,120.40175425,719.0964103568909,0.08144219350543241,1.6278339455688722,-0.7208325089972256,6.132687101663112,0.11684345690117737,-0.0009970398643921463,7.17472580676,-0.00608185047544,0.078508741982,-2.964581290984553,2.0417117895595545,-2.519572802822403,1.889399583895618,0.029041869409061633,0.0787626370790747,7.32893854990795,0.0025957698531593187,0.01580316158689213,0.08144219350543243,-1.6278339455688722,1.5489365050819004,2.1866820677145347,-0.1355823604106754,-0.040941522701976686,31.507740288186795,120.40175431787675,12.613305440172553
1571030105.046,31.50774367,120.40175436,719.1078695127936,0.05818314098933159,1.7652253112680838,-0.6867135760223211,6.353335220111873,0.12729286858055788,-0.0011968227648959662,7.36987181606,-0.0106809280389,0.078589714395,-3.1116318374877796,1.9357104636660174,-2.5360378398054326,1.9337784410455507,0.0449990534120263,0.059415823373492355,7.549714644367147,-0.004663603037634148,0.016002944487395948,0.05818314098933159,-1.7652253112680838,1.5148175721069959,2.231423728598131,-0.12804649622808004,-0.0765434402997897,31.507742047402893,120.40175439597557,12.613386598415673
1571030105.146,31.50774571,120.40175446000002,719.1021399348424,-0.0222848381868354,1.8335269159620051,-0.6765065344418533,6.579527259825527,0.13679233533447066,-0.0010965921018057934,7.57617237072,-0.0141009911492,0.0787475263635,-3.302010079975546,1.8594631778712132,-2.537550574929418,1.9922312369073993,0.06680741011356855,0.07470490285339403,7.776020351847117,-0.010893005932143499,0.015902713824305775,-0.022284838186835396,-1.8335269159620047,1.504610530526528,2.292788589850981,-0.11036408488422612,-0.06073319534501343,31.507743907363736,120.4017544633614,12.613544614054263
1571030105.245,31.50774758,120.40175454,719.2110019159171,-0.12457751279023833,1.7756340476581927,-0.6437005830331712,6.786869965874872,0.14439190528833024,-0.0029963735184175277,7.77453746531,-0.0183512152898,0.0809511284759,-3.4524370113942218,1.8704839946975225,-2.575406943028915,1.9983390095300415,0.059850958441634475,0.07792553630101631,7.983451235857332,-0.01549513305871665,0.01780249524091751,-0.12457751279023832,-1.7756340476581927,1.4718045791178462,2.312846668487928,-0.1097731517705914,-0.057531497587337464,31.50774569565481,120.40175453827804,12.615748419426382
1571030105.345,31.507749879999995,120.40175464999999,719.3657005206026,-0.23879484585895883,1.7979879792569178,-0.6111371203260312,7.041890406115986,0.15484131479403307,-0.005696096193605893,7.98017077829,-0.0204209273615,0.0814323092107,-3.465592637124505,1.859798298640444,-2.592562740445416,2.0239080126137576,0.05228373808429232,0.10145564003542801,8.238596062066218,-0.02225773304881938,0.020502217916105875,-0.23879484585895883,-1.7979879792569178,1.439241116410706,2.330412972509116,-0.13132056366973396,-0.03448256253078228,31.507747549774507,120.40175459134886,12.61622981633991
1571030105.445,31.50775089,120.40175446000002,718.3515652232209,-0.25062695380438055,1.8667104498692004,-0.6114730242966698,7.153877622409064,0.1367923278136811,0.012004028385968368,8.18824989127,-0.0252902866919,0.0854963556505,-3.2328085697533657,1.719499119558933,-2.5622949471333265,2.0597776909031906,0.013567105587003463,0.10304799526579364,8.350310726396973,-0.002592120483819904,0.0028020933365316136,-0.25062695380438055,-1.8667104498692004,1.4395770203813447,2.361092821364725,-0.15856803674785533,-0.03142159483373879,31.50774942558533,120.4017546742603,12.620294087566435
1571030105.545,31.507753039999997,120.40175462,718.615125808981,-0.12491466268062609,1.9359710551918061,-0.6095618209856963,7.392266298031207,0.15199147038078054,0.0074043017675125,8.39440309262,-0.0336382518811,0.0864912923786,-2.950932795777852,1.685373524562141,-2.557851712872194,2.0950609023468236,-0.01532977712802856,0.08578990446572811,8.588894171261657,-0.014344330325131438,0.007401819954987481,-0.12491466268062609,-1.9359710551918061,1.437665817070371,2.4029618776349326,-0.1812939900877615,-0.03639428239784932,31.507751283574986,120.40175479349386,12.621289256028831
1571030105.645,31.50775523,120.40175478,718.8614976608874,0.013407111395883202,1.982543082330017,-0.5499132894963166,7.635090112040515,0.16719061302554716,0.0031045898784403114,8.61051707561,-0.0416474974113,0.08782660394,-2.6661982402098574,1.6323559818667466,-2.6130535084387763,2.1289246743502215,0.010374637040354349,0.07266886777679267,8.831912291287363,-0.026032440794105285,0.011701531844059667,0.013407111395883206,-1.982543082330017,1.3780172855809911,2.4418922347782988,-0.1653561063646115,-0.046066167817416744,31.507753231434556,120.4017549106776,12.622624814510345
1571030105.745,31.50775744,120.40175492,719.0563033112318,0.08255409559969314,1.9484733012032607,-0.5372801175808175,7.880131492738931,0.18048986238472553,-0.0002951098777632666,8.81278110276,-0.0473968130638,0.0879349452944,-2.543122841376566,1.633294915170252,-2.6252755297512578,2.151159293468088,0.051780027136906166,0.07135263797913198,9.077120287918733,-0.03578880672271666,0.015101231600263243,0.08255409559969314,-1.9484733012032607,1.365384113665492,2.4757171016093267,-0.1355035255509451,-0.054312497294634596,31.50775505469061,120.40175500196659,12.622733396477997
1571030105.845,31.507759700000005,120.40175502,719.1995427600145,-0.008772120201506889,1.948042187730262,-0.5159108387383956,8.130716796581087,0.18998932403102997,-0.0027947953670608428,9.04340860221,-0.0483973282022,0.0865414791906,-2.5889317591472656,1.6829438007779094,-2.6651967029102477,2.2057851715459122,0.08409497233461107,0.06423404347141556,9.327816711703104,-0.041665657491823965,0.017600917089560818,-0.008772120201506885,-1.948042187730262,1.3440148348230703,2.5360029535850797,-0.10863578075159795,-0.06436067548001875,31.507757134345834,120.4017550475859,12.62134020961821
1571030105.945,31.50776202,120.40175511,719.3485117867485,-0.15658746632044096,1.8444473865052484,-0.4723901759404934,8.387954807093774,0.19853883880790346,-0.005394459790021511,9.27281560601,-0.0482794693628,0.0841794556073,-2.7061259462355327,1.8137925272931035,-2.7226404815709544,2.2640614340834397,0.07942938894360445,0.07238698871902678,9.58515141807889,-0.04649651144669781,0.020200581512521486,-0.156587466320441,-1.8444473865052484,1.300494172025168,2.591835532252727,-0.12123916898745969,-0.04987832851504324,31.507759203140473,120.40175508124771,12.618978474289179
1571030106.045,31.50776436,120.40175524000001,719.5776949048009,-0.1905761462727036,1.7067258247387875,-0.48416838272945045,8.647410389305637,0.2108881403490206,-0.009394112525449305,9.49975220096,-0.0522901966504,0.0835631392588,-2.6837898584993405,1.9366550527295952,-2.711209829639475,2.284605024879457,0.0460782973118249,0.08704110629082594,9.844758381482887,-0.055094705536528385,0.02420023424794928,-0.1905761462727036,-1.7067258247387875,1.3122723788141253,2.6110049515066005,-0.16256870181592664,-0.029818960375933096,31.507761249118957,120.4017551579904,12.618362451903522
1571030106.145,31.507766720000003,120.4017554,719.8527146464637,-0.14412333232868726,1.6840336378721967,-0.4490676246808706,8.909083542131622,0.22608727932605843,-0.014193748794973704,9.72627479972,-0.058684799864,0.0833425779011,-2.590164843800298,2.0019342403856024,-2.7358632817296833,2.2602892662652105,0.011650746288900024,0.09801897115633995,10.106623871556303,-0.0665103896659692,0.028999870517473676,-0.1441233323286873,-1.6840336378721967,1.2771716207655457,2.602935301143246,-0.1885279692526747,-0.03078169702568675,31.507763291053305,120.40175525976233,12.618142190389335
1571030106.245,31.507768830000003,120.40175557,720.081897764516,-0.01754352102213158,1.787700642748129,-0.3899224611369937,9.143037082172587,0.2422363657289308,-0.018193416489332925,9.94794437696,-0.0671489988643,0.0846427158898,-2.4328989106650742,1.902856410703161,-2.7791860639965456,2.269779077281757,0.013942568201010282,0.09937054236286832,10.340786373261253,-0.07927654353577579,0.03299953821183289,-0.017543521022131577,-1.787700642748129,1.2180264572216684,2.612962031566746,-0.19277420832507391,-0.04039314539897976,31.507765288953593,120.40175538258008,12.619442629627883
1571030106.345,31.50777144,120.40175575000002,720.322540038471,0.005528199232430751,1.913879086921192,-0.3551758906631796,9.432429847122274,0.25933539726414545,-0.022392992876670625,10.1573027491,-0.0738288647837,0.0878397878056,-2.4174863157712654,1.7759050592121013,-2.7928221363900567,2.274254395112365,0.05591954431447578,0.09947162922755307,10.6303960387478,-0.09219130026737218,0.037199114599170593,0.0055281992324307545,-1.913879086921192,1.1832798867478544,2.6496541596811807,-0.15613351196173578,-0.04810301993336634,31.5077671760647,120.40175548474323,12.62263999413699
1571030106.444,31.507772750000004,120.4017554,718.6724215884942,-0.1312668766739951,1.9135030168600922,-0.3116193683661132,9.577680575738079,0.22608726364150966,0.006407223299251363,10.3769374901,-0.0772261739382,0.0904742754956,-2.50402959715324,1.754219890341381,-2.84547976362902,2.3151347931643635,0.08826993530320319,0.0966998548855911,10.775151073433722,-0.05684738302708692,0.008398898423248608,-0.1312668766739951,-1.9135030168600917,1.1397233644507878,2.6985391812870128,-0.10077770687579597,-0.043861496277181285,31.50776915627539,120.40175555391829,12.625274795107543
1571030106.544,31.507775219999996,120.40175549,718.9589004860596,-0.3133570883276637,1.7526681809893248,-0.25691916980880986,9.851550358125152,0.23463677662850513,0.0014076422216806606,10.6146266164,-0.0790746885282,0.0907925771637,-2.66199215640822,1.9331491868046462,-2.900206288655194,2.3509737106280926,0.07965754443716126,0.0940967381904592,11.04911581455547,-0.06143786221254363,0.01339847950081931,-0.3133570883276637,-1.7526681809893248,1.0850231658934846,2.748622480813453,-0.11533162284403271,-0.03571448920340359,31.5077712995014,120.40175560953784,12.62559344433248
1571030106.644,31.507777690000005,120.40175563000001,719.2052723379659,-0.33550649655449055,1.6266245168980726,-0.22250824994784477,10.125420141107409,0.2479360208392114,-0.0028919253443966397,10.8496425702,-0.0851115883419,0.0905368867079,-2.6658443032227823,2.03426617079712,-2.9374411651077494,2.3420941106159674,0.022442678830480414,0.08888693505144954,11.323149202418747,-0.0707775765282472,0.017698047066896608,-0.3355064965544905,-1.6266245168980726,1.0506122460325196,2.735666202208395,-0.1708171015016769,-0.03596995870529669,31.50777341807496,120.40175570883687,12.625338107347488
1571030106.744,31.507780149999995,120.40175582,719.4516441898721,-0.20896870859382755,1.6498514066335717,-0.1863735084477061,10.398181139377378,0.2659849965695864,-0.00719148582726703,11.0893659224,-0.0964869356178,0.0916858580769,-2.5201108160546952,1.991993953227525,-2.9402367495598662,2.3213869735530106,-0.018460892833756487,0.10132872412954033,11.596142567527252,-0.08488255114289506,0.021997607549766998,-0.20896870859382755,-1.6498514066335717,1.0144775045323808,2.7213160229381668,-0.21141984972658176,-0.036836672509729544,31.507775578403702,120.40175586504355,12.626487446017563
1571030106.844,31.50778235,120.40175602000001,719.6980160417784,-0.059802890420040083,1.7761958161283016,-0.1613711158642478,10.64211374117079,0.2849839177855409,-0.011491080390933384,11.3210241786,-0.108656326269,0.0937584930398,-2.35293279982951,1.8658352106571932,-2.9418334135026547,2.2975514346112598,-0.006243531968378876,0.11333181238463769,11.840324276354432,-0.10035401840727212,0.026297202113433348,-0.05980289042004007,-1.7761958161283016,0.9894751119489225,2.7119533540659537,-0.20350156916139725,-0.035287628416669055,31.507777665898345,120.40175602838117,12.628560447134078
1571030106.944,31.507785040000005,120.40175618999999,719.9100104259768,-0.07043281806939684,2.051161766997725,-0.09295253066661835,10.94037678450094,0.3011329963301761,-0.01519057366576515,11.5545673351,-0.114117191766,0.0952300452138,-2.3729746475570526,1.650015924380024,-2.9781963794602895,2.3079456757471726,0.08243333441966724,0.10279056246961016,12.138789564439962,-0.11219072244275968,0.02999669538826511,-0.07043281806939683,-2.051161766997725,0.9210565267512931,2.719074754682504,-0.1180240619984185,-0.07221211281824381,31.507779771265366,120.4017561213929,12.63003237824887
1571030107.044,31.50778752,120.40175631,720.0303315629543,-0.1960042138311854,2.1772307154898543,-0.06103188634765728,11.215355349579529,0.31253234591589507,-0.017290092930497103,11.7706789155,-0.117089191165,0.0954848591369,-2.4750527578757664,1.540534416391642,-3.0052708586516688,2.3527486951369263,0.08835979444467841,0.07120973344344432,12.41390416010359,-0.11961471574128282,0.032096214652997064,-0.19600421383118544,-2.1772307154898543,0.8891358824323319,2.7835928841728292,-0.12207865877329323,-0.0843293321122823,31.50778171975985,120.40175618555526,12.630287546664476
1571030107.144,31.50779005,120.40175645000001,720.23086679125,-0.379612134398922,2.096847264973891,-0.07571616736873524,11.495877839498432,0.3258315860394321,-0.020789591304809285,12.0276019439,-0.116187321401,0.0913923707658,-2.648947442745638,1.7184327886775597,-3.0215759684802204,2.41328707628021,0.05794304359392378,0.07442818236474441,12.69458956000361,-0.12885827680455778,0.03559571302730924,-0.379612134398922,-2.096847264973891,0.90382016345341,2.8310255865467417,-0.16458386428225003,-0.05451100747189392,31.507784036794657,120.40175621515111,12.626195491291583
1571030107.244,31.507792609999996,120.40175665999999,720.545993578572,-0.23024644082401502,1.9481224482088972,-0.061215844036495486,11.779726688434904,0.3457804482198963,-0.026289068660257264,12.2715918467,-0.123683610501,0.0873805485355,-2.5068933605429318,1.970466649849237,-3.040943735971324,2.4209378926245235,-0.004243443646701464,0.07195440795986721,12.97869707608124,-0.14470269074308184,0.04109519038275722,-0.23024644082401502,-1.9481224482088972,0.8893198401211702,2.8366581679113705,-0.23375935663605646,-0.04309514597729329,31.507786236104607,120.40175633117671,12.62218408845365
1571030107.344,31.50779517,120.40175691000002,720.8439316320399,-0.0007337204295107485,1.8335945596160448,-0.045852945984948816,12.063575537983873,0.3695290980354975,-0.03148853684162134,12.5070323231,-0.13527551678,0.0845515485546,-2.2505598793096646,2.126480733567506,-3.063438267698014,2.3897404162749605,0.004193545687452213,0.08842859114163373,13.262859509726816,-0.16434649543972368,0.046294658564121294,-0.0007337204295107449,-1.8335945596160443,0.8739569420696235,2.8228759586216876,-0.22825853620101863,-0.040246526397377934,31.507788357782445,120.40175648901129,12.61935550533235
1571030107.444,31.50779679,120.40175659,718.632314542835,0.06822267935208798,1.8565431040468885,-0.03327557490757849,12.24319855515066,0.33913080867623124,0.007111805764014711,12.7490118965,-0.143202645835,0.0820883092202,-2.0947156249965664,2.1682356016371847,-3.1007991563035056,2.3799470363407385,0.05833202163247915,0.08047671240936545,13.442024430723702,-0.13135535456449865,0.007694315958485246,0.06822267935208799,-1.8565431040468885,0.8613795709922533,2.8169625963733838,-0.15422940645901237,-0.07781883330291167,31.507790538907177,120.40175660926603,12.616892701014876
1571030107.544,31.507799339999995,120.40175672,718.6265849648838,-0.0003943904979087387,1.9711665369995166,-0.02292738775466237,12.525938607621221,0.351480098954819,0.007212358725048773,12.9852797183,-0.145792228961,0.0771757231956,-2.0796700022939385,2.120199311101939,-3.111796166768845,2.395262227686771,0.10062830691018139,0.07756141330664065,13.724913432281125,-0.13961701537116775,0.007593762997451183,-0.00039439049790873453,-1.9711665369995166,0.8510313838393371,2.837722439881904,-0.12303553804079297,-0.09616564131594459,31.50779266921943,120.40175667246973,12.61198054999113
1571030107.644,31.50780191,120.40175686000002,718.723987790056,-0.08083742269680963,1.9711424585241764,-0.03577142992583772,12.810896232882047,0.3647793383721578,0.00551292791611413,13.2301109112,-0.148888191042,0.0744630945184,-2.0917410150847524,2.1410580532456036,-3.11719575768512,2.4376977060437217,0.07242030942592388,0.08527603866256833,14.010033504285914,-0.14879647632233323,0.009293193806385824,-0.0808374226968096,-1.9711424585241764,0.8638754260105125,2.881243136041846,-0.1507060380656135,-0.06615535580974448,31.507794876689637,120.40175674230636,12.609268380329013
1571030107.743,31.507804530000005,120.40175702,719.0219258435241,-0.06914124580552428,1.810653188359715,-0.024013135890355815,13.101397789160846,0.37997846648066025,0.0003135198578076981,13.4735695519,-0.156197432285,0.0747550648719,-2.0493178681216784,2.2699616587413285,-3.1429646325867315,2.461579985427203,0.058106461431875124,0.1138813953183613,14.300724386677418,-0.15979550310250562,0.014492601864692254,-0.06914124580552426,-1.810653188359715,0.8521171319750306,2.9135841234315016,-0.1630976343754727,-0.019265703958338702,31.50779707123301,120.40175685628236,12.609560816548765
1571030107.843,31.507807159999995,120.40175720000002,719.4745625016774,-0.045692760852738594,1.5699483979415143,0.01083424671010969,13.393008134134163,0.3970774869449043,-0.007585871476611494,13.7304199235,-0.165261731553,0.0770954991097,-2.0060463572766003,2.487378125516931,-3.1764570784956714,2.469996760088605,0.06784937493528714,0.1339417306410244,14.59255140041283,-0.17267819888276661,0.022391993199111445,-0.04569276085273858,-1.5699483979415143,0.8172697493745652,2.908725154894435,-0.15294733675538177,-0.0036146180687656924,31.50779938631344,120.40175699076919,12.611901751719415
1571030107.943,31.507809769999998,120.40175734999998,719.7954188669505,-0.0686273135305011,1.4553306294836723,0.010588643946003293,13.682400908137431,0.41132666524675887,-0.013185253239583972,13.9589280007,-0.172760121062,0.078350173275,-1.975752835990501,2.6094472598970313,-3.1742060328677466,2.4212143073554238,0.05262048456554317,0.09278314122992617,14.882119887054616,-0.18274339990258637,0.02799137496208392,-0.0686273135305011,-1.4553306294836723,0.8175153521386714,2.889239653521037,-0.16630346062863965,-0.05229573122709875,31.507801446008802,120.4017571044615,12.613156880252063
1571030108.043,31.50781237,120.40175753,719.8068780228533,0.00014673057907244822,1.4667854881352793,0.011462180233828362,13.970684885513602,0.4284256837893059,-0.013384624952356816,14.2072198531,-0.181304729357,0.0750756643189,-1.8251987784303219,2.5518810692052667,-3.1645066777098743,2.4044164060315913,0.059293126564804254,0.08726619194508532,15.170620880587,-0.1956741685483929,0.028190746674856763,0.00014673057907245053,-1.4667854881352793,0.8166418158508464,2.8670736473857987,-0.155626425278215,-0.07801491024808921,31.507803683976842,120.40175723217608,12.609882875345647
1571030108.143,31.50781495,120.40175769000001,719.8068780228533,-0.06830030345695273,1.5814267910554491,0.03343825432679802,14.256751293805358,0.4436248105358507,-0.013383987780184903,14.4613644962,-0.185788554429,0.0721864671254,-1.9011638315514288,2.4774804075817123,-3.1990946419406234,2.4110546217039945,0.060968686446430186,0.10056610966746425,15.456877078200048,-0.20673729355549023,0.02819010950268485,-0.06830030345695272,-1.5814267910554491,0.7946657417578767,2.863111487949761,-0.1598520041407025,-0.06443007327565095,31.507805975254307,120.40175731803808,12.606994206085801
1571030108.243,31.507817280000005,120.40175785999999,719.9386583157334,0.0004986778144568288,1.6616443641910978,0.03438813631760951,14.515098094931375,0.45977388119978846,-0.015683400907947842,14.702321564,-0.192711680462,0.0720880583458,-1.78828532866787,2.378640643540542,-3.187171004595068,2.4215218554640185,0.04431944305437248,0.10986193154747459,15.715430293012611,-0.21915088471366476,0.030489522630447786,0.0004986778144568317,-1.6616443641910978,0.7937158597670653,2.8758354061073397,-0.18427427680875022,-0.05121081805679874,31.507808147288966,120.40175742756931,12.606896304525435
1571030108.343,31.50782014,120.40175808000001,720.2136780573961,0.045679563144848105,1.7189639418714595,-0.010775038173115432,14.832210480592382,0.48067268011465636,-0.020482668795572145,14.9355782839,-0.202181685903,0.0740303488017,-1.7371772879241816,2.3317743906679995,-3.13784544982115,2.4221186676829194,0.030920390926011298,0.12185825926683785,16.032811600702228,-0.23546439031268007,0.035288790518072086,0.04567956314484811,-1.7189639418714595,0.8388790342577902,2.889581816406708,-0.1905720935955457,-0.03594333643835793,31.507810249550314,120.401757562737,12.608839095570147
1571030108.443,31.50782182,120.40175772000002,718.7984723034231,0.05766819423343677,1.7648011212446448,0.023808776615615278,15.01848622269307,0.4464746156508532,0.004217767407849848,15.1680266175,-0.213224741301,0.0743393248959,-1.6536684850941303,2.3002689302029724,-3.164843572470444,2.3990425023433946,0.040831793357043934,0.09523750662157286,16.218573635015886,-0.19857772177398242,0.010588354314650095,0.057668194233436776,-1.7648011212446448,0.8042952194690595,2.8926082735721987,-0.14046699381473882,-0.06877419072817799,31.507812344316672,120.40175771433931,12.609148579649627
1571030108.543,31.507824429999996,120.40175786999998,718.8672272388386,0.09206497860256668,1.799184904816499,0.024366152867409153,15.307878985701503,0.4607237904425756,0.003018459390798256,15.4145129932,-0.220668281906,0.0706331967315,-1.6257544251113545,2.328234021981397,-3.1654436050789196,2.4256156053649054,0.04801160751697967,0.07633600243418223,16.508142110613257,-0.208642919442941,0.011787662331701688,0.0920649786025667,-1.799184904816499,0.8037378432172658,2.902887630915717,-0.14620325488526237,-0.0859483015393074,31.507814566146546,120.4017578301896,12.60544299799949
1571030108.643,31.50782705,120.40175801,718.8443089270335,0.034389275413650285,1.7877396228510032,0.0005365263168819963,15.598380530720721,0.4740230208146148,0.003419167147320046,15.6567988974,-0.225085208041,0.0635590344927,-1.6698791092857272,2.431118576767381,-3.151534683474078,2.430609846192412,0.07620798024849154,0.06652152711635151,16.79880552321196,-0.21774224708387352,0.011386954575179895,0.03438927541365029,-1.7877396228510032,0.8275674697677928,2.912436346734797,-0.1168339161192106,-0.10193847292518686,31.507816750491386,120.40175791354326,12.598369382321835
1571030108.743,31.507829679999997,120.40175813,718.7870131475203,-0.05695776970504118,1.7877510875873,0.022031967974508886,15.889990859334254,0.4854223593674747,0.004419892147849325,15.9062794883,-0.227725570118,0.0575893828633,-1.7578305780559977,2.50777645684342,-3.1847023307323035,2.431330663131743,0.09188953902198363,0.08084038119751415,17.090550145149393,-0.22492585649149077,0.010386229574650616,-0.05695776970504118,-1.7877510875873,0.8060720281101658,2.9141566575736673,-0.10688629292267694,-0.09316477609225582,31.507818999949063,120.40175797929172,12.592400304041803
1571030108.843,31.50783231,120.40175824999999,718.8385793490821,-0.12573247899744835,1.8106921689531041,0.020933805721619587,16.18160119221528,0.4968216952183582,0.0035206269854981542,16.1610530227,-0.230515394806,0.0545486795341,-1.8397658446618694,2.4981302428299488,-3.1940708304533003,2.4433639127144477,0.05850565422530485,0.09428420813641626,17.382294771314815,-0.23210946313573738,0.011285494737001784,-0.12573247899744835,-1.8106921689531041,0.8071701903630553,2.915650568173071,-0.14136337762065232,-0.0780758591353865,31.507821297118657,120.40175804741871,12.589360197074711
1571030108.943,31.507834940000002,120.40175844,718.9646300640109,0.0,1.8794506712510035,0.0,16.473211528525617,0.5148706528588627,0.0013213777323981546,16.4099219515,-0.239689642228,0.0501341653513,-1.6542643101803267,2.4479046451302846,-3.167525981575149,2.4330930898403884,-0.005272828620103089,0.09454587293200013,17.674135505486372,-0.24594199700143649,0.013484743990101782,3.7767204419509686e-18,-1.8794506712510035,0.8281039960846748,2.8992206538705227,-0.2081,-0.06522001357389733,31.507823540208694,120.40175818184859,12.58494627289474
1571030109.042,31.50783729,120.40175862999999,719.1479765584528,0.16049106063981933,1.9597017822734526,0.002744668015969726,16.733775901413935,0.5329196109521446,-0.0018779392920595939,16.6637288768,-0.250648643332,0.0485156480565,-1.456997284574536,2.332205902063617,-3.1658428192714676,2.4274785688277096,0.03304683256457542,0.10846731225788102,17.934933518832768,-0.26022322739341563,0.016684061014559527,0.1604910606398193,-1.9597017822734522,0.825359328068705,2.8925868322773174,-0.17351746370138024,-0.05546347921393172,31.507825827596605,120.40175833581576,12.58332836907357
1571030109.142,31.507839899999997,120.40175879000002,719.4344554560182,0.19590747144429976,2.0052631561084078,0.060736128622564695,17.023168677435557,0.548118730483441,-0.006877169540878469,16.8983252672,-0.258492604619,0.0488711864383,-1.4052208341106462,2.287272066799196,-3.206148668055999,2.4244011057072976,0.0906860664344679,0.11890768349706136,18.224515736649494,-0.27123827039705817,0.021683291263378403,0.19590747144429976,-2.0052631561084078,0.76736786746211,2.903163847761125,-0.11898244182257967,-0.04650765088407399,31.507827942151007,120.40175845407185,12.583684483543038
1571030109.242,31.50784226,120.4017589,719.692286463827,0.10398235788535079,1.9938554957052717,0.047655406549782446,17.284841839128287,0.5585681206618176,-0.011376461510579361,17.1528540667,-0.262330804273,0.0491968266049,-1.5069990549094032,2.2716297960048197,-3.1897361114051925,2.4777718362899024,0.0900663373634386,0.08718087542588374,18.486312589188316,-0.2779047016863875,0.026182583233079294,0.10398235788535082,-1.9938554957052717,0.7804485895348923,2.9295609499224127,-0.12077319089783499,-0.06054392661571102,31.50783023697687,120.4017585331966,12.584010758437216
1571030109.342,31.50784546,120.40175905999999,719.8699033803176,0.0005468493006851211,1.822130716431575,0.034389600539471134,17.63965289838722,0.5737672329316754,-0.014475485328683924,17.3956141875,-0.270113935844,0.046845362447,-1.5640286250313626,2.3907323510493805,-3.1781213762823266,2.486741047191631,0.07361108551638873,0.05828039469079976,18.84130625753605,-0.2879742706571335,0.02928160705118385,0.0005468493006851247,-1.822130716431575,0.7937143955452035,2.9631448804185245,-0.12622164870817038,-0.07955760835319882,31.507832425159314,120.4017586520545,12.581659907475114
1571030109.442,31.507847059999996,120.40175885000001,718.2541623980487,-0.0797306733802499,1.6960572308769502,0.03320075652781324,17.817058342841328,0.5538183609958227,0.013725008296440855,17.6357296915,-0.27752757567,0.0405825344407,-1.5841400974983348,2.529352638089813,-3.205909704511412,2.467497957988031,0.0533227636722655,0.0465804593213644,19.01840485908255,-0.2654635055935723,0.0010811134260590768,-0.07973067338024992,-1.6960572308769502,0.7949032395568616,2.944855952139203,-0.12786052217100458,-0.0950798507596034,31.507834589540998,120.40175876662082,12.57539769820869
1571030109.542,31.50784944,120.40175897999998,718.1911370405843,-0.057145372164002686,1.6845758902269587,0.010620178201511093,18.080949058522123,0.5661676400135436,0.014825755917502903,17.8788120486,-0.287581170113,0.0348548843303,-1.5410815217563338,2.5413849210046386,-3.1860619527548018,2.425905300338442,0.03919414563402853,0.06375111129987832,19.282446492403203,-0.27399757778344386,-1.9634195002973115e-05,-0.057145372164002686,-1.6845758902269587,0.8174838178831638,2.9182727327816247,-0.13815983319670136,-0.09926962070205442,31.507836780333484,120.4017589094262,12.569670683704317
1571030109.642,31.50785232,120.40175912,718.1739483067304,-0.09079959223400313,1.8107128057381798,0.05586669248506481,18.400279001667403,0.5794668615823064,0.015126672658748674,18.1190916483,-0.295053186799,0.03140705139,-1.5575744141525947,2.4220346395679595,-3.219664087355855,2.406669981664639,0.06245770385909311,0.09661275337683756,19.601935292023647,-0.2826802502171369,-0.00032055093624874624,-0.09079959223400313,-1.8107128057381798,0.7722373035996098,2.902616458615473,-0.1008416196190489,-0.08031576387720943,31.507838946187317,120.40175902463197,12.566223485395312
1571030109.742,31.507854689999995,120.40175922000002,718.3286469114157,-0.15914860241965756,1.9139559061206466,0.07756390168214507,18.663060942604794,0.5889663064283668,0.012427440466204587,18.3459340028,-0.302675052361,0.0336230361769,-1.6071216680211493,2.315914813539773,-3.2295246996044678,2.406292466396894,0.06872038342040811,0.12332823257592385,19.864827078784778,-0.2883808106058802,0.0023786812562953397,-0.15914860241965756,-1.9139559061206466,0.7505400944025297,2.9176259376035834,-0.09709700714329304,-0.05524526610149375,31.507840990845168,120.40175913937065,12.568440078757703
1571030109.842,31.50785732,120.40175934,718.5922074971759,-0.21743724836333722,1.971012893400944,0.019182153739995843,18.95467128846982,0.6003656366158676,0.007828304458808333,18.596744213,-0.310817889467,0.0362456827014,-1.6285969077122089,2.2422127730874313,-3.178343463892287,2.4235060733997673,0.034239932635606124,0.11835837921675417,20.156571717850998,-0.29556441139968265,0.006977817263691594,-0.21743724836333722,-1.971012893400944,0.8089218423446789,2.9225802644935226,-0.13363370439904113,-0.04975550865541971,31.507843251575846,120.4017592632395,12.571063407696784
1571030109.942,31.50786022,120.40175951,718.9302525963031,-0.1023861258154209,1.9939380516121616,0.04406387971828764,19.27621881995227,0.6165146947437843,0.0019292735781188952,18.8551202573,-0.323799631022,0.0373799698088,-1.4969529210740016,2.256561045168992,-3.200325627335654,2.4514730063135284,-0.02219393683085005,0.08995015202324601,20.478319061849387,-0.3070645727401658,0.012876848144381028,-0.10238612581542089,-1.9939380516121616,0.7840401163663872,2.939026557910617,-0.17444764526020268,-0.05170271713595291,31.50784557990408,120.40175943919287,12.572198408655822
1571030110.042,31.507862870000004,120.40175971000001,719.1422469805015,0.13888509949962294,1.890818576834857,0.08251381369553684,19.5700467335289,0.6355135888470427,-0.0017698263527208269,19.1223540243,-0.338942487449,0.034293208793,-1.2647146385670522,2.3686361686943305,-3.241768214559798,2.483996286511916,-0.018087027900696922,0.06770502933434243,20.772390870760667,-0.3218148940109977,0.01657594807522075,0.13888509949962294,-1.890818576834857,0.7455901823891379,2.9449694255768795,-0.1758257600259797,-0.06898111718918906,31.507847987829177,120.40175963924139,12.56911239773035
1571030110.142,31.507865270000003,120.40175986,719.228190649771,0.2188638911405072,1.7761453716056388,0.0721542739048527,19.836155026708813,0.649762755355539,-0.003268998506261056,19.3883699127,-0.348933338344,0.0283761258176,-1.1811089711886342,2.569102932727089,-3.2409513134644246,2.497324265645821,0.04833820324809113,0.055416314240108885,21.038677308352252,-0.3322166054131866,0.018075120228760976,0.2188638911405072,-1.7761453716056386,0.755949722179822,2.9439460919624585,-0.1283511895757156,-0.09410233659941011,31.507850385443124,120.40175978487558,12.563196070492268
1571030110.242,31.50786791,120.40175997,719.0505737332805,0.18393379976587781,1.7532941438518979,0.037195279957947594,20.128874134306475,0.660212137104982,-0.00016807856211009664,19.6566500389,-0.352677070854,0.0191667687695,-1.2302204759503048,2.5917212917286707,-3.215818477788519,2.4997283789936016,0.08773997912496456,0.04037279117518902,21.331516864085696,-0.3384343324540808,0.014974200284610014,0.18393379976587781,-1.7532941438518979,0.7909087161267271,2.928733729103902,-0.09113679654925518,-0.13687983169150703,31.50785280429023,120.4017598650982,12.553987487219274
1571030110.341,31.507870820000004,120.40176007,718.7984723034231,0.012017004288005602,1.8450550366998582,0.03457439750572621,20.451530419478296,0.6697115707447105,0.004232952853817196,19.8659113824,-0.356801807346,0.0126508184017,-1.3623180294890886,2.4845419630442476,-3.217879315309416,2.454310766582451,0.0785156489814083,0.059519411358140505,21.654276741353698,-0.3432695394094581,0.01057316886868272,0.012017004288005603,-1.8450550366998582,0.7935295985789487,2.927029215731797,-0.08695676573376639,-0.11618274891577261,31.507854690859585,120.40175994035195,12.547472150065005
1571030110.441,31.5078732,120.40176016999999,718.7927427254716,-0.02217920765380679,1.8679957037859232,0.04547964633760146,20.71542113876273,0.6792110082073517,0.0043338103818229,20.1709384261,-0.35678702106,0.00451306696844,-1.42268261712294,2.5315626046273114,-3.2226246417472613,2.5198999069224457,0.0573748199191239,0.09706788005019604,21.918277190548995,-0.3489540676433795,0.010472311340677016,-0.022179207653806786,-1.8679957037859232,0.7826243497470733,2.9341122104144834,-0.12394253228798231,-0.07202919815378443,31.507857441578192,120.40175998660389,12.539335301145911
1571030110.541,31.507874860000005,120.40176016999999,716.5467481685588,-0.09207014644585572,1.8221123725066788,-0.02438464987194791,20.899479242330994,0.6792109914272917,0.043534412744417494,20.4165168105,-0.361282238832,0.00441012841565,-1.469539851102687,2.5473438011400527,-3.185540764158321,2.5062786860734554,0.08044403507925281,0.13290836774264536,22.102316069957727,-0.34629392570633516,-0.02872829102191758,-0.0920701464458557,-1.8221123725066788,0.8524886459566227,2.9331691563047997,-0.10286888282670946,-0.04955485292253576,31.507859655604097,120.40176007128262,12.539233101531863
1571030110.641,31.507877499999996,120.40176025999999,716.7702017086599,-0.21780054748984337,1.822130716431575,-0.003463366703653726,21.192198370480927,0.6877604823557899,0.039635383375383526,20.6085393827,-0.366927135645,0.00630514455002,-1.5548520393704928,2.5213422239393037,-3.208337220059611,2.432590050345607,0.09341945335239829,0.11375558393805572,22.39512818780685,-0.35061196006302053,-0.02482926165288361,-0.21780054748984334,-1.822130716431575,0.8315673627883284,2.9276165636605698,-0.07354222411779321,-0.06190006019454144,31.507861386516833,120.40176015991456,12.541128703393042
1571030110.741,31.507880399999998,120.40176035,716.9420890471991,-0.332426677160568,1.7648125858386001,-0.005119854098733458,21.513745894435935,0.6963099701056219,0.03663646497787276,20.8954355926,-0.365689531123,0.00345571780037,-1.6830928824001807,2.6049675878388237,-3.2085574425550507,2.483816159018168,0.08476360058314462,0.10360221544292146,22.716765690438255,-0.3545133448700335,-0.021830343255372846,-0.33242667716056795,-1.7648125858386001,0.8332238501834082,2.9267328053736126,-0.0949743531835548,-0.067018043743969,31.507863973891858,120.40176019053686,12.538280159235
1571030110.841,31.507882509999998,120.40176045,717.0337622944201,-0.3329340364187549,1.707396482999612,-0.03934179996200804,21.747699435232754,0.7058094077166315,0.03503726220388259,21.1320414177,-0.37407311951,0.00197701659952,-1.635699645196926,2.6700389850633606,-3.1620519811210173,2.4520361339936785,0.018536640236461597,0.08398941862326034,22.950832087931552,-0.3606305444584792,-0.020231140481382675,-0.3329340364187549,-1.707396482999612,0.8674457960466828,2.911290401861461,-0.14766790519736017,-0.07473483661556131,31.507866106496937,120.40176031477878,12.536802196875215
1571030110.941,31.50788539,120.40176063999999,717.0394918723713,-0.15022101983163447,1.7188550308820567,-0.08247550066167887,22.067029381718093,0.7238583479066918,0.034938365361544044,21.3830426203,-0.386413458743,-0.00196249548169,-1.4562000342087926,2.6794781066953166,-3.114032972729082,2.444540776894874,0.0007138359960077744,0.06801527079225209,23.270389536855976,-0.3740624393816514,-0.020132243639044135,-0.15022101983163447,-1.7188550308820567,0.9105794967463537,2.897210861513659,-0.16910578569179768,-0.10219186451395727,31.507868368403024,120.40176048285892,12.532863477244973
1571030111.041,31.507888,120.40176080000002,716.9134411574425,-0.0012679521306424443,1.8106669462161096,-0.08024213606151369,22.356422137821923,0.7390574547198199,0.037139379900064995,21.6277289922,-0.399860335633,-0.00828286523253,-1.283860155859536,2.618526624285949,-3.094528136271207,2.4455113370345525,0.02004469425447437,0.05038839234760071,23.559971734573182,-0.3850774699563186,-0.022333258177565086,-0.0012679521306424408,-1.8106669462161096,0.9083461321461885,2.89678263970947,-0.13645766364513373,-0.11949185876179035,31.50787057321817,120.40176066162553,12.52654389012605
1571030111.141,31.50789063,120.40176093,716.7071763511955,0.09096784995652794,1.8450951645502052,-0.04437644816279613,22.648032456195175,0.7514067206294692,0.040740414174182504,21.8937813247,-0.408677309971,-0.0160832460281,-1.1937369689042285,2.5916454412207703,-3.11117047354269,2.490780988368643,0.05485225635337378,0.03810448475362502,23.851730075227703,-0.3932109076537248,-0.025934292451682595,0.09096784995652796,-1.8450951645502052,0.8724804442474708,2.925275842540173,-0.11228250583595631,-0.13507836219794261,31.507872971313862,120.4017607949093,12.518744370900095
1571030111.241,31.507893010000004,120.40176102,716.5238298567535,0.04459256468746118,1.79923534997227,-0.07952191506659814,22.91192316372972,0.7599562087155052,0.043941360768325666,22.1563556629,-0.413932023134,-0.0231426682451,-1.2562589933808312,2.6218658703445574,-3.08106883533726,2.5056049635378583,0.07191894124847585,0.06406711377780905,24.115716783399794,-0.3979455858981574,-0.029135239045825757,0.04459256468746118,-1.79923534997227,0.9076259111512728,2.9288835902299923,-0.10246052157363539,-0.11843811211061833,31.50787533850952,120.40176089016818,12.511685810983181
1571030111.341,31.50789591,120.40176114,716.4608044992892,-0.0017769496717098875,1.7762760687808303,-0.11463052656637616,23.23347067353304,0.7713555286359624,0.04504253041366901,22.4157996374,-0.418093505959,-0.0274631991792,-1.2875397661384858,2.675970058247567,-3.0623194047937403,2.5081673356539023,0.06880755078422836,0.09902810168688887,24.43739545947398,-0.40469650543009306,-0.03023640869116911,-0.001776949671709884,-1.77627606878083,0.942734522651051,2.922473569868972,-0.10044695825852859,-0.08503159409253805,31.50787767761815,120.40176097344367,12.507366141304374
1571030111.441,31.507898550000004,120.40176123000002,716.5352890126562,-0.047292391600839624,1.7991665611238365,-0.09242494500805698,23.526189795970424,0.7799050143796258,0.04374360920468945,22.6673469202,-0.421833214973,-0.0292032936074,-1.3415893581519722,2.6749133305674557,-3.1067615510138076,2.506854928744984,0.07611684396545025,0.10915904220697172,24.730207571536212,-0.40901453468504656,-0.028937487482189547,-0.04729239160083962,-1.7991665611238365,0.9205289410927318,2.927719408732635,-0.08856166797663965,-0.07602989343294274,31.507879945569776,120.40176105107824,12.505626892670989
1571030111.541,31.50790028,120.40176135,716.6842580393902,-0.1625435159002685,1.7187667556636252,-0.13996167383842784,23.71800952979971,0.7913043412488259,0.04114432266079149,22.916010025,-0.424686464293,-0.0315210934439,-1.4296481021546337,2.7566526042872725,-3.1483529305138513,2.532188128145302,0.09473909479534934,0.08569804308810007,24.92217202113207,-0.4176403697616075,-0.026338200938291586,-0.16254351590026847,-1.7187667556636252,0.9680656699231025,2.9578303761256173,-0.0805182055233311,-0.07397800110769813,31.507882187627615,120.40176111894326,12.50330993719399
