time,ins1000_lon,ins1000_lat,ins1000_alt,ins1000_roll,ins1000_pitch,ins1000_yaw,ins1000_ned_x,ins1000_ned_y,ins1000_ned_z,algo_pose_x,algo_pose_y,algo_pose_z,algo_roll,algo_pitch,algo_yaw,algo_vel_x,algo_vel_y,algo_vel_z,align_pose_x,align_pose_y,align_pose_z,align_roll,align_pitch,align_yaw,align_vel_x,align_vel_y,align_vel_z,algo_lon,algo_lat,algo_alt
1571106970,120.4019978,31.50813519,718.5864779,0.931751468,2.061287868,-179.8113156,0,0,0,1.028202147,0.149625858,0.016257025,2.071354682,-2.265946962,1.884967735,0.834248852,0.082605878,-0.023138248,1.028202147,0.149625858,0.016257025,0.931751468,-2.061287868,5.150827167,0.939021332,0.015193993,0.012487626,120.4019978,31.50813519,12.54170001
1571106970,120.4019978,31.50813424,718.8672272,0.941153994,2.062210927,-179.9257532,-0.105334534,0.000949942,-0.004899998,1.069139093,0.15292309,0.01619171,2.146658334,-2.32540601,2.007119278,0.812626027,0.077641476,-0.025763825,1.13299121,0.160373818,0.021157023,0.941153994,-2.062210927,5.26526477,0.981510036,0.017048773,0.01070928,120.4019978,31.50813482,12.54163469
1571106970,120.4019978,31.50813352,719.073492,0.928038674,2.074424031,179.982418,-0.185167024,0.001899885,-0.008499998,1.084845173,0.153236362,0.018527313,2.142523182,-2.468312845,2.13617373,0.80538828,0.059924267,-0.034661289,1.21238889,0.168748628,0.024757024,0.928038674,-2.074424031,5.357093504,1.015679874,0.016624788,0.008272223,120.4019978,31.50813468,12.54397029
1571106970,120.4019979,31.5081323,719.4229963,0.925353615,2.064167128,179.8332879,-0.320438743,0.004749713,-0.014599992,1.196401269,0.168062921,0.019012782,2.198886699,-2.477995797,2.243089569,0.870071865,0.084433685,-0.028993678,1.346808435,0.184174101,0.030857018,0.925353615,-2.064167128,5.506223628,1.064856006,0.016687706,0.011184637,120.4019978,31.50813366,12.54445576
1571106970,120.4019979,31.50813132,719.7094752,0.923492843,2.065003043,179.7301085,-0.429099632,0.006649599,-0.019599985,1.27123176,0.178277949,0.020879253,2.276293462,-2.519758137,2.328892177,0.862352819,0.065655732,-0.03373262,1.45482102,0.196177423,0.03585701,0.923492843,-2.065003043,5.609403068,1.105368991,0.01396393,0.010152904,120.4019979,31.50813298,12.54632224
1571106970,120.4019979,31.50813041,719.9730358,0.910613634,2.054152234,179.6495606,-0.529999029,0.008549486,-0.024199978,1.403636265,0.194183041,0.022551891,2.433365275,-2.450936601,2.417442313,0.957184617,0.086545508,-0.03043483,1.555105793,0.207458484,0.040457003,0.910613634,-2.054152234,5.689950919,1.141945393,0.017735276,0.013196532,120.4019979,31.50813178,12.54799488
1571106970,120.4019979,31.50812937,720.2595147,0.897459698,2.066304503,179.5577295,-0.645312626,0.011399313,-0.029199967,1.483574453,0.204071335,0.025096803,2.451030466,-2.514580176,2.497534296,0.958689199,0.071848421,-0.022213611,1.66965382,0.221026708,0.045456992,0.897459698,-2.066304503,5.781782066,1.177941054,0.018299877,0.005245767,120.4019979,31.50813106,12.5505398
1571106970,120.401998,31.50812829,720.540264,0.872666686,2.067007406,179.4541366,-0.765061362,0.014249143,-0.034099953,1.549923013,0.212317762,0.026978808,2.458744951,-2.567784333,2.586145364,0.974821205,0.073337024,-0.036657318,1.78861774,0.235007657,0.050356978,0.872666686,-2.067007406,5.885374911,1.222279709,0.018627324,0.003933998,120.4019979,31.50813045,12.55242181
1571106970,120.401998,31.50812705,720.8611204,0.836802825,2.033125059,179.3615532,-0.90255065,0.017098973,-0.039699935,1.622280158,0.21953095,0.02837492,2.545966429,-2.598361825,2.665643894,0.984091209,0.063429327,-0.043936464,1.925245233,0.250639492,0.055956961,0.836802825,-2.033125059,5.977958337,1.274160489,0.018071007,0.010440186,120.401998,31.5081298,12.55381793
1571106970,120.4019978,31.50812616,720.5173457,0.812447181,2.033572248,179.2808969,-1.001232477,-0.003799772,-0.033699922,1.695836755,0.227759895,0.029676612,2.665542758,-2.597159515,2.730590386,0.981172853,0.060722385,-0.035361209,2.025443635,0.239014488,0.049956947,0.812447181,-2.033572248,6.058614636,1.305523653,0.009863426,0.01614541,120.401998,31.50812913,12.55511963
1571106971,120.4019978,31.50812485,720.9126866,0.765038957,2.022438434,179.1882937,-1.146483259,-0.000949945,-0.040599898,1.8221122,0.242768839,0.031158142,2.97620437,-2.537641977,2.801176731,1.029252233,0.066149386,-0.028005796,2.169798942,0.255368584,0.056856923,0.765038957,-2.022438434,6.151217797,1.339079405,0.010662878,0.015811685,120.401998,31.50812798,12.55660117
1571106971,120.4019978,31.50812375,721.2278134,0.741096591,2.022651707,179.1305684,-1.268449564,0.001899885,-0.046099874,1.934531315,0.255917253,0.032254929,3.199140163,-2.513466456,2.857862403,1.055372056,0.060656757,-0.03403014,2.290970809,0.269555893,0.062356899,0.741096591,-2.022651707,6.208943157,1.361867676,0.01269045,0.010376719,120.401998,31.50812696,12.55769797
1571106971,120.4019979,31.50812238,721.6002359,0.716951179,2.022915432,179.0613794,-1.420353054,0.005699657,-0.05259984,2.015904675,0.264867302,0.033883081,3.390176568,-2.537118203,2.917917603,1.045244311,0.055830188,-0.030164897,2.441861557,0.287474895,0.068856865,0.716951179,-2.022915432,6.278132126,1.395559393,0.007557585,0.007848868,120.401998,31.50812622,12.55932614
1571106971,120.4019979,31.50812124,721.8924444,0.715944737,2.046137153,179.0156641,-1.546754497,0.008549487,-0.057699812,2.124605538,0.276365632,0.035549034,3.571584914,-2.51575089,2.966341626,1.083280471,0.049788455,-0.031662891,2.567449317,0.302074926,0.073956838,0.715944737,-2.046137153,6.323847422,1.428135613,6.04E-05,0.006013052,120.4019981,31.50812524,12.56099211
1571106971,120.4019979,31.50812007,722.196112,0.726587046,2.04653504,178.9700144,-1.676482295,0.010449372,-0.062999778,2.226588293,0.286004552,0.035805362,3.774438245,-2.445313603,3.010028782,1.096516894,0.044144783,-0.048442496,2.696437397,0.316038675,0.079256803,0.726587046,-2.04653504,6.369497118,1.459922245,-0.002513713,0.008502416,120.4019981,31.50812431,12.56124846
1571106971,120.4019979,31.50811848,722.63156,0.737453339,2.00116171,178.9126142,-1.852779046,0.013299202,-0.070599729,2.337014371,0.296754353,0.034980634,3.931470319,-2.327926402,3.053027408,1.10664752,0.049335991,-0.047197615,2.871703957,0.335281826,0.086856754,0.737453339,-2.00116171,6.426897299,1.481039597,0.000292207,0.013387967,120.4019981,31.50812331,12.56042375
1571106971,120.401998,31.50811741,722.9180389,0.736873805,1.97853686,178.8666172,-1.971418998,0.01614903,-0.075599693,2.445617993,0.307974805,0.035513589,3.961293754,-2.264015711,3.105170101,1.111014281,0.050764235,-0.028072139,2.989563905,0.349159592,0.091856718,0.736873805,-1.97853686,6.472894348,1.491605714,0.006768935,0.01132282,120.4019981,31.50812233,12.56095673
1571106971,120.401998,31.50811633,723.1930586,0.713235688,1.989991425,178.8318994,-2.091167735,0.01899886,-0.080399657,2.613311858,0.325237328,0.037429291,3.969671399,-2.237510021,3.128482905,1.188764095,0.05228322,-0.018440476,3.108527827,0.363140541,0.096656682,0.713235688,-1.989991425,6.507612097,1.511851729,0.01260262,0.007649493,120.4019981,31.50812081,12.56287247
1571106971,120.4019981,31.50811452,723.6113178,0.677650809,2.047166842,178.7972388,-2.291857748,0.024698519,-0.087699586,2.799427687,0.343538153,0.041295869,3.901212236,-2.373303027,3.144532405,1.32449862,0.047898172,-0.036121742,3.307816604,0.387491123,0.103956611,0.677650809,-2.047166842,6.542272743,1.591361447,0.007496832,-0.001836841,120.4019981,31.50811912,12.5667391
1571106971,120.4019977,31.50811323,720.9871711,0.687550264,2.116359352,178.7519901,-2.434890943,-0.007599545,-0.041899533,2.961049684,0.360111782,0.044903414,3.773288253,-2.438944889,3.187968308,1.427047364,0.067898068,-0.047763067,3.453234711,0.36864348,0.058156558,0.687550264,-2.116359352,6.587521451,1.665207116,-0.010781243,-0.010473114,120.4019981,31.50811766,12.57034669
1571106972,120.4019977,31.50811201,721.2507317,0.698840525,2.093700769,178.7291403,-2.570162664,-0.00569966,-0.04649948,3.112085563,0.374325277,0.0457539,3.702987407,-2.490824735,3.205432976,1.455476594,0.035526726,-0.062228353,3.587742658,0.383123132,0.062756505,0.698840525,-2.093700769,6.610371193,1.711697229,-0.016874044,-0.002330931,120.4019981,31.50811629,12.57119723
1571106972,120.4019978,31.50811013,721.6632613,0.722115464,2.025321064,178.7062148,-2.778614168,-0.00284983,-0.053699392,3.254265247,0.387390661,0.045170797,3.576703464,-2.451884014,3.223125885,1.520107632,0.061265997,-0.070089198,3.795024444,0.405358514,0.069956418,0.722115464,-2.025321064,6.633296707,1.761389051,-0.008648104,-0.007445851,120.4019981,31.508115,12.57061417
1571106972,120.4019978,31.50810884,721.8867148,0.709854125,2.059729561,178.6832913,-2.921647381,-1.55E-10,-0.057599327,3.409510484,0.402092699,0.047109429,3.460349492,-2.481230993,3.235416409,1.560994696,0.046382655,-0.030729608,3.937171805,0.421506252,0.073856353,0.709854125,-2.059729561,6.656220271,1.816733149,-0.001547638,-0.024794548,120.4019981,31.50811359,12.57255286
1571106972,120.4019979,31.5081068,722.1903825,0.639829847,2.173361608,178.6825363,-3.147839438,0.005699658,-0.06289922,3.620576825,0.422770269,0.050627438,3.350722141,-2.529126561,3.221478875,1.729544878,0.059062737,-0.040911993,4.161851967,0.448229982,0.079156245,0.639829847,-2.173361608,6.656975253,1.945322867,0.002204848,-0.025017065,120.4019981,31.50811168,12.57607095
1571106972,120.4019979,31.50810519,722.4768613,0.605743083,2.184300405,178.7048697,-3.326353759,0.009499432,-0.067899129,3.862372498,0.444362359,0.051453474,3.394134182,-2.493368769,3.170286194,1.882436028,0.059228671,-0.071723529,4.339238075,0.468625315,0.084156155,0.605743083,-2.184300405,6.634641839,2.035783223,-0.010953766,-0.014887771,120.4019981,31.50810949,12.57689709
1571106972,120.4019979,31.50810312,722.8779318,0.641170567,2.150101303,178.7397373,-3.555872172,0.012349259,-0.074899005,4.112755879,0.465051667,0.050555636,3.509035286,-2.340732754,3.13612758,2.023110101,0.045269728,-0.080040828,4.567495356,0.492821123,0.091156031,0.641170567,-2.150101303,6.599774211,2.132942899,-0.026705097,-0.018138047,120.4019981,31.50810723,12.57599937
1571106972,120.401998,31.50810136,723.1758699,0.664287135,2.173146021,178.7632272,-3.751018261,0.014249147,-0.080098893,4.331332031,0.480966981,0.050792741,3.6039353,-2.305157868,3.102486361,2.14039822,0.038465519,-0.07180566,4.761617862,0.51287252,0.096355919,0.664287135,-2.173146021,6.576284369,2.219093695,-0.019825435,-0.028739749,120.401998,31.50810525,12.57623659
1571106972,120.401998,31.50809973,723.4394304,0.676168736,2.195989262,178.7979712,-3.931750151,0.016149033,-0.084698783,4.569634624,0.49842213,0.052049544,3.667162879,-2.272652471,3.06222144,2.261620478,0.048809494,-0.081991943,4.941388715,0.53158257,0.100955808,0.676168736,-2.195989262,6.541540358,2.307538273,-0.015451263,-0.029761648,120.401998,31.5081031,12.57749352
1571106972,120.401998,31.50809738,723.8347713,0.64255005,2.183960968,178.8316435,-4.192314534,0.020898749,-0.091598616,4.813289693,0.517631003,0.052818175,3.694855203,-2.221655585,3.03790346,2.368655118,0.066717055,-0.091903589,5.200380452,0.560559074,0.107855642,0.64255005,-2.183960968,6.507868052,2.423910416,-0.007872204,-0.023500902,120.4019979,31.50810089,12.57826229
1571106972,120.4019974,31.50809573,719.7839597,0.644020368,2.160849574,178.9004193,-4.375263942,-0.037047785,-0.020898493,5.068299022,0.538268651,0.055138954,3.765554514,-2.210164406,3.016963382,2.468143315,0.061108077,-0.081286936,5.387928342,0.519888747,0.037155519,0.644020368,-2.160849574,6.439092282,2.491444432,-0.033934768,-0.045894287,120.4019979,31.50809858,12.58058323
1571106973,120.4019974,31.50809275,720.1220048,0.633319049,2.171941944,178.9461205,-4.705681749,-0.036097843,-0.026798256,5.331950112,0.557775208,0.057737943,3.806234636,-2.195911387,2.981595182,2.570341136,0.057032131,-0.076059883,5.716823989,0.55158233,0.043055281,0.633319049,-2.171941944,6.393391055,2.599942718,-0.035914038,-0.05277828,120.4019979,31.5080962,12.58318239
1571106973,120.4019974,31.50809036,720.3970246,0.610181905,2.194659023,178.9458029,-4.970681266,-0.034197959,-0.031598055,5.604397567,0.579940687,0.060889977,3.824876235,-2.240031244,2.975793988,2.670486177,0.083143415,-0.08130538,5.980496812,0.578134091,0.04785508,0.610181905,-2.194659023,6.393708685,2.68992066,-0.033749149,-0.051791374,120.4019978,31.50809374,12.58633462
1571106973,120.4019975,31.50808789,720.689233,0.564544429,2.194173945,178.9563869,-5.244551061,-0.032298072,-0.036697836,5.878202498,0.602258948,0.062747212,3.809660991,-2.211820669,2.975760139,2.750716611,0.085894032,-0.09341472,6.253001423,0.605511296,0.052954861,0.564544429,-2.194173945,6.38312465,2.777968563,-0.028275601,-0.057824666,120.4019978,31.50809126,12.58819206
1571106973,120.4019975,31.50808561,720.9356049,0.530254581,2.182392217,178.9556758,-5.497353948,-0.030398187,-0.040997622,6.156462966,0.624697304,0.062306186,3.756956699,-2.182728885,2.967582001,2.821373559,0.091252105,-0.100088359,6.50453054,0.630928072,0.057254647,0.530254581,-2.182392217,6.383835736,2.839117208,-0.029582102,-0.057085906,120.4019978,31.50808874,12.58775125
1571106973,120.4019975,31.50808355,721.1705176,0.507325743,2.182181215,178.9552382,-5.725763574,-0.028498302,-0.045097419,6.447754355,0.648423729,0.062413707,3.708929039,-2.185209289,2.961518411,2.890831337,0.081574242,-0.092678182,6.731772244,0.654074878,0.061354445,0.507325743,-2.182181215,6.384273363,2.883293085,-0.042195776,-0.057858144,120.4019977,31.50808611,12.58785902
1571106973,120.4019975,31.50808013,721.571588,0.517823584,2.239721513,178.932777,-6.104967906,-0.027548358,-0.052097066,6.74904514,0.671669196,0.063689513,3.662309405,-2.220451065,2.964837113,2.954593073,0.08631316,-0.081882859,7.109242719,0.690308403,0.068354091,0.517823584,-2.239721513,6.406734494,2.956316978,-0.041324601,-0.06091035,120.4019977,31.50808338,12.58913509
1571106973,120.4019975,31.50807743,721.8867148,0.528686943,2.285519359,178.9216333,-6.404339748,-0.025648473,-0.057596772,7.052762664,0.695486827,0.064343809,3.654219021,-2.267068744,2.974794884,3.016903387,0.088789596,-0.103027163,7.407138717,0.720058756,0.073853797,0.528686943,-2.285519359,6.417878211,3.016090166,-0.041043823,-0.06185286,120.4019976,31.50808063,12.58978967
1571106973,120.4019975,31.50807524,722.1445458,0.51700727,2.308340269,178.9215033,-6.647163573,-0.02469853,-0.062096521,7.357227969,0.719454135,0.064906382,3.611995521,-2.283786262,2.981707264,3.064312299,0.089444765,-0.106667096,7.648820473,0.743601088,0.078353547,0.51700727,-2.308340269,6.418008278,3.051766907,-0.033362733,-0.06757353,120.4019976,31.50807788,12.59035254
1571106973,120.4019976,31.50807275,722.4252951,0.48216147,2.330994104,178.9094349,-6.923250938,-0.0218487,-0.066996227,7.667634766,0.744486193,0.064802254,3.537904311,-2.329664892,2.997787187,3.110849092,0.102464297,-0.120082366,7.923444632,0.772130476,0.083253252,0.48216147,-2.330994104,6.430076634,3.092459961,-0.029548078,-0.068788365,120.4019975,31.50807507,12.59024873
1571106973,120.401997,31.50806949,721.4340782,0.435276622,2.387972645,178.8857743,-7.284714691,-0.079795254,-0.049695822,7.982214607,0.770345311,0.065832122,3.496437108,-2.362552157,3.016264102,3.14566996,0.100269745,-0.112878715,8.288732253,0.748072179,0.065952848,0.435276622,-2.387972645,6.453737254,3.135733406,-0.049323324,-0.07004168,120.4019975,31.50807222,12.59127894
1571106974,120.401997,31.50806693,721.7549345,0.400414507,2.410609426,178.8736652,-7.568563548,-0.079795256,-0.05529549,8.300479806,0.797100107,0.067113273,3.484117916,-2.378034084,3.034085895,3.192548525,0.091341059,-0.13044934,8.571349423,0.774486363,0.071552516,0.400414507,-2.410609426,6.465846311,3.179098691,-0.05991501,-0.072362446,120.4019975,31.50806934,12.59256045
1571106974,120.401997,31.50806433,722.0586022,0.377353145,2.398956661,178.8616802,-7.856847544,-0.079795258,-0.060595141,8.618839501,0.822511844,0.069904677,3.554689454,-2.410768354,3.040519798,3.224008983,0.086164497,-0.132092795,8.858382486,0.801313269,0.076852166,0.377353145,-2.398956661,6.477831365,3.208646941,-0.068756345,-0.074620393,120.4019974,31.50806646,12.59535223
1571106974,120.401997,31.50806114,722.4252951,0.377126925,2.421888388,178.8617509,-8.210549833,-0.079795261,-0.066994693,8.94570064,0.847167319,0.074735434,3.658563076,-2.430360947,3.041457401,3.252100216,0.087227016,-0.128533471,9.210549976,0.834227819,0.083251718,0.377126925,-2.421888388,6.477760661,3.243200618,-0.062061068,-0.078012279,120.4019974,31.50806351,12.60018339
1571106974,120.401997,31.50805849,722.7461515,0.377353145,2.398956661,178.8616802,-8.504377753,-0.079795263,-0.072594307,9.246115677,0.86978506,0.078530752,3.902360617,-2.399406644,3.042094161,3.258076572,0.084852647,-0.136120986,9.503102907,0.861570628,0.088851332,0.377353145,-2.398956661,6.477831365,3.278983885,-0.064121522,-0.070591399,120.4019973,31.50806079,12.60397909
1571106974,120.401997,31.50805522,723.1701403,0.354401622,2.352940676,178.8381345,-8.866950319,-0.078845324,-0.079993811,9.552503964,0.89312318,0.084021984,4.208777757,-2.366183157,3.057455466,3.270867822,0.082479662,-0.119693292,9.864013786,0.896256442,0.096250836,0.354401622,-2.352940676,6.501377083,3.313556626,-0.060920772,-0.067619933,120.4019972,31.50805802,12.60947073
1571106974,120.401997,31.50805342,723.405053,0.331584955,2.341241376,178.837632,-9.06653155,-0.077895379,-0.084093529,9.852484947,0.917263207,0.088927943,4.457536297,-2.354825377,3.059236745,3.261517121,0.088982121,-0.104936378,10.06264059,0.915774739,0.100350554,0.331584955,-2.341241376,6.501879518,3.331705775,-0.058391662,-0.06782362,120.4019972,31.50805531,12.6143771
1571106974,120.401997,31.50805041,723.8175826,0.297068946,2.329457306,178.8254347,-9.400275718,-0.076945439,-0.091293045,10.1547662,0.944097883,0.094055998,4.851835054,-2.342449813,3.063718555,3.252136311,0.103980134,-0.095681491,10.39484816,0.947777863,0.107550071,0.297068946,-2.329457306,6.514076805,3.35058572,-0.051311924,-0.062272706,120.4019972,31.50805257,12.61950558
1571106974,120.401997,31.50804616,724.3790812,0.227572627,2.328824238,178.7896364,-9.871509178,-0.075045556,-0.101092328,10.46080513,0.971132536,0.100170462,5.073063038,-2.350054162,3.075712225,3.250930322,0.083275195,-0.096522778,10.86386003,0.99352118,0.117349354,0.227572627,-2.328824238,6.549875157,3.383076364,-0.057930516,-0.065093854,120.4019972,31.5080498,12.6256205
1571106974,120.401997,31.5080431,724.7686925,0.170000782,2.351146953,178.7884992,-10.21079727,-0.07314567,-0.107891794,10.77787176,0.999169912,0.105833399,5.30232974,-2.379548357,3.080926281,3.258747357,0.096062204,-0.081371304,11.20149907,1.02698603,0.12414882,0.170000782,-2.351146953,6.551012316,3.391888285,-0.059255229,-0.074835605,120.4019972,31.50804693,12.63128392
1571106974,120.4019965,31.50804005,725.1984109,0.176937524,2.454749769,178.6283456,-10.54897658,-0.125392582,-0.115391241,11.11155319,1.027692468,0.113862524,5.387968883,-2.435829815,3.083783879,3.28005125,0.096046452,-0.074790819,11.54307289,1.006435857,0.131648266,0.176937524,-2.454749769,6.711165973,3.411873545,-0.086786792,-0.064223248,120.4019971,31.50804391,12.63931357
1571106975,120.4019965,31.50803727,725.6281292,0.130274115,2.500081015,178.6159364,-10.85721871,-0.125392586,-0.122890721,11.45107184,1.056916998,0.12106646,5.368490637,-2.500006723,3.088795452,3.312919206,0.099000266,-0.092776071,11.84997748,1.035120009,0.139147746,0.130274115,-2.500081015,6.723575156,3.433589735,-0.084712563,-0.069449787,120.4019971,31.50804083,12.64651805
1571106975,120.4019965,31.50803386,726.0864955,0.083854976,2.545393181,178.6149566,-11.23531426,-0.125392591,-0.130890064,11.78585175,1.087519393,0.127673111,5.304245396,-2.553120914,3.079180763,3.334980381,0.092385599,-0.106319029,12.22643239,1.070304527,0.14714709,0.083854976,-2.545393181,6.724554893,3.451789746,-0.085691113,-0.084455149,120.4019971,31.5080378,12.65312527
1571106975,120.4019965,31.50803105,726.4417293,0.04916033,2.590837708,178.6256663,-11.54688274,-0.126342538,-0.137089505,12.13787329,1.116406981,0.133417578,5.249838085,-2.611274314,3.060842373,3.376793877,0.08908659,-0.11001883,12.5367373,1.0983524,0.15334653,0.04916033,-2.590837708,6.713845234,3.472022559,-0.105091395,-0.088547136,120.401997,31.50803462,12.65887035
1571106975,120.4019964,31.50802821,726.8141519,0.083547946,2.614174284,178.6379218,-11.86177758,-0.129192372,-0.143588926,12.47819931,1.142941929,0.139397507,5.337125865,-2.614375189,3.037999813,3.397005844,0.062728794,-0.122099998,12.85053093,1.124818171,0.159845951,0.083547946,-2.614174284,6.701589698,3.500367079,-0.116962923,-0.082868114,120.401997,31.50803154,12.66485088
1571106975,120.4019964,31.50802441,727.3756505,0.08511731,2.591181834,178.6952458,-12.28311574,-0.13204221,-0.153388125,12.81556818,1.168532114,0.144263357,5.409277661,-2.595670477,2.990797383,3.420415055,0.07353667,-0.119801311,13.270306,1.161189258,0.16964515,0.08511731,-2.591181834,6.644265749,3.532766301,-0.104480692,-0.076937374,120.4019969,31.50802849,12.66971735
1571106975,120.4019964,31.50802153,727.7939097,0.063088531,2.579425379,178.7291246,-12.60244571,-0.133942104,-0.160687499,13.15208574,1.195053056,0.147729016,5.403636517,-2.594665457,2.957067071,3.434900917,0.100194735,-0.12119744,13.58842713,1.189013569,0.176944524,0.063088531,-2.579425379,6.610386964,3.557880749,-0.089112382,-0.075998816,120.4019969,31.50802544,12.67318365
1571106975,120.4019964,31.50801831,728.2981125,-0.016038817,2.521196444,178.7502738,-12.95947436,-0.134892052,-0.16948678,13.48924386,1.223188721,0.149001539,5.238715137,-2.53739699,2.945510668,3.440569809,0.087964012,-0.13744673,13.94399495,1.221291839,0.185743805,-0.016038817,-2.521196444,6.589237789,3.584125943,-0.088261386,-0.06755212,120.4019968,31.50802239,12.67445683
1571106975,120.4019964,31.50801507,728.8424225,-0.071762875,2.440319841,178.783482,-13.31872059,-0.135842001,-0.178986038,13.8391315,1.252204012,0.149838413,5.047667451,-2.486631127,2.923972946,3.47388822,0.091996198,-0.135650549,14.30177072,1.253776469,0.195243064,-0.071762875,-2.440319841,6.556029577,3.601379624,-0.098892899,-0.056417166,120.4019968,31.50801923,12.6752944
1571106975,120.4019963,31.50801149,729.3981915,-0.104955761,2.394115517,178.8172013,-13.71566549,-0.139641783,-0.188685192,14.19667686,1.280609681,0.151712222,4.948820287,-2.45957102,2.9022939,3.49178496,0.085275793,-0.127193715,14.69734678,1.286931765,0.204942218,-0.104955761,-2.394115517,6.522310261,3.615145629,-0.108016422,-0.068373113,120.4019968,31.50801599,12.67716895
1571106975,120.4019959,31.50800915,724.1670868,-0.106758815,2.405525092,178.736924,-13.97512089,-0.176689604,-0.097384627,14.55740811,1.306906216,0.15530477,4.877177357,-2.439580993,2.869512119,3.520563923,0.080175324,-0.129049265,14.9591239,1.274188902,0.113641652,-0.106758815,-2.405525092,6.602587586,3.611062295,-0.117556473,-0.107477252,120.4019967,31.50801273,12.68076226
1571106976,120.4019959,31.50800555,724.436377,-0.128246431,2.382392932,178.793805,-14.37428334,-0.181439331,-0.102083736,14.91756518,1.332467437,0.158187498,4.839261044,-2.42864142,2.820029844,3.549511771,0.085638316,-0.136863432,15.35699629,1.306604735,0.118340761,-0.128246431,-2.382392932,6.545706545,3.63111798,-0.122545561,-0.111911633,120.4019966,31.50800947,12.68364577
1571106976,120.4019958,31.50800226,724.6712897,-0.196445524,2.347291144,178.8039083,-14.73907348,-0.186189059,-0.1061829,15.27915897,1.359089081,0.160968578,4.771179144,-2.410039813,2.802859005,3.568901963,0.099892819,-0.139923578,15.72064551,1.335821974,0.122439926,-0.196445524,-2.347291144,6.535603217,3.650479757,-0.112082351,-0.108586588,120.4019965,31.5080062,12.68642766
1571106976,120.4019958,31.50799896,724.8947432,-0.252721926,2.33532123,178.8486273,-15.10497239,-0.189988843,-0.11008204,15.65084096,1.385709796,0.165292438,4.717446465,-2.393294598,2.775570942,3.599804759,0.090427124,-0.131410711,16.08531031,1.366088216,0.126339065,-0.252721926,-2.33532123,6.490884264,3.670478326,-0.115319875,-0.110564905,120.4019964,31.50800284,12.69075237
1571106976,120.4019958,31.50799597,725.060901,-0.297665271,2.289057328,178.8707542,-15.43649899,-0.193788626,-0.112981242,16.01808392,1.41336108,0.167283492,4.669496154,-2.363793204,2.739853694,3.630459247,0.088359888,-0.144467765,16.41575193,1.393155865,0.129238267,-0.297665271,-2.289057328,6.468757327,3.690258466,-0.118866303,-0.119506482,120.4019964,31.50799952,12.69274428
1571106976,120.4019957,31.50799229,725.2614362,-0.342365311,2.243070149,178.9044932,-15.84453172,-0.199488299,-0.116480238,16.3786182,1.441448616,0.169988285,4.638144916,-2.335326477,2.715303391,3.646573292,0.093179612,-0.14713629,16.8225445,1.425451318,0.132737264,-0.342365311,-2.243070149,6.435018299,3.717459141,-0.128841145,-0.115557372,120.4019963,31.50799626,12.69544994
1571106976,120.4019957,31.50798961,725.4104053,-0.364408647,2.220024352,178.9385163,-16.14168599,-0.204238026,-0.119079489,16.7430333,1.467755043,0.171092181,4.628420506,-2.30600421,2.676330451,3.661947863,0.087813516,-0.137199674,17.11885135,1.448374552,0.135336514,-0.364408647,-2.220024352,6.400995249,3.727595358,-0.125996637,-0.111682841,120.4019962,31.50799297,12.69655474
1571106976,120.4019956,31.5079859,725.6281292,-0.397505882,2.173998049,178.9838767,-16.55304508,-0.210887643,-0.12287843,17.10683899,1.492063535,0.172502028,4.580620906,-2.279232707,2.639808353,3.672887235,0.097550294,-0.139149971,17.52904424,1.480033724,0.139135455,-0.397505882,-2.173998049,6.355634867,3.739857177,-0.128324958,-0.107238348,120.4019961,31.50798968,12.6979655
1571106976,120.4019955,31.50798252,725.8229349,-0.44292977,2.173679255,179.0059372,-16.92781427,-0.217537263,-0.126277442,17.463752,1.516867612,0.175285599,4.524180333,-2.271879527,2.617761815,3.668863287,0.093136886,-0.120273583,17.90280602,1.508287939,0.142534467,-0.44292977,-2.173679255,6.33357432,3.750144328,-0.126845327,-0.111801983,120.401996,31.50798646,12.70074999
1571106976,120.4019955,31.50797912,725.9948222,-0.465207604,2.173616185,179.0398967,-17.30480103,-0.223236937,-0.129276427,17.83708961,1.541494578,0.177292856,4.513413066,-2.275137724,2.576622172,3.689729313,0.092523894,-0.140774025,18.27868734,1.537694339,0.145533452,-0.465207604,-2.173616185,6.299614831,3.7626084,-0.117758264,-0.115349155,120.4019959,31.50798308,12.70275823
1571106976,120.4019952,31.50797586,724.843177,-0.522895216,2.092634356,178.9818688,-17.66626475,-0.242235835,-0.109175431,18.2078061,1.566658363,0.178331808,4.466116676,-2.207845095,2.545586011,3.664020677,0.097787959,-0.144868081,18.64035056,1.552414691,0.125432456,-0.522895216,-2.092634356,6.357642707,3.752287361,-0.133937075,-0.108313926,120.4019958,31.50797973,12.70379817
1571106977,120.4019952,31.50797249,724.9634982,-0.522584641,2.081220341,178.9933871,-18.03992515,-0.249835397,-0.111274381,18.57096913,1.590978381,0.181083814,4.51072964,-2.2000169,2.527871413,3.63978182,0.106280607,-0.112562391,19.01309676,1.579619905,0.127531406,-0.522584641,-2.081220341,6.346124447,3.724585206,-0.134709573,-0.118573613,120.4019957,31.50797645,12.70655118
1571106977,120.4019951,31.50796915,725.0265235,-0.534557379,2.138443762,178.9929028,-18.4102592,-0.257434963,-0.112373319,18.93627339,1.614640603,0.184458778,4.509989501,-2.272164586,2.513276223,3.622920654,0.086200882,-0.107175496,19.38253104,1.606515574,0.128630344,-0.534557379,-2.138443762,6.346608753,3.706978476,-0.138728491,-0.127710892,120.4019956,31.50797315,12.70992717
1571106977,120.401995,31.50796615,725.1239264,-0.580822315,2.183904777,178.991809,-18.74289458,-0.263134639,-0.114072345,19.29208018,1.637859477,0.187075513,4.457047741,-2.330088811,2.514007462,3.594265739,0.107503749,-0.124937086,19.71425343,1.631794755,0.130329371,-0.580822315,-2.183904777,6.347702494,3.687918303,-0.125964525,-0.116602537,120.4019955,31.50796994,12.71254492
1571106977,120.4019949,31.50796217,725.2958137,-0.593140014,2.2295518,178.968417,-19.18419084,-0.271684151,-0.117071029,19.64147766,1.662729406,0.189292484,4.424230487,-2.384188746,2.530631818,3.561456777,0.097899802,-0.119979674,20.1544304,1.664348147,0.133328054,-0.593140014,-2.2295518,6.371094505,3.66211176,-0.138972303,-0.117900993,120.4019954,31.50796678,12.71476291
1571106977,120.4019949,31.50795919,725.4046757,-0.62808533,2.240589635,178.9447556,-19.51460865,-0.278333774,-0.118970021,19.98284832,1.688215905,0.191688238,4.379004299,-2.404950157,2.569747953,3.520059846,0.097477058,-0.141208677,20.48403324,1.688475142,0.135227047,-0.62808533,-2.240589635,6.394755893,3.653415584,-0.144460785,-0.127220101,120.4019954,31.50796369,12.71715968
1571106977,120.4019948,31.5079559,725.4848898,-0.605272045,2.229274278,178.933801,-19.87939878,-0.286883284,-0.120368891,20.33380282,1.711621031,0.196325691,4.454754198,-2.413875293,2.579691282,3.500574749,0.092131813,-0.142250095,20.84803605,1.713909087,0.136625916,-0.605272045,-2.229274278,6.405710554,3.628098957,-0.148992426,-0.132107182,120.4019953,31.50796052,12.7217982
1571106977,120.4019947,31.50795263,725.536456,-0.59497508,2.297829463,178.9106145,-20.24197134,-0.294482851,-0.121267745,20.66354132,1.735232914,0.201250224,4.537466724,-2.480772518,2.593973484,3.486560407,0.095640322,-0.111262497,21.20974251,1.740082491,0.13752477,-0.59497508,-2.297829463,6.428897026,3.62967577,-0.144870992,-0.136648385,120.4019952,31.50795754,12.72672375
1571106977,120.4019946,31.50794934,725.6223996,-0.641867837,2.331607676,178.8751003,-20.60676146,-0.301132474,-0.122766572,21.01340846,1.761050699,0.206349014,4.482578718,-2.542521651,2.622845476,3.506093836,0.101656954,-0.124124167,21.57356852,1.767408079,0.139023598,-0.641867837,-2.331607676,6.464411223,3.659095235,-0.130801117,-0.135247505,120.4019951,31.50795438,12.73182363
1571106977,120.4019946,31.50794635,725.7083433,-0.68831281,2.342494909,178.8511668,-20.93828805,-0.306832154,-0.124265488,21.3771738,1.786840852,0.211306297,4.548825556,-2.586266683,2.630327637,3.561843226,0.114102037,-0.14762956,21.90418693,1.792584076,0.140522513,-0.68831281,-2.342494909,6.488344702,3.717663171,-0.144818462,-0.142519153,120.401995,31.50795109,12.73678208
1571106977,120.4019942,31.50794367,724.2988671,-0.725252606,2.318384384,178.7130286,-21.23544223,-0.342930063,-0.0996645,21.71792625,1.811613911,0.215501906,4.479978039,-2.58972232,2.666321044,3.596950085,0.092509182,-0.143373067,22.20341086,1.784295147,0.115921525,-0.725252606,-2.318384384,6.626482976,3.779032174,-0.148826426,-0.138677794,120.401995,31.50794801,12.74097879
1571106978,120.4019941,31.5079392,724.4936728,-0.771228421,2.248788076,178.6667221,-21.73106894,-0.352429527,-0.103062824,22.0645457,1.838644689,0.220451752,4.536070434,-2.58796186,2.692522448,3.600658836,0.092069119,-0.166336383,22.69777092,1.820958549,0.119319849,-0.771228421,-2.248788076,6.672789403,3.812500352,-0.171615981,-0.110400682,120.4019949,31.50794487,12.74592979
1571106978,120.401994,31.50793543,724.6999376,-0.781705969,2.110860946,178.6330741,-22.14908073,-0.36192899,-0.106661378,22.41883578,1.866499144,0.224113103,4.579547832,-2.457914326,2.719612359,3.557920581,0.092306725,-0.148386945,23.11485286,1.850399323,0.122918404,-0.781705969,-2.110860946,6.706437434,3.774827671,-0.174226512,-0.11950631,120.4019948,31.50794167,12.74959233
1571106978,120.4019939,31.50793237,724.7744221,-0.782126512,2.110709582,178.6101455,-22.48836881,-0.369528559,-0.107960187,22.77039322,1.895329947,0.229603277,4.669516733,-2.44008367,2.743607331,3.521830378,0.111324074,-0.107995646,23.45337588,1.874405937,0.124217212,-0.782126512,-2.110709582,6.729366021,3.737989426,-0.170218984,-0.129293737,120.4019948,31.50793849,12.7550837
1571106978,120.4019938,31.50792934,724.8202587,-0.829695691,2.178620569,178.5629342,-22.82433054,-0.376178187,-0.108758988,23.11668913,1.926345213,0.236835139,4.670096654,-2.536094929,2.77504168,3.500576718,0.120217817,-0.079511928,23.78849858,1.899048829,0.125016013,-0.829695691,-2.178620569,6.776577299,3.72544728,-0.159694418,-0.135545602,120.4019948,31.50793535,12.76231677
1571106978,120.4019938,31.50792562,724.8317179,-0.890740718,2.395397771,178.5142462,-23.23679839,-0.383777762,-0.108957492,23.47377115,1.957354913,0.247379693,4.646182176,-2.705046914,2.791742723,3.55307359,0.120216278,-0.067139824,24.19988384,1.929865344,0.125214518,-0.890740718,-2.395397771,6.825265294,3.775082566,-0.162882787,-0.158068212,120.4019948,31.50793212,12.77286258
1571106978,120.4019937,31.50792219,724.8890137,-0.926932757,2.486257355,178.4896808,-23.6171115,-0.39042739,-0.10995609,23.8288902,1.988076882,0.257520642,4.65009356,-2.828931194,2.795097716,3.570786086,0.112759048,-0.127044537,24.57916547,1.958635452,0.126213115,-0.926932757,-2.486257355,6.849830785,3.81141186,-0.179144314,-0.153097612,120.4019947,31.5079289,12.7830048
1571106978,120.4019936,31.50791872,724.9806869,-0.962231117,2.496996716,178.4544395,-24.00185975,-0.398026963,-0.111554647,24.19397222,2.017945482,0.263118632,4.662774175,-2.860430961,2.805153292,3.608520469,0.121150116,-0.142598016,24.9629514,1.986872459,0.127811673,-0.962231117,-2.496996716,6.885072036,3.853742899,-0.1709673,-0.157536249,120.4019947,31.5079256,12.78860412
1571106978,120.4019935,31.50791523,725.0494418,-1.020628547,2.51886913,178.4185872,-24.38882557,-0.404676595,-0.112753172,24.55719794,2.049441321,0.269367006,4.637904784,-2.88276742,2.831230833,3.63680362,0.138705314,-0.133683992,25.34885688,2.016261646,0.129010197,-1.020628547,-2.51886913,6.920924291,3.882369455,-0.162672325,-0.159798433,120.4019947,31.50792231,12.79485384
1571106978,120.4019935,31.50791134,725.1353855,-1.068156495,2.563695598,178.3712788,-24.82014276,-0.411326228,-0.114251502,24.91744936,2.081303638,0.275099743,4.584859392,-2.934713901,2.853194188,3.663070636,0.133154159,-0.140079766,25.77892128,2.049778048,0.130508527,-1.068156495,-2.563695598,6.96823278,3.938318136,-0.176706542,-0.162242347,120.4019946,31.50791905,12.80058793
1571106978,120.4019934,31.50790792,725.7312616,-1.127754718,2.527296342,178.2442297,-25.19934712,-0.422725585,-0.124650009,25.29051002,2.113773306,0.281151122,4.546305635,-2.9686388,2.886953733,3.725388095,0.132153596,-0.160554944,26.15754098,2.073715861,0.140907034,-1.127754718,-2.527296342,7.095281826,4.0152104,-0.187617969,-0.147613273,120.4019946,31.50791567,12.80664074
1571106979,120.4019933,31.50790463,725.9260673,-1.138820156,2.469575561,178.221637,-25.56413726,-0.428425273,-0.12804855,25.66336108,2.14635143,0.286144265,4.573189385,-2.929019185,2.915700032,3.752336132,0.127350338,-0.167195819,26.5212786,2.101987262,0.144305575,-1.138820156,-2.469575561,7.117874539,4.057836183,-0.192399715,-0.136922169,120.4019946,31.5079123,12.81163532
1571106979,120.4019932,31.50790058,726.1896279,-1.150156624,2.400165516,178.1762454,-26.01319502,-0.436024851,-0.132646727,26.04353469,2.179417779,0.290586393,4.561452113,-2.88762777,2.957047461,3.797853943,0.132655768,-0.160332318,26.96909499,2.136208729,0.148903752,-1.150156624,-2.400165516,7.163266122,4.103377759,-0.199040303,-0.137283308,120.4019946,31.50790886,12.81607895
1571106979,120.4019931,31.50789685,726.3901631,-1.173849306,2.387886627,178.1300318,-26.42677168,-0.442674484,-0.136145018,26.41951725,2.212991363,0.296919376,4.590024243,-2.887633145,3.011739988,3.82377588,0.14781764,-0.150985816,27.38149583,2.168074246,0.152402043,-1.173849306,-2.387886627,7.209479724,4.14496303,-0.184624378,-0.143631267,120.4019946,31.50790545,12.82241343
1571106979,120.4019931,31.50789309,726.5735096,-1.220224279,2.37532915,178.0948172,-26.84367469,-0.448374176,-0.139343271,26.80435188,2.248751946,0.303678912,4.547070011,-2.893328527,3.045408817,3.861907575,0.146130593,-0.153238518,27.7971202,2.201195123,0.155600296,-1.220224279,-2.37532915,7.244694355,4.186316664,-0.18124406,-0.143115466,120.4019946,31.50790196,12.82917453
1571106979,120.401993,31.50788891,726.7912335,-1.278323647,2.350840735,178.0365836,-27.30714665,-0.454073868,-0.143141295,27.1958101,2.283241622,0.310524356,4.526474994,-2.885146003,3.074959002,3.900866709,0.147176115,-0.154101142,28.25911144,2.238649577,0.15939832,-1.278323647,-2.350840735,7.302927986,4.235808721,-0.207301898,-0.146827006,120.4019945,31.50789842,12.83602159
1571106979,120.401993,31.50788545,726.9459322,-1.278820075,2.339004976,178.0023244,-27.69078612,-0.459773556,-0.145839635,27.58776093,2.318566183,0.315736299,4.53007899,-2.875001933,3.100075956,3.927621639,0.130055747,-0.16261176,28.64161661,2.268675045,0.16209666,-1.278820075,-2.339004976,7.337187093,4.263015739,-0.208818316,-0.150101087,120.4019945,31.50789487,12.84123517
1571106979,120.4019929,31.50788159,727.1006308,-1.290566906,2.315504636,177.9679686,-28.11877697,-0.466423194,-0.148537754,27.97705977,2.352985779,0.320911893,4.494669579,-2.867338172,3.116669332,3.940065517,0.134872236,-0.159371499,29.0683691,2.301881902,0.164794779,-1.290566906,-2.315504636,7.371542893,4.281947187,-0.206556002,-0.148307092,120.4019945,31.50789135,12.84641241
1571106979,120.4019928,31.50787811,727.2495998,-1.315042383,2.34898623,177.9212498,-28.50463401,-0.471172936,-0.151136035,28.36790375,2.390027021,0.328682082,4.508183278,-2.922830826,3.141711865,3.946929095,0.164020571,-0.13193417,29.45299381,2.333059555,0.16739306,-1.315042383,-2.34898623,7.41826172,4.296550739,-0.202090957,-0.149497699,120.4019945,31.50788781,12.85418428
1571106979,120.4019928,31.50787421,727.4444054,-1.37429189,2.393043151,177.8734522,-28.93706,-0.474972738,-0.154534078,28.76369036,2.425457371,0.33767453,4.46101007,-2.944663797,3.16566688,3.95805009,0.150184102,-0.138715894,29.883897,2.369516603,0.170791104,-1.37429189,-2.393043151,7.466059375,4.319221407,-0.193427671,-0.151056437,120.4019945,31.50788422,12.86317846
1571106979,120.4019929,31.50787013,727.4959716,-1.456223578,2.355773479,177.7576073,-29.3894441,-0.462623469,-0.155432003,29.15746812,2.461156599,0.346377799,4.422480457,-2.977741193,3.18555722,3.974884356,0.147380623,-0.155290356,30.33316892,2.423909894,0.171689028,-1.456223578,-2.355773479,7.581904214,4.367823923,-0.197153799,-0.147515209,120.4019945,31.50788066,12.87188348
1571106980,120.4019929,31.50786578,727.7136956,-1.480080791,2.343150921,177.6999779,-29.8717654,-0.466423273,-0.159229752,29.55268856,2.495687231,0.354783432,4.424613151,-2.99221112,3.224032335,3.982144727,0.139387867,-0.164618486,30.81375091,2.46501006,0.175486778,-1.480080791,-2.343150921,7.639533623,4.393269875,-0.217703933,-0.14890837,120.4019944,31.50787708,12.88029088
1571106980,120.4019928,31.5078622,727.9027717,-1.481006394,2.342577484,177.6541257,-30.26871029,-0.470223075,-0.162527874,29.93808881,2.529693088,0.361360786,4.460153971,-2.982903454,3.272215392,3.969275973,0.140818616,-0.161846137,31.20932696,2.498165336,0.1787849,-1.481006394,-2.342577484,7.685385854,4.401535779,-0.208769185,-0.148174227,120.4019944,31.50787359,12.88686999
1571106980,120.4019928,31.50785862,728.0861182,-1.493163066,2.341912297,177.6195058,-30.66565518,-0.473072928,-0.165725969,30.33078054,2.565558294,0.368183539,4.484352371,-2.999772113,3.311468507,3.973166111,0.144278688,-0.149398882,31.60481461,2.532266438,0.181982995,-1.493163066,-2.341912297,7.72000574,4.412785678,-0.207816657,-0.150305565,120.4019944,31.50787003,12.89369456
1571106980,120.4019928,31.50785383,728.4012449,-1.551383765,2.328522613,177.5611981,-31.19676301,-0.47592279,-0.171223384,30.72264115,2.60245038,0.373904287,4.480005179,-3.004175974,3.352384284,3.970295853,0.147800424,-0.159847616,32.13388303,2.578852362,0.187480409,-1.551383765,-2.328522613,7.778313421,4.434946295,-0.212674403,-0.13219897,120.4019944,31.50786648,12.89941714
1571106980,120.4019928,31.50784982,728.6877238,-1.562757351,2.281825431,177.5157652,-31.64138564,-0.478772646,-0.176221185,31.1282307,2.641052132,0.380977865,4.467747733,-2.973449376,3.406913468,3.977019979,0.135444928,-0.157074035,32.57684154,2.61739022,0.19247821,-1.562757351,-2.281825431,7.823746316,4.436757512,-0.219471106,-0.135687453,120.4019944,31.50786281,12.90649264
1571106980,120.4019927,31.50784581,728.916907,-1.597785207,2.269007426,177.4694089,-32.08600827,-0.481622506,-0.180218956,31.53197588,2.679196309,0.387859591,4.467669198,-2.957130533,3.441720325,3.978044843,0.147114132,-0.159628429,33.01980005,2.655928074,0.196475981,-1.597785207,-2.269007426,7.870102683,4.43761295,-0.206093989,-0.14770607,120.4019944,31.50785915,12.91337631
1571106980,120.4019927,31.5078418,729.0887943,-1.644523823,2.267369776,177.4226702,-32.53063089,-0.482572472,-0.183216693,31.93500972,2.715574039,0.394637546,4.42470271,-2.959588433,3.479827382,3.979010427,0.143972374,-0.165118255,33.46258175,2.696357577,0.199473718,-1.644523823,-2.267369776,7.916841299,4.436472274,-0.21332238,-0.152918878,120.4019944,31.5078555,12.92015622
1571106980,120.4019927,31.5078394,729.1919267,-1.65682486,2.266403012,177.3877993,-32.79673919,-0.483522429,-0.185015325,32.34350586,2.755141697,0.400999183,4.412870705,-2.952231042,3.524839503,3.980801544,0.143846277,-0.163728753,33.72762374,2.720175041,0.201272351,-1.65682486,-2.266403012,7.951712255,4.439206124,-0.212933954,-0.152386922,120.4019944,31.5078518,12.92651988
1571106980,120.4019927,31.50783379,729.4440281,-1.657347752,2.231056381,177.3195405,-33.41876735,-0.487322243,-0.189412083,32.74307343,2.790382143,0.407929074,4.410118366,-2.933307222,3.570754969,3.973305654,0.125453373,-0.158969573,34.34730637,2.77427593,0.205669108,-1.657347752,-2.231056381,8.019971026,4.431757348,-0.236500258,-0.145632012,120.4019944,31.50784818,12.93345177
1571106980,120.4019928,31.5078297,729.5872676,-1.65905114,2.183126135,177.1712288,-33.87226025,-0.470223239,-0.191909682,33.13774763,2.827362468,0.413039788,4.441207953,-2.914321681,3.612488242,3.95005478,0.139478344,-0.153462576,34.79724027,2.833501527,0.208166707,-1.65905114,-2.183126135,8.168282764,4.441244315,-0.223747634,-0.134209468,120.4019944,31.50784461,12.93856448
1571106981,120.4019928,31.50782569,729.8221803,-1.683257038,2.181589494,177.102037,-34.31688288,-0.470223259,-0.196007296,33.53074928,2.864706299,0.420283058,4.451553794,-2.909733028,3.678234856,3.934827974,0.154185533,-0.154642853,35.23993358,2.874876854,0.212264322,-1.683257038,-2.181589494,8.237474588,4.433917868,-0.207565754,-0.134332647,120.4019944,31.50784105,12.94580976
1571106981,120.4019929,31.50782169,730.0227155,-1.718531142,2.156644518,177.02153,-34.76039672,-0.468323386,-0.199504884,33.93502612,2.903059402,0.425405615,4.431877176,-2.884559643,3.744727222,3.928993801,0.154058701,-0.165322066,35.68134611,2.91804065,0.21576191,-1.718531142,-2.156644518,8.317981562,4.423125235,-0.206113411,-0.143292313,120.4019944,31.50783738,12.95093442
1571106981,120.4019929,31.5078177,730.1888733,-1.753976618,2.131482076,176.9295836,-35.20280178,-0.466423515,-0.202402449,34.32471143,2.943106456,0.434037715,4.40633802,-2.884695187,3.81212119,3.910505919,0.147679096,-0.160998168,36.12165467,2.961101263,0.218659474,-1.753976618,-2.131482076,8.409927926,4.411923452,-0.217974079,-0.142824587,120.4019945,31.50783385,12.95956857
1571106981,120.4019929,31.50781372,730.355031,-1.743838106,2.118929104,176.8494417,-35.64409805,-0.46547359,-0.205299989,34.71332398,2.983387772,0.441931531,4.43251112,-2.89250479,3.888455955,3.886487126,0.140598446,-0.153492904,36.56094765,3.003112872,0.221557014,-1.743838106,-2.118929104,8.490069872,4.397858524,-0.22203769,-0.138516839,120.4019945,31.50783033,12.96746445
1571106981,120.4019929,31.50780976,730.5441071,-1.78019943,2.128076354,176.7569612,-36.08317675,-0.46262377,-0.208597511,35.09235512,3.024596227,0.451530567,4.43515258,-2.931164695,3.96035709,3.852269843,0.153843263,-0.134034005,36.9978559,3.046809771,0.224854536,-1.78019943,-2.128076354,8.582550355,4.377134426,-0.212726656,-0.136701966,120.4019946,31.50782689,12.97706552
1571106981,120.401993,31.5078062,730.7159944,-1.805242138,2.149132322,176.6759602,-36.47790407,-0.459773949,-0.211595256,35.47272859,3.06546768,0.461714642,4.439134562,-2.977361749,4.030044508,3.823100688,0.15426317,-0.126020523,37.3906052,3.086379455,0.227852282,-1.805242138,-2.149132322,8.663551381,4.367154527,-0.21709573,-0.133365227,120.4019946,31.50782344,12.98725167
1571106981,120.401993,31.50780187,730.939448,-1.830736499,2.169803277,176.5720369,-36.95800781,-0.455974185,-0.215492482,35.82083447,3.107937003,0.473738059,4.470571683,-3.040411026,4.088696127,3.763096607,0.163195334,-0.128909102,37.86827206,3.134839851,0.231749507,-1.830736499,-2.169803277,8.767474662,4.346831667,-0.215784417,-0.139135526,120.4019947,31.50782028,12.999277
1571106981,120.401993,31.50779835,731.0769579,-1.856386973,2.20202466,176.4904782,-37.34829999,-0.452174419,-0.217890198,36.19254898,3.154978998,0.482619588,4.434441669,-3.122780165,4.134581023,3.727513694,0.163074127,-0.138271685,38.25651707,3.174942636,0.234147224,-1.856386973,-2.20202466,8.849033323,4.326756235,-0.231276382,-0.150924601,120.4019949,31.5078169,13.0081606
1571106981,120.4019931,31.50779405,731.2030086,-1.858465885,2.212051984,176.3986173,-37.82507736,-0.448374654,-0.220087378,36.55300054,3.193197607,0.493996465,4.475932698,-3.168171229,4.209615973,3.696346363,0.155712341,-0.150938897,38.730872,3.223093491,0.236344403,-1.858465885,-2.212051984,8.940894204,4.321584715,-0.220016888,-0.156032789,120.4019949,31.50781363,13.0195395
1571106981,120.4019934,31.50779037,732.8072904,-1.918581788,2.195999582,176.2369549,-38.23311025,-0.41512655,-0.248084939,36.91115227,3.236979572,0.506399781,4.491414544,-3.225937774,4.281622833,3.6607033,0.167687572,-0.137447958,39.13404036,3.294167731,0.264341964,-1.918581788,-2.195999582,9.102556686,4.329709818,-0.203634458,-0.131188363,120.401995,31.50781038,13.03194485
1571106982,120.4019935,31.50778607,733.110958,-1.966895619,2.215909724,176.1440329,-38.70988764,-0.405627106,-0.253382052,37.28349978,3.282545437,0.517131555,4.430635832,-3.2493419,4.352311108,3.636785179,0.162973175,-0.123909072,39.60786491,3.347993535,0.269639077,-1.966895619,-2.215909724,9.195478596,4.310580208,-0.202333553,-0.116564893,120.4019951,31.507807,13.04267876
1571106982,120.4019936,31.50778219,733.4432735,-2.014839609,2.224289219,176.0513092,-39.14009608,-0.398027551,-0.259179415,37.6709974,3.330183461,0.527285642,4.347530113,-3.274096832,4.422829867,3.641575071,0.169400371,-0.136298397,40.03549938,3.395594117,0.27543644,-2.014839609,-2.224289219,9.288202293,4.29777928,-0.219153701,-0.120867929,120.4019952,31.50780348,13.05283509
1571106982,120.4019937,31.50777831,733.7297524,-2.017179454,2.233965777,175.9590411,-39.57030453,-0.390427998,-0.264176751,38.06706443,3.375673799,0.53482876,4.301460867,-3.256877622,4.496866804,3.653705547,0.168497573,-0.139009648,40.46313385,3.443194698,0.280433777,-2.017179454,-2.233965777,9.380470416,4.292014148,-0.211888406,-0.122825512,120.4019953,31.50779988,13.06038053
1571106982,120.4019938,31.50777444,734.0334201,-2.075150199,2.195800047,175.8554981,-39.99940419,-0.380928549,-0.269474065,38.44984472,3.424080946,0.541880721,4.173134287,-3.232266048,4.57212964,3.650962186,0.17728765,-0.151296956,40.88948755,3.492583749,0.28573109,-2.075150199,-2.195800047,9.484013411,4.278491008,-0.204728641,-0.123207549,120.4019955,31.5077964,13.06743476
1571106982,120.4019939,31.50777058,734.2683328,-2.076845156,2.194203761,175.7638522,-40.42739505,-0.3714291,-0.273571356,38.82012873,3.471384515,0.548816317,4.121061418,-3.237227654,4.643758367,3.634603492,0.165357521,-0.155049838,41.31473727,3.54186962,0.289828381,-2.076845156,-2.194203761,9.575659326,4.261282812,-0.217892895,-0.136931438,120.4019956,31.50779304,13.07437257
1571106982,120.401994,31.50776674,734.4745976,-2.090858528,2.203205826,175.6598905,-40.85316835,-0.361929649,-0.277168634,39.19414601,3.519096725,0.555589006,4.068579137,-3.25671916,4.713932755,3.623382495,0.168079891,-0.149810594,41.73777904,3.59094913,0.293425659,-2.090858528,-2.203205826,9.679620996,4.253128525,-0.227042519,-0.130266399,120.4019957,31.50778964,13.08114752
1571106982,120.4019941,31.50776328,734.7152399,-2.044739775,2.157733909,175.5814032,-41.23680783,-0.353380143,-0.281366155,39.55455211,3.565649753,0.56012846,4.161425965,-3.200542402,4.789074125,3.593121121,0.18082718,-0.169991184,42.11895823,3.635161964,0.297623181,-2.044739775,-2.157733909,9.758108358,4.255387304,-0.232212443,-0.116754647,120.4019959,31.50778637,13.08568918
1571106982,120.4019942,31.50775906,735.0360962,-2.055867562,2.074354084,175.4223318,-41.70471495,-0.341980798,-0.286963101,39.93143893,3.616630613,0.564280915,4.131824368,-3.124404397,4.908982289,3.599417307,0.205592185,-0.159194008,42.5837742,3.690053982,0.303220126,-2.055867562,-2.074354084,9.917179763,4.239228116,-0.2046714,-0.115732644,120.401996,31.50778294,13.08984396
1571106982,120.4019943,31.50775563,735.2652793,-2.103806753,2.0584476,175.2838457,-42.08502809,-0.328681557,-0.290960594,40.30609927,3.669645925,0.572166959,3.979885591,-3.123109222,5.045195287,3.588922308,0.202997948,-0.122924321,42.96119948,3.738686399,0.307217619,-2.103806753,-2.0584476,10.05566582,4.210546657,-0.198566889,-0.112471503,120.4019962,31.50777953,13.09773234
1571106982,120.4019946,31.50775132,736.1075273,-2.189622245,2.085116738,175.0522457,-42.56291433,-0.303033012,-0.305657411,40.67870895,3.723724615,0.582416427,3.87364391,-3.164123912,5.165857801,3.573879453,0.218574942,-0.124794075,43.43462528,3.808694415,0.321914436,-2.189622245,-2.085116738,10.28726587,4.222414697,-0.195533759,-0.104339837,120.4019964,31.50777614,13.10798415
1571106983,120.4019948,31.50774751,736.3997358,-2.182182541,2.105380906,174.880216,-42.98536129,-0.287833875,-0.310754567,41.06247809,3.778971539,0.59031174,3.728437732,-3.173026758,5.312436875,3.592535157,0.227859116,-0.16048564,43.85382474,3.863139341,0.327011593,-2.182182541,-2.105380906,10.45929551,4.224483096,-0.219541215,-0.121120582,120.4019966,31.50777265,13.1158819
1571106983,120.4019949,31.50774369,736.6289189,-2.172270659,2.04426468,174.6520146,-43.40891702,-0.270734846,-0.314751689,41.43770912,3.836038467,0.595646599,3.634571542,-3.102697266,5.503803355,3.592528116,0.238906299,-0.18346488,44.27395138,3.919579093,0.331008714,-2.172270659,-2.04426468,10.68749697,4.229450087,-0.20896417,-0.116845022,120.4019969,31.50776923,13.12121917
1571106983,120.4019952,31.50773988,736.8638316,-2.173751688,1.982446768,174.4121666,-43.83136396,-0.250785971,-0.318848788,41.81894125,3.895803922,0.597625113,3.522223096,-2.995147655,5.726652574,3.596857768,0.254744513,-0.164166928,44.69270884,3.978753146,0.335105814,-2.173751688,-1.982446768,10.9273449,4.207296437,-0.187998996,-0.114321532,120.4019971,31.50776576,13.12320015
1571106983,120.4019954,31.5077361,737.0815555,-2.258406006,1.973395517,174.1469927,-44.25048456,-0.22703731,-0.322645884,42.19609214,3.956771258,0.602505554,3.367979194,-2.969356297,5.965975767,3.592132655,0.283825222,-0.135109641,45.10780078,4.041400954,0.338902909,-2.258406006,-1.973395517,11.19251882,4.19051923,-0.174869599,-0.110240228,120.4019974,31.50776232,13.12808306
1571106983,120.4019956,31.50773308,737.2878204,-2.298091019,1.989736878,173.9049952,-44.58533752,-0.206138484,-0.326243542,42.57457989,4.021702494,0.609151407,3.205669581,-2.935205455,6.219501557,3.591353804,0.297230955,-0.134907138,45.43925596,4.093369583,0.342500568,-2.298091019,-1.989736878,11.43451629,4.192439702,-0.18082952,-0.099049475,120.4019977,31.50775886,13.13473142
1571106983,120.4019959,31.50772967,737.6258655,-2.288925997,1.926818011,173.5961194,-44.9634331,-0.183339766,-0.332140879,42.96057903,4.090448628,0.611608597,3.002784793,-2.794819081,6.551609582,3.612631025,0.29019044,-0.136945687,45.8135893,4.151253896,0.348397904,-2.288925997,-1.926818011,11.74339218,4.193279702,-0.212400326,-0.080678701,120.401998,31.50775534,13.13719119
1571106983,120.4019962,31.50772553,738.0040176,-2.178176625,1.867928059,173.1743464,-45.42246996,-0.153891416,-0.338737614,43.34522068,4.16272551,0.61670116,2.921314317,-2.73524591,6.901255304,3.622258642,0.309115669,-0.134435935,46.26789391,4.223291158,0.35499464,-2.178176625,-1.867928059,12.16516516,4.176225043,-0.208270413,-0.100364441,120.4019984,31.50775183,13.14228635
1571106983,120.4019966,31.5077214,738.1587162,-2.153596881,1.895561819,172.7037337,-45.880398,-0.117793434,-0.341434324,43.73016397,4.241656123,0.61784115,2.751450797,-2.675812541,7.29977269,3.616346228,0.377894128,-0.135240898,46.72047572,4.301846015,0.357691349,-2.153596881,-1.895561819,12.63577786,4.154832842,-0.163805897,-0.132550883,120.4019989,31.5077483,13.14342896
1571106983,120.401997,31.5077173,738.2446599,-2.200080408,1.916351062,172.1162028,-46.33499968,-0.075045822,-0.342931025,44.11663094,4.331085431,0.619980488,2.581138216,-2.695853802,7.7843413,3.627529162,0.433584018,-0.145169097,47.1691268,4.386712106,0.359188051,-2.200080408,-1.916351062,13.22330877,4.150374028,-0.147282416,-0.121298265,120.4019994,31.50774476,13.14557097
1571106983,120.4019977,31.50771336,739.1957698,-2.298298155,1.839601097,171.4496593,-46.77186093,-0.008549525,-0.359527826,44.50894749,4.427500114,0.619522774,2.407388356,-2.657798736,8.359388685,3.657021664,0.446908186,-0.15516655,47.59790444,4.493572954,0.375784851,-2.298298155,-1.839601097,13.88985228,4.180612882,-0.137820973,-0.087143318,120.402,31.50774115,13.14511599
1571106984,120.4019982,31.50770962,739.5166262,-2.28121387,1.771221305,170.7963238,-47.18654639,0.041797675,-0.365124758,44.89966187,4.529296787,0.61988626,2.360554286,-2.58237217,8.990335784,3.669910238,0.482063386,-0.156646286,48.00610531,4.582291164,0.381381783,-2.28121387,-1.771221305,14.54318774,4.170985132,-0.148473933,-0.079527864,120.4020007,31.50773756,13.14548223
1571106984,120.4019988,31.50770589,739.8088347,-2.264792389,1.701274585,170.0507218,-47.60012308,0.095944668,-0.370221673,45.29385352,4.638606957,0.619187681,2.271558559,-2.481672217,9.694939084,3.67608056,0.51762243,-0.153778338,48.41284862,4.674689497,0.386478698,-2.264792389,-1.701274585,15.28878978,4.162616747,-0.139350938,-0.083087677,120.4020015,31.50773393,13.14478647
1571106984,120.4019995,31.50770217,740.0265586,-2.21226339,1.610668151,169.2469035,-48.01259096,0.157691243,-0.374018568,45.68741558,4.757090532,0.615264388,2.194274892,-2.326441375,10.48310925,3.703958043,0.544719346,-0.170086092,48.81778075,4.774551255,0.390275593,-2.21226339,-1.610668151,16.09260805,4.160185743,-0.130442529,-0.091971674,120.4020023,31.50773029,13.14086601
1571106984,120.4020001,31.50769885,740.1583389,-2.220759581,1.572822289,168.4650692,-48.38070746,0.218487873,-0.376315773,46.08805428,4.884197677,0.612772041,1.95935483,-2.251463693,11.32536269,3.731057511,0.569325322,-0.139936064,49.17864233,4.869339974,0.392572798,-2.220759581,-1.572822289,16.87444237,4.146420577,-0.111806785,-0.090441637,120.4020033,31.50772659,13.13837659
1571106984,120.402001,31.50769481,740.387522,-2.271932038,1.584418773,167.4957908,-48.82865645,0.301133302,-0.380312342,46.46573184,5.017564322,0.615093351,1.737597097,-2.216364035,12.18992089,3.714082564,0.591435785,-0.089608609,49.61695681,4.993311674,0.396569368,-2.271932038,-1.584418773,17.84372069,4.117035069,-0.104398263,-0.072657072,120.4020043,31.50772309,13.14070069
1571106984,120.4020018,31.50769118,740.6682713,-2.310327029,1.690586533,166.6044951,-49.23114528,0.382828788,-0.385209231,46.83600679,5.156884867,0.621061256,1.509271081,-2.257299058,13.05337922,3.712280606,0.581910113,-0.054216244,50.01009679,5.112107157,0.401466256,-2.310327029,-1.690586533,18.73501643,4.107905629,-0.102293493,-0.07450633,120.4020054,31.50771964,13.14667136
1571106984,120.4020027,31.50768792,740.9261024,-2.381875934,1.782433751,165.8039064,-49.59260908,0.461674434,-0.389706415,47.21376351,5.30172708,0.627985298,1.317606883,-2.379835771,13.93904824,3.73927538,0.56937929,-0.078837939,50.36265496,5.224247491,0.40596344,-2.381875934,-1.782433751,19.53560514,4.113121277,-0.107544424,-0.089223402,120.4020066,31.50771613,13.15359825
1571106984,120.4020036,31.5076843,741.1495559,-2.404724767,1.832031877,164.9124002,-49.99398912,0.554769302,-0.393603261,47.57836507,5.451646043,0.631495605,1.243474602,-2.407894649,14.81809672,3.724431194,0.589821267,-0.108673925,50.75363017,5.35428971,0.409860287,-2.404724767,-1.832031877,20.4271113,4.112795617,-0.115346119,-0.101963272,120.4020078,31.50771273,13.15711134
1571106984,120.4020048,31.50768034,741.2985249,-2.365108706,1.911639866,163.9175591,-50.43306783,0.662113389,-0.396199781,47.94393646,5.606008038,0.632292527,1.31046325,-2.432332499,15.70555383,3.714048567,0.55998063,-0.111200935,51.18081446,5.502027451,0.412456806,-2.365108706,-1.911639866,21.42195242,4.0969662,-0.129697937,-0.1296994,120.402009,31.50770932,13.15791109
1571106984,120.4020059,31.50767658,740.1239614,-2.326330249,1.993004711,162.9779209,-50.84997065,0.773257271,-0.375696446,48.31580583,5.766793013,0.631123461,1.250045238,-2.520892941,16.58741787,3.737953012,0.556543478,-0.122955679,51.5855655,5.651484872,0.391953471,-2.326330249,-1.993004711,22.36159069,4.121086106,-0.122476354,-0.119159644,120.4020104,31.50770584,13.15674492
1571106985,120.4020071,31.507673,740.3932516,-2.371957745,2.01609873,162.0606824,-51.24691555,0.887251007,-0.380393241,48.67879029,5.932239997,0.62643336,1.187498211,-2.52718853,17.47604324,3.734735513,0.59087852,-0.139805142,51.97018003,5.801922553,0.396650266,-2.371957745,-2.01609873,23.27882917,4.137770485,-0.085318808,-0.082118028,120.4020117,31.50770245,13.15205768
1571106985,120.4020084,31.50766942,740.8344291,-2.452164401,1.893420078,161.1441324,-51.64386048,1.008844333,-0.388090007,49.04431939,6.108101695,0.621048303,0.888605678,-2.345570801,18.38242997,3.742829982,0.595567896,-0.158134869,52.35408738,5.959926849,0.404347033,-2.452164401,-1.893420078,24.19537912,4.144747717,-0.087989155,-0.062798468,120.4020132,31.50769902,13.14667553
1571106985,120.4020096,31.50766623,741.1782038,-2.499115421,1.800139924,160.3199587,-51.99756279,1.123788029,-0.394087103,49.39509947,6.287289861,0.617175909,0.712528055,-2.206609405,19.28813096,3.731641391,0.578964705,-0.142073054,52.69555855,6.107286333,0.410344129,-2.499115421,-1.800139924,25.01955282,4.128929482,-0.096852911,-0.077035225,120.4020147,31.50769572,13.14280597
1571106985,120.402011,31.50766271,741.4474939,-2.477464217,1.775102087,159.4124129,-52.38785498,1.254880849,-0.398783873,49.74187891,6.469881946,0.613952935,0.423753241,-2.142521206,20.19338922,3.725628903,0.559399651,-0.123773408,53.07195803,6.274129817,0.415040898,-2.477464217,-1.775102087,25.92709868,4.104284968,-0.117419166,-0.089936413,120.4020163,31.50769245,13.13958583
1571106985,120.4020123,31.50765957,741.6881362,-2.415618896,1.794598987,158.5855338,-52.73601336,1.377424144,-0.402980967,50.08822313,6.656068174,0.610107879,0.235022155,-2.060286256,21.0982812,3.708514815,0.570872586,-0.101148689,53.40720213,6.428540019,0.419237992,-2.415618896,-1.794598987,26.75397776,4.095023019,-0.119511407,-0.078685131,120.4020179,31.50768918,13.13574362
1571106985,120.4020138,31.5076561,741.9975334,-2.391741819,1.817557352,157.6524214,-53.12076163,1.518966406,-0.408377729,50.43063865,6.851159658,0.611242503,0.05786476,-2.080993281,22.01959416,3.709885801,0.57327375,-0.096346841,53.77710935,6.605271701,0.424634754,-2.391741819,-1.817557352,27.68709011,4.090048477,-0.099187022,-0.077067263,120.4020196,31.50768594,13.1368811
1571106985,120.4020157,31.50765198,742.4215222,-2.404391601,1.772090324,156.5538813,-53.5775809,1.700406498,-0.415773847,50.77215668,7.049068341,0.602635836,-0.180756696,-1.973971043,22.93697665,3.723466366,0.57101242,-0.128055881,54.21506207,6.828434815,0.432030873,-2.404391601,-1.772090324,28.78563028,4.093116054,-0.075779281,-0.073151976,120.4020214,31.50768271,13.12827731
1571106985,120.4020174,31.50764859,742.6908124,-2.467553561,1.706658186,155.6168111,-53.95345888,1.858097894,-0.420470622,51.08986848,7.244712835,0.592032748,-0.284984896,-1.815253256,23.85542623,3.682200566,0.599849254,-0.128060324,54.5746347,7.020420112,0.436727647,-2.467553561,-1.706658186,29.72270044,4.077149263,-0.07650215,-0.089041548,120.4020231,31.50767969,13.11767693
