time,ins1000_lat,ins1000_lon,ins1000_alt,ins1000_roll,ins1000_pitch,ins1000_yaw,ins1000_ned_x,ins1000_ned_y,ins1000_ned_z,algo_pose_x,algo_pose_y,algo_pose_z,algo_roll,algo_pitch,algo_yaw,algo_vel_x,algo_vel_y,algo_vel_z,align_pose_x,align_pose_y,align_pose_z,align_roll,align_pitch,align_yaw,align_roll_by_manual,align_pitch_by_manual,align_yaw_by_manual,align_vel_x,align_vel_y,align_vel_z,algo_lat,algo_lon,algo_alt
1571105542,31.50827824,120.4020036,714.9138185,1.294664873,1.085194233,-177.6382363,0,0,0,1.218751485,0.028462261,0.011860313,2.532090806,-1.727375089,-0.073997987,1.368686057,0.032142107,-0.024972095,1.218751485,0.028462261,0.011860313,1.294664873,-1.085194233,1.931354296,1.094664873,-1.785194233,-0.073997987,1.291047149,-0.003234259,-0.005680651,31.50827824,120.4020036,12.47760001
1571105543,31.50827651,120.4020035,715.0570579,1.284138398,1.119550558,-177.6150357,-0.191819733,-0.008549472,-0.002499996,1.265715724,0.027646004,0.015214243,2.562063432,-2.081892013,-0.098515997,1.383858806,0.021680519,-0.048620518,1.410673002,0.034296202,0.014360309,1.284138398,-1.119550558,1.908153644,1.084138398,-1.819550558,-0.097198639,1.460677214,-0.005539276,-0.009519681,31.50827782,120.4020036,12.48095394
1571105543,31.5082747,120.4020035,715.1945678,1.273495286,1.142328922,-177.5805139,-0.392509745,-0.017098946,-0.004899987,1.493266117,0.030226088,0.012871597,2.52800698,-2.051360311,-0.132381791,1.60427887,0.034394614,-0.045705966,1.611439908,0.04079416,0.016760301,1.273495286,-1.142328922,1.873631821,1.073495286,-1.842328922,-0.131720462,1.625299733,-0.00718768,-0.013048208,31.50827577,120.4020034,12.4786113
1571105543,31.50827256,120.4020033,715.3492664,1.284793493,1.118794109,-177.5462929,-0.629789648,-0.029448182,-0.007599968,1.731319981,0.030346604,0.013356914,2.498581968,-2.00881058,-0.173311104,1.682949697,0.004562025,-0.067052186,1.848978486,0.046242099,0.019460281,1.284793493,-1.118794109,1.83941081,1.084793493,-1.818794109,-0.165941473,1.759645353,-0.011604078,-0.014404009,31.50827363,120.4020032,12.47909663
1571105543,31.50827045,120.4020032,715.5383424,1.317841795,1.037339463,-177.5010779,-0.863743197,-0.040847481,-0.010899941,1.96584354,0.031693042,0.013311791,2.6223629,-2.091658962,-0.224088488,1.81947699,0.017240193,-0.077169373,2.083128932,0.052388302,0.022760254,1.317841795,-1.037339463,1.794195874,1.117841795,-1.737339463,-0.211156409,1.847646468,-0.009210761,-0.011042721,31.50827152,120.4020031,12.47905153
1571105543,31.50826823,120.4020031,715.6815819,1.295281711,1.049167273,-177.4896913,-1.109893377,-0.052246778,-0.013399903,2.213514354,0.036244375,0.017091434,2.518522096,-2.082974396,-0.227818113,1.924382571,0.041741164,-0.057975381,2.329441787,0.059447533,0.025260217,1.295281711,-1.049167273,1.782809263,1.095281711,-1.749167273,-0.22254302,1.94264081,-0.005036251,-0.013862571,31.50826929,120.4020029,12.4828312
1571105543,31.5082657,120.402003,715.8362805,1.261370613,1.06112693,-177.466956,-1.390415879,-0.06459602,-0.016099848,2.469943462,0.040671323,0.020833274,2.520262513,-2.162195167,-0.243403531,2.020637502,0.035657891,-0.06019598,2.610101631,0.068132562,0.027960161,1.261370613,-1.06112693,1.760073967,1.061370613,-1.76112693,-0.245278316,2.073269467,-0.001498347,-0.019370122,31.50826698,120.4020028,12.48657309
1571105543,31.50826318,120.4020028,715.9451425,1.252046103,1.141221748,-177.4429965,-1.669829596,-0.078845144,-0.01799978,2.734434053,0.045121483,0.026013577,2.513057869,-2.263848449,-0.265475977,2.178029423,0.042851626,-0.056290995,2.889798025,0.074840036,0.029860093,1.252046103,-1.141221748,1.736114477,1.052046103,-1.841221748,-0.269237806,2.239941577,-0.01531847,-0.029190486,31.5082646,120.4020026,12.49175345
1571105544,31.5082603,120.4020026,713.3840211,1.285983398,1.152663715,-177.5000722,-1.989159545,-0.100693802,0.026700313,3.043957005,0.049394039,0.026636584,2.478850179,-2.267491079,-0.284032607,2.325236435,0.032074921,-0.096068476,3.209867543,0.076957388,-0.01484,1.285983398,-1.152663715,1.793190192,1.085983398,-1.852663715,-0.212162091,2.38506807,-0.012752563,-0.03010656,31.50826181,120.4020024,12.49237654
1571105544,31.5082572,120.4020024,713.5043423,1.26187958,1.084042381,-177.466699,-2.332882766,-0.117792752,0.02460043,3.353037612,0.05587612,0.024177183,2.400476189,-2.183853333,-0.327166519,2.44553214,0.054262511,-0.086156164,3.553906332,0.085637175,-0.012740116,1.26187958,-1.084042381,1.759816945,1.06187958,-1.784042381,-0.245535338,2.522240304,-0.015561721,-0.038091626,31.50825903,120.4020022,12.48991723
1571105544,31.50825416,120.4020022,713.5272606,1.240588286,1.141476191,-177.4431079,-2.669953279,-0.134891705,0.024200562,3.691126821,0.062392925,0.025088729,2.279646179,-2.198961157,-0.346511095,2.611329609,0.050257253,-0.092281482,3.89131108,0.093818944,-0.012340249,1.240588286,-1.141476191,1.736225832,1.040588286,-1.841476191,-0.269126451,2.685616147,-0.015816154,-0.052180918,31.50825598,120.402002,12.4908289
1571105544,31.50825092,120.402002,713.5845564,1.229053025,1.118335656,-177.3976392,-3.029199485,-0.152940601,0.023200723,4.053158648,0.067384786,0.024273438,2.234997779,-2.158635204,-0.386410357,2.749243141,0.065697277,-0.101833666,4.250900409,0.102713484,-0.01134041,1.229053025,-1.118335656,1.690757206,1.029053025,-1.818335656,-0.314595077,2.831348561,-0.012982613,-0.038798461,31.50825272,120.4020018,12.49001376
1571105544,31.50824754,120.4020018,713.7106071,1.228316635,1.095662922,-177.4208052,-3.403968673,-0.171939442,0.021000915,4.442804312,0.07426066,0.023809926,2.138963512,-2.084360678,-0.367452235,2.877619807,0.075155595,-0.093686461,4.626040278,0.11182278,-0.009140602,1.228316635,-1.095662922,1.713923197,1.028316635,-1.795662922,-0.291429086,2.946174485,-0.022652494,-0.042768185,31.50824921,120.4020016,12.48955044
1571105544,31.50824374,120.4020016,713.7621733,1.217486304,1.11871388,-177.409206,-3.825306814,-0.193788106,0.020101156,4.841474282,0.080799058,0.022954183,2.067305231,-2.085801202,-0.374952923,3.004816485,0.064530889,-0.110862423,5.047831769,0.121576351,-0.008240843,1.217486304,-1.11871388,1.702323928,1.017486304,-1.81871388,-0.303028355,3.077711595,-0.014381695,-0.056907416,31.50824562,120.4020013,12.48869491
1571105544,31.50824007,120.4020014,713.8137395,1.194157386,1.096199308,-177.3982105,-4.232230756,-0.213736891,0.019201414,5.261391203,0.087442536,0.022122077,1.979941231,-2.066047701,-0.386382267,3.113528959,0.07709397,-0.119637789,5.45510728,0.132145438,-0.007341101,1.194157386,-1.096199308,1.691328454,0.994157386,-1.796199308,-0.314023829,3.187215441,-0.0223251,-0.04772892,31.50824184,120.4020011,12.48786306
1571105544,31.50823647,120.402001,715.544072,1.228899474,1.10675858,-177.3863071,-4.631393226,-0.246034921,-0.010998306,5.707252763,0.094731492,0.018198247,1.94076923,-1.962134024,-0.392067646,3.212653605,0.072254452,-0.130987219,5.855567551,0.129818916,0.02285862,1.228899474,-1.10675858,1.679425058,1.028899474,-1.80675858,-0.325927225,3.247971173,-0.025941243,-0.033793623,31.50823783,120.4020008,12.48393952
1571105545,31.50823233,120.4020008,715.7847143,1.238882873,1.03763745,-177.3755002,-5.090430048,-0.269783478,-0.015197956,6.160679061,0.101799486,0.013544025,1.846853852,-1.862349344,-0.40483001,3.289774214,0.075438642,-0.140058463,6.315094167,0.140500009,0.027058269,1.238882873,-1.03763745,1.668618193,1.038882873,-1.73763745,-0.33673409,3.304955129,-0.029241261,-0.019925899,31.50823374,120.4020005,12.47928564
1571105545,31.50822847,120.4020005,716.1055707,1.257207726,0.854276201,-177.4119793,-5.518420901,-0.293532035,-0.020797597,6.60773188,0.109566646,0.008156255,1.782552851,-1.696444734,-0.370018832,3.271610635,0.068515273,-0.14512834,6.743661927,0.148857033,0.03265791,1.257207726,-0.854276201,1.705097286,1.057207726,-1.554276201,-0.300254997,3.28242111,-0.028850329,-0.005307806,31.50822972,120.4020002,12.47389823
1571105545,31.50822466,120.4020003,716.3634017,1.268064083,0.831229345,-177.4236102,-5.940867832,-0.315380711,-0.025297213,7.018945731,0.116065572,0.011424598,1.701230159,-1.702328779,-0.364422603,3.22330326,0.08204601,-0.070917483,7.166559097,0.158693595,0.037157527,1.268064083,-0.831229345,1.716728154,1.068064083,-1.531229345,-0.288624129,3.237285466,-0.019705532,-0.013332512,31.50822602,120.402,12.47716694
1571105545,31.50822058,120.4020001,716.6155031,1.23490257,0.889406019,-177.4346806,-6.393251946,-0.338179332,-0.029696774,7.390942875,0.122543122,0.017490463,1.549959046,-1.815433657,-0.365944761,3.163027631,0.074601197,-0.085702282,7.619380562,0.169823944,0.041557087,1.23490257,-0.889406019,1.727798599,1.03490257,-1.589406019,-0.277553684,3.230890935,-0.015723595,-0.0142175,31.50822267,120.4019998,12.48323316
1571105545,31.50821679,120.4019999,716.8676045,1.18950372,0.913459472,-177.4462402,-6.813481309,-0.35907807,-0.034096336,7.804484184,0.128601442,0.019421929,1.355615405,-1.82645406,-0.350330902,3.140056338,0.078605633,-0.105790117,8.039995274,0.180441774,0.045956649,1.18950372,-0.913459472,1.739358123,0.98950372,-1.613459472,-0.26599416,3.22607798,-0.013168216,-0.018863915,31.50821894,120.4019995,12.48516504
1571105545,31.50821301,120.4019996,717.0394919,1.155534067,0.94904829,-177.4919801,-7.232601885,-0.379976808,-0.037095872,8.220603875,0.134244891,0.020260075,1.25966957,-1.904731237,-0.321376692,3.17302971,0.066064503,-0.072413912,8.459504311,0.190976601,0.048956185,1.155534067,-0.94904829,1.785098044,0.955534067,-1.64904829,-0.220254239,3.251825187,-0.023689244,-0.038096135,31.5082152,120.4019992,12.48600363
1571105545,31.50820885,120.4019994,717.1655426,1.136567185,1.144661325,-177.5245687,-7.693856274,-0.403725376,-0.039295328,8.607864947,0.141218647,0.018443195,1.152379788,-1.992851857,-0.280516411,3.217395631,0.05851779,-0.098231211,8.921242274,0.201823688,0.051155641,1.136567185,-1.144661325,1.817686663,0.936567185,-1.844661325,-0.18766562,3.348054973,-0.028545359,-0.036431694,31.50821171,120.401999,12.48418718
1571105546,31.50820545,120.4019989,716.6212327,1.14956129,1.107681214,-177.2954036,-8.070843019,-0.452172438,-0.029794856,8.999709599,0.146696585,-0.007528021,1.117055696,-1.621016674,-0.263090564,3.173174647,0.068967451,-0.136832368,9.300797941,0.181733394,0.041655169,1.14956129,-1.107681214,1.588521513,0.94956129,-1.807681214,-0.41683077,3.312683016,-0.031645072,-0.015110176,31.50820818,120.4019987,12.45821644
1571105546,31.50820158,120.4019986,716.9249003,1.147560792,1.027597599,-177.3076823,-8.499942659,-0.47592101,-0.035094296,9.400330215,0.153919711,-0.032491661,1.084517198,-1.284413439,-0.254445984,3.15501438,0.053551068,-0.087521866,9.730471376,0.190173406,0.046954609,1.147560792,-1.027597599,1.60080023,0.947560792,-1.727597599,-0.404552053,3.315640079,-0.022837443,-0.032717211,31.50820457,120.4019985,12.4332533
1571105546,31.50819733,120.4019984,717.0967877,1.105552311,1.200736992,-177.3293035,-8.971176109,-0.50061953,-0.038093647,9.82105291,0.160081203,-0.045819091,0.966092948,-1.278511914,-0.219451716,3.263563949,0.07427826,-0.094648176,10.20223151,0.200820228,0.04995396,1.105552311,-1.200736992,1.622421457,0.905552311,-1.900736992,-0.382930826,3.416352628,-0.010734818,-0.036798479,31.50820079,120.4019982,12.41992643
1571105546,31.50819328,120.4019981,717.4119144,1.036452108,1.202635046,-177.3643832,-9.420233873,-0.522468224,-0.043592994,10.27738178,0.171193391,-0.074119954,0.735731817,-0.971244188,-0.176615753,3.347649724,0.06421977,-0.110799863,10.65166485,0.212648831,0.055453308,1.036452108,-1.202635046,1.657501156,0.836452108,-1.902635046,-0.347851127,3.519411706,-0.016082739,-0.032988635,31.50819667,120.401998,12.3916262
1571105546,31.50818909,120.4019979,717.6812046,1.036861309,1.225650198,-177.3756284,-9.88481462,-0.547166745,-0.048292286,10.77769066,0.18475963,-0.113443863,0.591816274,-0.560146648,-0.158131016,3.499476563,0.077722305,-0.12599856,11.11679095,0.222797638,0.060152599,1.036861309,-1.225650198,1.668746317,0.836861309,-1.925650198,-0.336605966,3.629425623,-0.032474528,-0.039861546,31.50819217,120.4019977,12.35230303
1571105546,31.50818478,120.4019976,717.9619539,1.036216301,1.202836771,-177.3872993,-10.36270078,-0.573765156,-0.053191523,11.25848961,0.19597296,-0.142650289,0.517762754,-0.31660085,-0.1487146,3.592836869,0.064695383,-0.127100986,11.59532736,0.232047915,0.065051836,1.036216301,-1.202836771,1.680417268,0.836216301,-1.902836771,-0.324935015,3.726362808,-0.024229196,-0.042501751,31.50818783,120.4019975,12.32309734
1571105546,31.50818036,120.4019973,718.2255145,1.048079074,1.225592889,-177.3984245,-10.85278357,-0.599413626,-0.057790702,11.74668968,0.207930953,-0.173624691,0.528561441,-0.102379147,-0.139512847,3.71289231,0.095194544,-0.11368157,12.08595506,0.243158495,0.069651015,1.048079074,-1.225592889,1.691542417,0.848079074,-1.925592889,-0.313809866,3.833912806,-0.025889028,-0.048649389,31.50818343,120.4019972,12.29212373
1571105546,31.50817575,120.4019973,715.5211537,0.990811628,1.331776967,-177.5931512,-11.36393318,-0.604163365,-0.010589807,12.24243794,0.221332765,-0.199959516,0.480058704,0.035004036,-0.097912306,3.799259357,0.083568688,-0.111088197,12.59602601,0.276686206,0.02245012,0.990811628,-1.331776967,1.886269181,0.790811628,-2.031776967,-0.119083102,3.919802957,-0.027824926,-0.053044514,31.50817897,120.401997,12.26578974
1571105547,31.50817073,120.401997,715.8076326,1.003101902,1.377470517,-177.604066,-11.92054305,-0.631711726,-0.015588785,12.74710106,0.234241744,-0.223212114,0.474210918,0.099681032,-0.093026577,3.917987099,0.089558501,-0.106095695,13.15313634,0.290882372,0.027449098,1.003101902,-1.377470517,1.897183995,0.803101902,-2.077470517,-0.108168288,4.046709633,-0.029586779,-0.065490323,31.50817442,120.4019967,12.24253804
1571105547,31.50816591,120.4019967,716.0138974,1.004023483,1.43496123,-177.6264666,-12.45497722,-0.657360208,-0.019187756,13.23925909,0.245196855,-0.249237675,0.405512032,0.205982469,-0.070988293,3.98506771,0.09551041,-0.126287413,13.68799098,0.305313037,0.03104807,1.004023483,-1.43496123,1.919584551,0.804023483,-2.13496123,-0.085767732,4.166361448,-0.028749769,-0.073665568,31.50816999,120.4019964,12.21651339
1571105547,31.50816096,120.4019964,716.2430805,0.98185761,1.493016224,-177.66062,-13.00382559,-0.68300869,-0.023186655,13.77610668,0.259511206,-0.275462531,0.31522954,0.266533703,-0.029333345,4.113347749,0.121690626,-0.11223424,14.23721937,0.320822734,0.035046968,0.98185761,-1.493016224,1.953738008,0.78185761,-2.193016224,-0.051614275,4.285258911,-0.017770229,-0.081688168,31.50816515,120.4019962,12.19028958
1571105547,31.50815547,120.4019961,716.5009115,0.936506392,1.563249163,-177.7293848,-13.61254833,-0.710557068,-0.027685376,14.32002643,0.278636755,-0.293333878,0.206651714,0.192212172,0.034765337,4.216525697,0.120055551,-0.133521453,14.84629636,0.338919999,0.039545689,0.936506392,-1.563249163,2.022502734,0.736506392,-2.263249163,0.017150451,4.427148518,-0.026450946,-0.082784349,31.50816024,120.4019959,12.17241933
1571105547,31.5081502,120.4019959,716.8045792,0.924133487,1.540823389,-177.7641089,-14.19687781,-0.737155503,-0.032984093,14.89681133,0.29723398,-0.311477602,0.264155921,0.151197089,0.062095332,4.342660376,0.123216947,-0.1425432,15.43097742,0.356138486,0.044844406,0.924133487,-1.540823389,2.057226827,0.724133487,-2.240823389,0.051874544,4.559325022,-0.029174569,-0.077064116,31.50815504,120.4019957,12.15427682
1571105547,31.5081448,120.4019956,717.1655426,0.912131117,1.552947011,-177.8214655,-14.79562149,-0.76375394,-0.039282725,15.49519824,0.31842388,-0.330432856,0.259455072,0.147871312,0.116536601,4.466830782,0.127258069,-0.127566137,16.03003224,0.374436004,0.051143039,0.912131117,-1.552947011,2.114583438,0.712131117,-2.252947011,0.109231155,4.668924277,-0.028862003,-0.07761026,31.50814965,120.4019954,12.13532288
1571105547,31.50813882,120.4019953,717.5436947,0.876367382,1.554360444,-177.9250672,-15.45867468,-0.791302332,-0.045881143,16.09637758,0.344888408,-0.358374251,0.045199699,0.278897042,0.199115291,4.572236823,0.167049315,-0.132630915,16.69328723,0.396600375,0.057741456,0.876367382,-1.554360444,2.218185124,0.676367382,-2.254360444,0.212832841,4.797905331,-0.029491471,-0.085335481,31.50814422,120.4019952,12.10738287
1571105548,31.50813292,120.4019952,717.3374299,0.850705122,1.567801293,-178.1430406,-16.11285757,-0.79795198,-0.042279515,16.70181671,0.375395673,-0.386504869,-0.167286795,0.403524675,0.323977783,4.665976483,0.202958671,-0.138092526,17.34613235,0.43894083,0.054139828,0.850705122,-1.567801293,2.436158609,0.650705122,-2.267801293,0.430806326,4.902482029,-0.014963372,-0.090052875,31.50813876,120.4019951,12.0792537
1571105548,31.5081271,120.401995,717.675475,0.813758269,1.581319034,-178.3384357,-16.7581702,-0.818850775,-0.048177845,17.32865541,0.411658052,-0.404899957,-0.180272123,0.337639187,0.51186161,4.776637118,0.218880625,-0.144320823,17.99119879,0.4664081,0.060038158,0.813758269,-1.581319034,2.631553622,0.613758269,-2.281319034,0.626201339,5.016074803,-0.001347227,-0.092247501,31.5081331,120.401995,12.06086017
1571105548,31.50812069,120.4019948,718.1109229,0.649298363,1.504600811,-178.5588673,-17.46890113,-0.836899746,-0.055775926,17.97689948,0.451530876,-0.428029305,-0.250564329,0.397643874,0.70674456,4.869348739,0.234515495,-0.145363619,18.70128663,0.501614343,0.06763624,0.649298363,-1.504600811,2.851985297,0.449298363,-2.204600811,0.846633014,5.131424317,0.007374829,-0.078552607,31.50812724,120.4019949,12.03773251
1571105548,31.50811462,120.4019947,718.4833455,0.544246828,1.472035508,-178.6749992,-18.14193339,-0.853048834,-0.062274039,18.64099014,0.489554644,-0.451246283,-0.230929021,0.416923199,0.821938654,4.967479906,0.181690666,-0.14069217,19.37363935,0.535893056,0.074134352,0.544246828,-1.472035508,2.968117185,0.344246828,-2.172035508,0.962764902,5.222148324,-0.012867725,-0.087462599,31.50812124,120.4019947,12.01451731
1571105548,31.50810844,120.4019945,718.8500385,0.509292264,1.461118232,-178.7098767,-18.82716227,-0.872047752,-0.068672042,19.33792248,0.524711115,-0.473586722,-0.099798528,0.392392472,0.83505066,5.083903765,0.15848703,-0.141459397,20.05836781,0.568242961,0.080532355,0.509292264,-1.461118232,3.002994647,0.309292264,-2.161118232,0.997642364,5.314774254,-0.041105851,-0.086285294,31.50811495,120.4019946,11.99217883
1571105548,31.50810216,120.4019942,719.2167315,0.554431445,1.449359637,-178.7551981,-19.523479,-0.892946561,-0.075069937,20.02912343,0.552056762,-0.496129272,0.140979114,0.391094441,0.858983605,5.181422887,0.140122276,-0.157166049,20.75429523,0.599528331,0.086930251,0.554431445,-1.449359637,3.048316092,0.354431445,-2.149359637,1.042963809,5.411001501,-0.056671054,-0.095049281,31.50810871,120.4019943,11.96963829
1571105548,31.50809526,120.401994,719.5375879,0.554124066,1.426581975,-178.7554373,-20.28854037,-0.913845377,-0.080667536,20.74625848,0.580601266,-0.513696677,0.324164463,0.292246813,0.845876259,5.285365839,0.144662217,-0.160489329,21.5187744,0.635959845,0.09252785,0.554124066,-1.426581975,3.048555281,0.354124066,-2.126581975,1.043202998,5.507716823,-0.020663648,-0.092953386,31.50810225,120.401994,11.95207305
1571105548,31.50808828,120.4019941,720.0990865,0.471765817,1.428136319,-178.9283431,-21.06247204,-0.903396071,-0.090465021,21.47901417,0.612774851,-0.525905294,0.362913966,0.132215889,0.90457044,5.36871478,0.178935029,-0.142100129,22.28975229,0.704315543,0.102325334,0.471765817,-1.428136319,3.221461077,0.271765817,-2.128136319,1.216108794,5.584553554,-0.00721067,-0.067448271,31.50809563,120.4019938,11.93986673
1571105549,31.5080817,120.401994,720.6319372,0.42522373,1.497704616,-179.0317996,-21.79205232,-0.917645286,-0.099762557,22.195651,0.645003315,-0.545454833,0.381564824,0.062416724,1.017675981,5.42936324,0.187902239,-0.127864186,23.01835215,0.744721924,0.11162287,0.42522373,-1.497704616,3.324917559,0.22522373,-2.197704616,1.319565276,5.646493464,-0.005864083,-0.077667001,31.50808917,120.4019936,11.92031952
1571105549,31.50807453,120.4019938,721.1705176,0.355995513,1.659133755,-179.1582585,-22.58705089,-0.930944566,-0.109159778,22.87902835,0.669693351,-0.57233886,0.391165847,0.021502053,1.133457077,5.455740793,0.175259846,-0.122123697,23.81211563,0.790972718,0.121020092,0.355995513,-1.659133755,3.451376436,0.155995513,-2.359133755,1.446024153,5.710834528,-0.009120041,-0.100134776,31.508083,120.4019933,11.89343779
1571105549,31.50806778,120.4019937,721.7148275,0.263265536,1.786175833,-179.2853668,-23.33548051,-0.941394014,-0.118657073,23.61481133,0.71061513,-0.594505056,0.451220419,-0.138115044,1.251679423,5.536004185,0.155972508,-0.158211555,24.55922749,0.836579246,0.130517386,0.263265536,-1.786175833,3.578484757,0.063265536,-2.486175833,1.573132474,5.802396863,-0.005689405,-0.100682243,31.50807636,120.4019931,11.87127415
1571105549,31.50806093,120.4019936,722.3393515,0.193662891,1.798157658,-179.3437309,-24.09499798,-0.950893517,-0.129554237,24.3607722,0.749590078,-0.615776872,0.413696862,-0.170691696,1.302116585,5.611581848,0.152856868,-0.197647325,25.31732498,0.883963077,0.14141455,0.193662891,-1.798157658,3.636848885,-0.006337109,-2.498157658,1.631496602,5.886742144,0.006497793,-0.097688459,31.50806962,120.401993,11.85000501
1571105549,31.50805344,120.4019935,723.0899262,0.157894913,1.706721239,-179.4017179,-24.92547768,-0.961342978,-0.14265103,25.16065405,0.794168492,-0.64019986,0.414201047,-0.125718452,1.351380742,5.708804465,0.164548237,-0.201420566,26.1462567,0.935711775,0.154511344,0.157894913,-1.706721239,3.694835896,-0.042105087,-2.406721239,1.689483613,5.96381372,-0.017555672,-0.081811492,31.5080624,120.4019928,11.82558499
1571105549,31.50804642,120.4019934,723.8462305,0.099398976,1.672685351,-179.4713789,-25.7038445,-0.969892545,-0.155847928,25.94642306,0.839500708,-0.660670499,0.294547718,-0.087544007,1.407261759,5.783068626,0.155840301,-0.156702026,26.92307954,0.98545392,0.167708242,0.099398976,-1.672685351,3.764496817,-0.100601024,-2.372685351,1.759144534,6.009806297,0.007921241,-0.069768133,31.5080553,120.4019927,11.80511737
1571105549,31.50803935,120.4019934,724.6197235,-0.026895422,1.742033723,-179.5076189,-26.48775526,-0.975592282,-0.169344706,26.72405069,0.888254497,-0.668384169,0.050591694,-0.246990705,1.426999119,5.820739276,0.181523643,-0.1176908,27.70521742,1.038452912,0.181205019,-0.026895422,-1.742033723,3.800736893,-0.226895422,-2.442033723,1.79538461,6.037755084,0.007022165,-0.082179673,31.50804828,120.4019926,11.79740678
1571105550,31.50803131,120.4019933,722.3966473,-0.165595157,1.925875536,-179.6245945,-27.37921789,-0.978442192,-0.130540926,27.49533987,0.934434189,-0.669289177,-0.143894642,-0.536601314,1.509560324,5.864540319,0.167063333,-0.165244904,28.59439207,1.102344955,0.14240124,-0.165595157,-1.925875536,3.917712432,-0.365595157,-2.625875536,1.912360149,6.101334467,-0.003551542,-0.127027282,31.50804131,120.4019924,11.79650492
1571105550,31.50802412,120.4019933,722.9925234,-0.221645041,1.960400053,-179.5567983,-28.17643404,-0.985091875,-0.140937438,28.29201427,0.972476064,-0.669802611,-0.353908715,-0.738759295,1.44827107,5.928725274,0.089152548,-0.214988237,29.38986913,1.155392694,0.152797751,-0.221645041,-1.960400053,3.849916298,-0.421645041,-2.660400053,1.844564015,6.170749225,0.000417541,-0.124165667,31.50803412,120.4019922,11.79599484
1571105550,31.50801684,120.4019932,723.7373685,-0.300773142,1.857977398,-179.4662465,-28.98362927,-0.992691504,-0.153933806,29.1115589,1.011925424,-0.676907864,-0.490407463,-0.80862727,1.362126821,6.008444326,0.112574126,-0.225618071,30.19536837,1.208240176,0.16579412,-0.300773142,-1.857977398,3.759364435,-0.500773142,-2.557977398,1.754012152,6.235883856,-0.014642286,-0.08970592,31.50802672,120.401992,11.78889314
1571105550,31.50800894,120.4019931,724.654101,-0.357697459,1.686551157,-179.3864144,-29.85956915,-1.003140977,-0.169929748,29.95777742,1.06269663,-0.680569393,-0.597929636,-0.781213138,1.294700966,6.066976379,0.130011969,-0.195311014,31.06963272,1.263391963,0.181790061,-0.357697459,-1.686551157,3.679532345,-0.557697459,-2.386551157,1.674180062,6.266923885,0.010582664,-0.076114139,31.50801908,120.4019918,11.78523539
1571105550,31.50800156,120.401993,725.3130024,-0.471342845,1.653118623,-179.30773,-30.67785222,-1.010740612,-0.181425849,30.76530992,1.106701752,-0.680098132,-0.72789168,-0.920574749,1.207473677,6.114786849,0.131661615,-0.204996524,31.8861887,1.317069463,0.193286162,-0.471342845,-1.653118623,3.600847978,-0.671342845,-2.353118623,1.595495695,6.315953422,0.010575933,-0.104564989,31.50801178,120.4019917,11.78571036
1571105550,31.50799413,120.4019929,725.8630419,-0.585208062,1.642653232,-179.2520199,-31.50167921,-1.020240136,-0.191021815,31.57940359,1.147972371,-0.690795944,-0.777029269,-1.019143716,1.160131474,6.161927242,0.145377454,-0.256734451,32.70841526,1.369267417,0.202882129,-0.585208062,-1.642653232,3.545137906,-0.785208062,-2.342653232,1.539785623,6.37565362,0.009378801,-0.111619021,31.50800443,120.4019915,11.77501639
1571105550,31.50798662,120.4019928,726.3844335,-0.688191799,1.506275571,-179.172459,-32.33437647,-1.029739662,-0.20011763,32.36115331,1.176931179,-0.710740661,-0.83474735,-0.872600236,1.077627988,6.155473186,0.134152528,-0.230365495,33.5394872,1.422129388,0.211977943,-0.688191799,-1.506275571,3.465576948,-0.888191799,-2.206275571,1.460224665,6.416160205,0.017859615,-0.090481364,31.50799738,120.4019911,11.75507547
1571105550,31.50797791,120.4019924,725.4734306,-0.779966433,1.415567484,-179.1272093,-33.30012775,-1.065837641,-0.184212636,33.1534595,1.205952679,-0.75653421,-0.586137581,-0.644987397,1.047692036,6.190683027,0.126233023,-0.216139351,34.50523097,1.458427822,0.196072949,-0.779966433,-1.415567484,3.420327279,-0.979966433,-2.115567484,1.414974996,6.469480461,-0.004024281,-0.090111363,31.50799024,120.4019908,11.70928586
1571105551,31.50797031,120.4019923,725.9661743,-0.847306656,1.451169618,-179.0366278,-34.14280407,-1.079136954,-0.19280816,33.97378923,1.239158536,-0.768124293,-0.661138216,-0.66445222,0.965271462,6.195976894,0.112992703,-0.175073411,35.34653842,1.508247689,0.204668474,-0.847306656,-1.451169618,3.329745751,-1.047306656,-2.151169618,1.324393468,6.495086695,0.003479837,-0.105882032,31.50798284,120.4019905,11.69769995
1571105551,31.50796208,120.4019921,726.4703772,-0.880056796,1.60057784,-179.0037128,-35.05533381,-1.094336163,-0.201603188,34.80200634,1.271841679,-0.764415873,-0.816321271,-0.933408365,0.932394259,6.241672961,0.121662963,-0.184124147,36.25764553,1.561402146,0.213463501,-0.880056796,-1.60057784,3.296830795,-1.080056796,-2.30057784,1.291478512,6.54322571,-0.007132131,-0.110028954,31.50797537,120.4019902,11.70141271
1571105551,31.50795438,120.4019919,726.9974984,-0.913161612,1.635821925,-178.935693,-35.90909798,-1.110485312,-0.210798417,35.61278815,1.292184976,-0.772613442,-0.87654732,-0.995779807,0.88397906,6.263853737,0.112518372,-0.227481791,37.11022306,1.609210199,0.22265873,-0.913161612,-1.635821925,3.228810913,-1.113161612,-2.335821925,1.22345863,6.59946204,0.007076406,-0.117942511,31.50796806,120.4019898,11.69321948
1571105551,31.50794601,120.4019918,727.6048336,-0.981656597,1.61384474,-178.9021012,-36.83715073,-1.126634475,-0.2213931,36.43011809,1.310583046,-0.799582082,-0.813237634,-0.894706579,0.843212396,6.289296977,0.104033981,-0.23285742,38.03688072,1.662579403,0.233253413,-0.981656597,-1.61384474,3.195219204,-1.181656597,-2.31384474,1.189866921,6.653042431,0.013506073,-0.106097183,31.5079607,120.4019893,11.66625532
1571105551,31.50793819,120.4019916,728.2350872,-1.062593637,1.477521677,-178.8561358,-37.70422033,-1.140883743,-0.23238801,37.2698998,1.33162554,-0.831304649,-0.766168774,-0.705392193,0.805669092,6.318457937,0.088116723,-0.227962138,38.90258412,1.713278036,0.244248323,-1.062593637,-1.477521677,3.149253727,-1.262593637,-2.177521677,1.143901444,6.684662429,0.019355362,-0.0864472,31.50795313,120.4019889,11.63453747
1571105551,31.50793035,120.4019915,728.8252337,-1.142330853,1.512830191,-178.8460555,-38.57350749,-1.156082958,-0.24268279,38.13380288,1.361058718,-0.847350725,-0.818828677,-0.66581351,0.782335183,6.342484529,0.116711443,-0.159891537,39.77056998,1.763195392,0.254543103,-1.142330853,-1.512830191,3.13917349,-1.342330853,-2.212830191,1.133821207,6.688885948,0.015814222,-0.095228889,31.50794534,120.4019885,11.61849636
1571105551,31.50792249,120.4019913,729.4554873,-1.174901566,1.66241589,-178.8250984,-39.44501223,-1.172232122,-0.253677435,39.06702445,1.407954943,-0.836624387,-0.92394402,-0.989326819,0.773906419,6.431107757,0.107320521,-0.161835086,40.6408383,1.812331471,0.265537748,-1.174901566,-1.66241589,3.118216393,-1.374901566,-2.36241589,1.11286411,6.708669789,0.024112915,-0.113899929,31.50793692,120.4019883,11.6292282
1571105552,31.50791343,120.4019901,726.1266025,-1.191846789,1.795505852,-179.2622324,-40.44957067,-1.28527569,-0.195571097,39.93737811,1.441658299,-0.844666752,-1.02901488,-1.175293114,0.751075629,6.476147247,0.140174671,-0.220989339,41.6510404,1.774805278,0.20743141,-1.191846789,-1.795505852,3.555350363,-1.391846789,-2.495505852,1.54999808,6.775722867,-0.061541339,-0.154488086,31.50792907,120.401988,11.62119109
1571105552,31.50790545,120.4019899,726.6537237,-1.28400907,1.750132231,-179.2746291,-41.33438081,-1.306174592,-0.204765397,40.77794549,1.470926023,-0.860507518,-1.055505403,-1.145473365,0.76887921,6.482836496,0.131042622,-0.256726348,42.53493235,1.820200973,0.21662571,-1.28400907,-1.750132231,3.567747043,-1.48400907,-2.450132231,1.56239476,6.827803924,-0.06692076,-0.12301387,31.50792149,120.4019876,11.6053555
1571105552,31.5078968,120.4019896,727.3527322,-1.307994236,1.578355716,-179.273035,-42.29347953,-1.329923349,-0.216959079,41.72830157,1.519586746,-0.868084586,-1.15812283,-1.060668062,0.768340616,6.584798637,0.133173107,-0.244922907,43.49311778,1.868315977,0.228819393,-1.307994236,-1.578355716,3.566152914,-1.507994236,-2.278355716,1.560800631,6.864439783,-0.076173283,-0.10758124,31.50791291,120.4019874,11.59778444
1571105552,31.50788876,120.4019894,727.9142308,-1.377531076,1.555325661,-179.3195599,-43.18494238,-1.349872315,-0.226753077,42.57943723,1.554023099,-0.871912905,-1.348053235,-1.096356092,0.819358397,6.581325646,0.143566329,-0.193833641,44.38357266,1.915156957,0.23861339,-1.377531076,-1.555325661,3.612677903,-1.577531076,-2.255325661,1.60732562,6.870057762,-0.07488098,-0.12274879,31.50790523,120.4019871,11.59396161
1571105552,31.50788069,120.4019892,728.3725971,-1.457819341,1.601366538,-179.3441574,-44.07973158,-1.368871341,-0.23474693,43.42951002,1.590655179,-0.869663698,-1.519348282,-1.207400866,0.824169348,6.567183618,0.178181019,-0.194878592,45.27727344,1.96319422,0.246607243,-1.457819341,-1.601366538,3.637275339,-1.657819341,-2.301366538,1.631923056,6.894346529,-0.058483306,-0.134148912,31.50789756,120.4019868,11.59621642
1571105552,31.50787259,120.401989,728.8195041,-1.492661292,1.703823081,-179.4147453,-44.97784713,-1.387870371,-0.242540629,44.32353306,1.630621021,-0.865603717,-1.768247693,-1.355249738,0.880462803,6.608609454,0.146699336,-0.201378447,46.17429124,2.011480486,0.254400943,-1.492661292,-1.703823081,3.707863244,-1.692661292,-2.403823081,1.702510961,6.919912089,-0.065580842,-0.140166397,31.50788949,120.4019865,11.60028241
1571105552,31.50786382,120.4019888,729.3924619,-1.607790924,1.703945748,-179.4508421,-45.95025126,-1.405919471,-0.252533665,45.14748592,1.666250654,-0.879531841,-1.779515224,-1.361072433,0.913719551,6.589883508,0.180973765,-0.215324748,47.14531807,2.066275182,0.264393979,-1.607790924,-1.703945748,3.743960052,-1.807790924,-2.403945748,1.738607769,6.963076128,-0.055467762,-0.13581673,31.50788206,120.4019862,11.58635994
1571105552,31.5078549,120.4019881,727.2553294,-1.648374677,1.640866016,-179.8631462,-46.9392868,-1.478115465,-0.215226419,45.98910541,1.709747174,-0.912278914,-1.650776338,-1.193491477,1.013097205,6.580054733,0.180011866,-0.234969133,48.13698303,2.068319922,0.227086733,-1.648374677,-1.640866016,4.156264205,-1.848374677,-2.340866016,2.150911922,7.014230305,-0.140754684,-0.140712816,31.50787446,120.401986,11.55361875
1571105553,31.50784666,120.4019879,727.7538026,-1.615476414,1.559133799,-179.9646761,-47.85292534,-1.499014404,-0.223919598,46.86801249,1.757719203,-0.943225073,-1.413883794,-1.023335329,1.106164884,6.591022199,0.20186784,-0.231902905,49.04962249,2.115873644,0.235779911,-1.615476414,-1.559133799,4.257794073,-1.815476414,-2.259133799,2.25244179,7.037092876,-0.143175477,-0.129203895,31.50786652,120.4019858,11.52267886
1571105553,31.5078378,120.4019877,728.2809238,-1.630048003,1.475495026,179.7956251,-48.83530852,-1.516113574,-0.233112119,47.74018365,1.817476257,-0.960932479,-1.387186465,-0.923259972,1.315040008,6.550024904,0.250627241,-0.220252512,50.03052926,2.172362626,0.244972432,-1.630048003,-1.475495026,4.497492865,-1.830048003,-2.175495026,2.492140582,7.003057539,-0.118638597,-0.122788574,31.50785864,120.4019857,11.5049778
1571105553,31.50782961,120.4019876,728.6418872,-1.725008056,1.413919155,179.5202572,-49.74340312,-1.525613164,-0.23940507,48.55538487,1.876257224,-0.980715043,-1.359349394,-0.884971664,1.565937219,6.468136343,0.284360577,-0.222065655,50.936787,2.230868699,0.251265384,-1.725008056,-1.413919155,4.772860722,-1.925008056,-2.113919155,2.767508439,6.966424163,-0.106186149,-0.129690536,31.50785127,120.4019857,11.48520127
1571105553,31.50782146,120.4019875,728.9971211,-1.78631578,1.420175476,179.1984931,-50.64706258,-1.531312976,-0.245597929,49.44376346,1.9508223,-1.002340094,-1.355402498,-0.833259679,1.886065895,6.44797686,0.299236854,-0.216130608,51.83833759,2.292831878,0.257458242,-1.78631578,-1.420175476,5.094624869,-1.98631578,-2.120175476,3.089272586,6.934338327,-0.123277734,-0.128605649,31.50784323,120.4019858,11.46358293
1571105553,31.50781272,120.4019875,729.3408957,-1.813125469,1.356959664,178.832422,-51.61614033,-1.53131312,-0.251590128,50.33512709,2.03623378,-1.011672739,-1.44774741,-0.846870604,2.224131627,6.440696191,0.325402841,-0.216160753,52.80469625,2.365375878,0.263450442,-1.813125469,-1.356959664,5.460695913,-2.013125469,-2.056959664,3.45534363,6.899840647,-0.110308265,-0.12598404,31.50783515,120.401986,11.45425714
1571105553,31.50780465,120.4019876,729.6445634,-1.853097477,1.384069469,178.4073374,-52.51092951,-1.525613574,-0.256882797,51.15743043,2.122097788,-1.024060337,-1.49114097,-0.886546697,2.63937457,6.374346365,0.345178422,-0.178272401,53.6965481,2.43804241,0.26874311,-1.853097477,-1.384069469,5.885780524,-2.053097477,-2.084069469,3.880428241,6.863124044,-0.119608302,-0.119837672,31.5078277,120.4019863,11.44187598
1571105553,31.50779662,120.4019877,729.9997972,-1.893886842,1.445292631,177.9816187,-53.40128356,-1.51231446,-0.263075378,51.95157378,2.216982478,-1.034721218,-1.475984667,-0.956692103,3.039129356,6.293277309,0.359378811,-0.195867249,54.58340838,2.517955178,0.274935691,-1.893886842,-1.445292631,6.311499286,-2.093886842,-2.145292631,4.306147003,6.830960693,-0.101378668,-0.135259741,31.50782049,120.4019866,11.43122142
1571105554,31.50778704,120.4019887,734.6636737,-2.05306727,1.420801338,178.048812,-54.46349987,-1.420169833,-0.344466383,52.76148061,2.326249739,-1.063828899,-1.227222826,-0.941169688,3.522408344,6.238030869,0.408627487,-0.212397665,55.6357464,2.689357657,0.356326696,-2.05306727,-1.420801338,6.244305968,-2.25306727,-2.120801338,4.238953685,6.835595775,0.012728486,-0.088117197,31.50781313,120.4019871,11.4021203
1571105554,31.50777904,120.4019891,735.3225751,-2.048399592,1.423025099,177.5214454,-55.35052763,-1.385021939,-0.355958724,53.54617436,2.436943611,-1.100563636,-1.02702539,-0.829950997,4.034669553,6.164335572,0.418558204,-0.218003648,56.51765414,2.790808897,0.367819037,-2.048399592,-1.423025099,6.771672525,-2.248399592,-2.123025099,4.766320242,6.813093804,0.006822485,-0.070919217,31.507806,120.4019877,11.36539202
1571105554,31.50777108,120.4019895,736.0215836,-2.112333261,1.376081267,176.9024686,-56.23312025,-1.339424626,-0.368150983,54.28780653,2.554058075,-1.127929971,-0.93383063,-0.772860018,4.616817516,6.06258529,0.476749286,-0.217743872,57.39435697,2.902348228,0.380011296,-2.112333261,-1.376081267,7.390649363,-2.312333261,-2.076081267,5.38529708,6.779187885,0.011492133,-0.083958897,31.50779925,120.4019883,11.33803188
1571105554,31.50776255,120.4019901,736.6117302,-2.096929875,1.341192079,176.21519,-57.17891359,-1.281478004,-0.378442552,55.05638335,2.682355639,-1.157980316,-0.87333826,-0.710876873,5.23153609,6.005138524,0.470750863,-0.250894725,58.33315871,3.030933356,0.390302865,-2.096929875,-1.341192079,8.077927961,-2.296929875,-2.041192079,6.072575678,6.760891054,0.029686592,-0.07903458,31.50779226,120.4019891,11.30798806
1571105554,31.50775466,120.4019909,737.1904175,-2.158232222,1.223110269,175.5171392,-58.05374471,-1.214031897,-0.38853463,55.84346102,2.824624594,-1.199217407,-0.816184408,-0.586182407,5.900163918,5.960187883,0.521987873,-0.241446946,59.20048623,3.163679157,0.400394943,-2.158232222,-1.223110269,8.77597875,-2.358232222,-1.923110269,6.770626467,6.72661982,0.020406425,-0.060472622,31.50778508,120.4019899,11.26675774
1571105554,31.50774683,120.4019916,737.7748345,-2.165122274,1.198325457,174.8065812,-58.92192313,-1.138036258,-0.398726652,56.62337338,2.975162475,-1.238275377,-0.756126282,-0.475664708,6.589000863,5.91147441,0.515470626,-0.234973213,60.0605397,3.304452488,0.410586965,-2.165122274,-1.198325457,9.486536779,-2.365122274,-1.898325457,7.481184496,6.695084704,0.035548454,-0.072040109,31.50777796,120.4019909,11.2277066
1571105554,31.50773903,120.4019926,738.1873641,-2.251584141,1.145191989,174.0374648,-59.78677517,-1.048741347,-0.405918587,57.49553601,3.158206391,-1.286971841,-0.769996245,-0.381526313,7.337877418,5.948472885,0.570568055,-0.268653504,60.91628055,3.458238765,0.4177789,-2.251584141,-1.145191989,10.25565313,-2.451584141,-1.845191989,8.250300848,6.673897312,0.036170748,-0.086047613,31.50777,120.4019921,11.17901789
1571105554,31.50773004,120.4019934,734.1594708,-2.283361812,1.100370061,172.9934212,-60.78357183,-0.974645573,-0.335609139,58.32234061,3.33957474,-1.349978999,-0.990688517,-0.111093853,8.128820934,5.955799563,0.54334318,-0.252631754,61.9047336,3.606745787,0.347469453,-2.283361812,-1.100370061,11.29969676,-2.483361812,-1.800370061,9.294344477,6.658922647,-0.009113878,-0.080318902,31.50776244,120.4019934,11.1160182
1571105555,31.50772231,120.4019945,734.5032455,-2.216619232,0.996628982,172.1459426,-61.64066236,-0.865401746,-0.341600898,59.15958567,3.543703398,-1.412490531,-0.901230317,0.107032333,8.961600962,5.965862384,0.622294443,-0.260026234,62.75124137,3.779843987,0.353461211,-2.216619232,-0.996628982,12.1471754,-2.416619232,-1.696628982,10.14182312,6.63404664,-0.024161413,-0.088703969,31.50775477,120.4019949,11.05351435
1571105555,31.50771404,120.4019959,734.5891891,-2.15506796,0.959119993,171.1133454,-62.55762721,-0.733359173,-0.343091951,60.0261147,3.756710796,-1.494404838,-1.056449861,0.522148507,9.922360731,5.999779049,0.616461966,-0.254659628,63.65574877,3.980159092,0.354952264,-2.15506796,-0.959119993,13.17977257,-2.35506796,-1.659119993,11.17442028,6.604324532,0.005114779,-0.105446955,31.50774683,120.4019964,10.97160813
1571105555,31.50770641,120.4019974,734.6579441,-2.195185376,0.901918654,170.055649,-63.40362985,-0.591817101,-0.344283579,60.92460265,3.992697554,-1.609445653,-1.160863681,1.026175425,10.99444251,6.069372027,0.662113087,-0.261763382,64.48878194,4.184634885,0.356143893,-2.195185376,-0.901918654,14.23746895,-2.395185376,-1.601918654,12.23211667,6.59274488,0.018460367,-0.089745034,31.50773859,120.4019982,10.85657584
1571105555,31.50769881,120.4019991,734.7152399,-2.154396973,0.723303943,168.8970934,-64.24630612,-0.435075849,-0.345275126,61.8043484,4.246522169,-1.699862972,-1.190824119,1.445945697,12.18434528,6.12504705,0.669293071,-0.260585242,65.3173603,4.404018204,0.357135439,-2.154396973,-0.723303943,15.39602455,-2.354396973,-1.423303943,13.39067227,6.568269356,-0.000357524,-0.087398037,31.50773051,120.4020002,10.76616701
1571105555,31.50769073,120.402001,734.7152399,-2.11157814,0.76198299,167.59541,-65.14220404,-0.247936257,-0.345266012,62.6686499,4.520519163,-1.774882582,-1.220381379,1.575159358,13.4314513,6.143352149,0.670100098,-0.167335066,66.19673537,4.657698684,0.357126325,-2.11157814,-0.76198299,16.69770799,-2.31157814,-1.46198299,14.69235571,6.508807293,0.021352964,-0.075429997,31.50772255,120.4020024,10.69115589
1571105555,31.50768333,120.402003,734.8241018,-2.092504727,0.982746435,166.24097,-65.96270463,-0.05509695,-0.34715755,63.48472778,4.805124697,-1.850643001,-1.415284496,1.628200199,14.8091309,6.139345891,0.706998561,-0.139816027,67.000498,4.911418722,0.359017863,-2.092504727,-0.982746435,18.05214792,-2.292504727,-1.682746435,16.04679564,6.475279252,0.019456407,-0.093525392,31.50771502,120.4020047,10.61540363
1571105555,31.507676,120.4020053,734.8241018,-2.003651282,1.235145152,164.7588186,-66.77544371,0.157691286,-0.347149058,64.29141787,5.115299962,-1.914808151,-1.468848011,1.521553584,16.32117097,6.128662673,0.736873782,-0.176469769,67.79502753,5.184450697,0.359009371,-2.003651282,-1.235145152,19.53429933,-2.203651282,-1.935145152,17.52894704,6.450822605,0.037916031,-0.138343218,31.50770756,120.4020073,10.55124668
1571105556,31.50766788,120.4020078,733.3802482,-2.054773036,1.216224048,163.3224601,-67.67577648,0.399927932,-0.321939519,65.06238586,5.448568325,-1.970004862,-1.856652862,1.54306129,17.94483309,6.125408095,0.770934891,-0.234860612,68.67470051,5.493405625,0.333799833,-2.054773036,-1.216224048,20.9706579,-2.254773036,-1.916224048,18.96530562,6.494990403,0.070092206,-0.090625643,31.5077004,120.4020102,10.49605794
1571105556,31.5076601,120.4020108,733.7125637,-2.008224453,0.997031259,161.5195013,-68.5384109,0.683012368,-0.327730247,65.82142392,5.818710476,-2.018455487,-2.087783561,1.682134346,19.65080734,6.115061315,0.783885696,-0.213693858,69.51372309,5.84027167,0.33959056,-2.008224453,-0.997031259,22.77361661,-2.208224453,-1.697031259,20.76826433,6.462658416,0.074881399,-0.076689172,31.50769332,120.4020135,10.44761532
1571105556,31.507653,120.4020138,733.9245581,-1.944413798,0.98002334,159.7529646,-69.32564794,0.967996738,-0.331421668,66.51093396,6.199252528,-2.05793464,-2.288577293,1.688958595,21.4209558,6.055994333,0.809887035,-0.166096648,70.27741762,6.183388151,0.343281981,-1.944413798,-0.98002334,24.54015331,-2.144413798,-1.68002334,22.53480103,6.421461225,0.069386353,-0.0816364,31.50768686,120.402017,10.40814357
1571105556,31.50764602,120.4020171,734.062068,-1.907849079,0.982510342,157.9346838,-70.09957955,1.278629744,-0.333813122,67.21697507,6.610314955,-2.100222954,-2.27123419,1.617827301,23.25760009,6.038475379,0.845093593,-0.200933786,71.02592401,6.551085269,0.345673435,-1.907849079,-0.982510342,26.3584342,-2.107849079,-1.682510342,24.35308191,6.401104079,0.098797251,-0.103945222,31.50768024,120.4020207,10.36586297
1571105556,31.50763864,120.4020209,734.0162313,-1.931660086,0.92309786,155.8653643,-70.91786247,1.642459883,-0.333003956,67.90270483,7.043729033,-2.156775989,-2.15200611,1.682993437,25.21025909,6.007297868,0.878925937,-0.229180937,71.814675,6.975150349,0.344864269,-1.931660086,-0.92309786,28.42775369,-2.131660086,-1.62309786,26.42240141,6.394910857,0.100155088,-0.099118219,31.50767378,120.4020247,10.30931756
1571105556,31.5076319,120.4020248,734.0792567,-1.89663494,0.771689765,153.8717161,-71.6651832,2.007240011,-0.334095465,68.5603144,7.493425319,-2.216127791,-2.139214802,1.945151784,27.23266503,5.983476626,0.862091863,-0.201152245,72.53259179,7.394850598,0.345955778,-1.89663494,-0.771689765,30.42140186,-2.09663494,-1.471689765,28.41604957,6.381995307,0.113904174,-0.067026789,31.50766756,120.4020289,10.2499732
1571105556,31.50762484,120.4020292,734.1193637,-1.972074962,0.696398072,151.6903692,-72.447985,2.429967028,-0.33478644,69.23278378,7.981567071,-2.268131037,-2.313804706,2.073097852,29.29334301,5.970622868,0.874797076,-0.132358859,73.28155225,7.87499122,0.346646753,-1.972074962,-0.696398072,32.6027488,-2.172074962,-1.396398072,30.59739652,6.328481834,0.144082971,-0.076510343,31.50766118,120.4020335,10.19797771
1571105556,31.50761761,120.4020341,733.9818539,-2.004899321,0.887388965,150.052239,-73.24963607,2.892591935,-0.332377053,69.9046162,8.505224505,-2.301396169,-2.375423097,1.770825738,31.36854305,5.963625418,0.848508755,-0.072841525,74.04632238,8.39632882,0.344237366,-2.004899321,-0.887388965,34.24087893,-2.204899321,-1.587388965,32.23552665,6.317937394,0.154522452,-0.090808574,31.50765478,120.4020385,10.16472048
1571105557,31.50761134,120.4020387,734.0276905,-1.96915733,1.044250474,147.9558656,-73.94484386,3.33336807,-0.333168785,70.54683535,9.041976023,-2.348631994,-2.242584888,1.564795983,33.50285187,5.996025452,0.817528773,-0.181264851,74.70658346,8.88791072,0.345029098,-1.96915733,-1.044250474,36.33725232,-2.16915733,-1.744250474,34.33190004,6.340920181,0.172748951,-0.100601911,31.50764865,120.4020436,10.11749237
1571105557,31.50760523,120.4020437,734.0677975,-2.001050285,1.052423366,145.8882337,-74.62231105,3.802642708,-0.333860602,71.13544647,9.590742291,-2.391667161,-2.239005933,1.53224084,35.58562129,5.984025082,0.829317101,-0.208705282,75.34702037,9.406583119,0.345720915,-2.001050285,-1.052423366,38.40488423,-2.201050285,-1.752423366,36.39953195,6.339255587,0.204755584,-0.097161721,31.50764298,120.4020489,10.07446446
1571105557,31.50759882,120.4020493,734.3943835,-2.003657821,0.886107678,143.6437448,-75.3330418,4.334614007,-0.339551874,71.72238752,10.16230208,-2.43487257,-2.304605296,1.74650781,37.70661334,5.984338036,0.786572942,-0.169774538,76.01593408,9.990266334,0.351412188,-2.003657821,-0.886107678,40.64937312,-2.203657821,-1.586107678,38.64402084,6.330600803,0.149480096,-0.032399971,31.50763732,120.4020544,10.03126642
1571105557,31.50759262,120.4020551,734.726699,-1.897102565,0.841796959,141.4308503,-76.02048803,4.888434183,-0.345343285,72.24591281,10.72960086,-2.46335639,-2.041891359,1.739301864,39.79963798,5.928473576,0.731850162,-0.102534734,76.65999304,10.59399407,0.357203598,-1.897102565,-0.841796959,42.86226761,-2.097102565,-1.541796959,40.85691533,6.273099405,0.161972566,-0.072648058,31.50763223,120.40206,10.00278936
1571105557,31.50758751,120.4020603,734.7954539,-1.911625996,0.944060585,139.5147184,-76.5870767,5.383357565,-0.346536081,72.728418,11.31632241,-2.468043398,-1.842372966,1.364165313,41.8934055,5.866835451,0.797934044,-0.148881774,77.18794249,11.12994299,0.358396395,-1.911625996,-0.944060585,44.77839957,-2.111625996,-1.644060585,42.77304729,6.272514727,0.202890677,-0.08814124,31.50762749,120.4020658,9.998108775
1571105557,31.50758176,120.4020667,734.875668,-2.076449392,0.874279287,137.3092703,-77.22462749,5.98847506,-0.347927825,73.1708063,11.9069639,-2.478726531,-1.79272493,1.244506854,43.9848385,5.770066266,0.779394927,-0.188586344,77.77840593,11.78108899,0.359788138,-2.076449392,-0.874279287,46.98384764,-2.276449392,-1.574279287,44.97849536,6.259821889,0.186791679,-0.067300038,31.50762311,120.4020716,9.987431712
1571105557,31.50757662,120.4020727,735.133499,-1.985718967,0.67033466,135.2873364,-77.79454245,6.561294342,-0.352420308,73.62069317,12.50464519,-2.514417411,-1.582619104,1.388557811,46.04840988,5.639057043,0.679669967,-0.133857789,78.30384114,12.39496425,0.364280622,-1.985718967,-0.67033466,49.00578156,-2.185718967,-1.37033466,47.00042928,6.152842591,0.138863047,-0.01888513,31.50761866,120.4020775,9.951747086
1571105558,31.50757079,120.4020799,736.3252513,-1.930009298,0.804424794,133.4718877,-78.44096363,7.242407894,-0.373211624,74.03982502,13.10042323,-2.53007324,-1.322078781,1.126655583,48.05245786,5.56079207,0.67251217,-0.004851161,78.89746111,13.1225571,0.385071937,-1.930009298,-0.804424794,50.82123026,-2.130009298,-1.504424794,48.81587798,6.110190517,0.203448826,-0.058871399,31.50761449,120.4020835,9.936097243
1571105558,31.50756611,120.4020863,736.4341132,-2.064304939,1.321034567,131.5682657,-78.95987438,7.849425426,-0.375104478,74.42454314,13.71220232,-2.520153357,-1.209325129,0.429548851,50.00410879,5.538390206,0.680598066,-0.081570558,79.36947516,13.76671654,0.386964791,-2.064304939,-1.321034567,52.72485225,-2.264304939,-2.021034567,50.71949997,6.158711981,0.23204579,-0.10832791,31.50761062,120.4020896,9.946022833
1571105558,31.50756155,120.4020929,736.8065358,-2.131544477,1.328056323,129.6340512,-79.46547971,8.478291828,-0.381597369,74.77849341,14.33147252,-2.519915427,-1.135675026,0.084143388,51.98172542,5.538839144,0.64629174,-0.18376754,79.82658556,14.43166751,0.393457682,-2.131544477,-1.328056323,54.65906675,-2.331544477,-2.028056323,52.65371447,6.244272895,0.166601136,-0.075700584,31.50760702,120.4020958,9.946266211
1571105558,31.5075571,120.4020997,737.3508457,-2.080774972,1.252602707,127.8210646,-79.9588884,9.126157263,-0.391090285,75.13146288,14.94762463,-2.536023024,-0.899958733,0.058902661,53.84921148,5.507768894,0.553264185,-0.182672584,80.27011128,15.11465117,0.402950599,-2.080774972,-1.252602707,56.47205331,-2.280774972,-1.952602707,54.46670103,6.275629548,0.150144466,-0.044476891,31.50760343,120.402102,9.930164123
1571105558,31.50755249,120.4021072,737.9868289,-2.022886829,1.169172872,126.0291097,-80.47003756,9.842419093,-0.402182767,75.47017783,15.5414848,-2.560939033,-0.616966269,0.145404813,55.54068227,5.463752905,0.502564236,-0.117675231,80.72620761,15.86716736,0.414043081,-2.022886829,-1.169172872,58.26400823,-2.222886829,-1.869172872,56.25865594,6.294990226,0.171263688,-0.06725791,31.50759998,120.402108,9.905253483
1571105558,31.50754839,120.4021144,738.3535219,-2.219416588,1.241500739,124.5288017,-80.92463864,10.52448277,-0.408575903,75.82249307,16.17528107,-2.583630281,-0.772028584,0.031519957,57.09321705,5.460781628,0.397166572,-0.170189218,81.12847456,16.58134822,0.420436216,-2.219416588,-1.241500739,59.76431624,-2.419416588,-1.941500739,57.75896396,6.32585753,0.177562671,-0.090674231,31.50759638,120.4021143,9.882567935
1571105558,31.50754438,120.4021218,738.6056233,-2.389351666,1.261432965,123.1726651,-81.36926056,11.22364558,-0.412969035,76.18392841,16.85670301,-2.597402124,-1.02669217,-0.126360633,58.48118143,5.539416133,0.317167359,-0.22074143,81.51951035,17.31183319,0.424829348,-2.389351666,-1.261432965,61.12045282,-2.589351666,-1.961432965,59.11510054,6.412218164,0.135411975,-0.095723455,31.50759267,120.4021212,9.868802111
1571105558,31.50753997,120.40213,739.8260234,-2.354074739,1.024402274,121.7929251,-81.85823394,12.00735398,-0.434261326,76.55263024,17.57509379,-2.614277909,-1.095239726,-0.052029529,59.74503247,5.649844804,0.227685415,-0.231398585,81.94844414,18.12994664,0.446121639,-2.354074739,-1.024402274,62.50019291,-2.554074739,-1.724402274,60.49484062,6.498036936,0.05846837,-0.04471715,31.50758887,120.4021285,9.851932627
1571105559,31.50753605,120.4021377,740.3416854,-2.261696751,0.730598283,120.7218638,-82.29287673,12.73691527,-0.443254297,76.91567129,18.29113628,-2.638668505,-1.086657092,0.141189327,60.85639207,5.72535443,0.174827031,-0.231789269,82.32725319,18.88999779,0.455114611,-2.261696751,-0.730598283,63.57125416,-2.461696751,-1.430598283,61.56590187,6.562897883,0.051038803,-0.01748453,31.50758512,120.4021357,9.827548355
1571105559,31.50753194,120.4021461,740.7083784,-2.232007299,0.625021115,119.6820316,-82.74858625,13.53772283,-0.449646729,77.26679513,19.03156168,-2.648128806,-1.098717303,0.086707855,61.85032303,5.793958434,0.161508284,-0.160514714,82.72173643,19.72267232,0.461507042,-2.232007299,-0.625021115,64.61108637,-2.432007299,-1.325021115,62.60573408,6.595460506,0.08094931,-0.040026598,31.50758147,120.4021432,9.818094413
1571105559,31.50752821,120.4021541,740.8057812,-2.306306937,0.727411234,118.8578526,-83.16216189,14.29388278,-0.45133968,77.60755138,19.81739645,-2.63896376,-1.278764258,-0.278966242,62.71004504,5.920175994,0.140660663,-0.157351075,83.0775463,20.50767043,0.463199993,-2.306306937,-0.727411234,65.43526539,-2.506306937,-1.427411234,63.4299131,6.673602277,0.052598051,-0.071070741,31.50757787,120.4021512,9.82726594
1571105559,31.5075245,120.4021622,740.8802657,-2.278017644,0.811453393,118.0543879,-83.57351989,15.06524198,-0.452632509,77.95115781,20.59117013,-2.640435904,-1.329816696,-0.500552311,63.54632484,6.035067102,0.137888369,-0.207739571,83.43000694,21.30765912,0.464492823,-2.278017644,-0.811453393,66.23873006,-2.478017644,-1.511453393,64.23337778,6.783108364,0.023628117,-0.083598144,31.50757426,120.402159,9.825800386
1571105559,31.50752079,120.4021705,741.0464235,-2.223838508,0.766263366,117.3460454,-83.98487782,15.85465027,-0.455525172,78.27720912,21.36615473,-2.64147143,-1.30919738,-0.619012026,64.27563933,6.139946166,0.074019328,-0.20876124,83.78111638,22.12564626,0.467385485,-2.223838508,-0.766263366,66.94707251,-2.423838508,-1.466263366,64.94172023,6.899392187,0.038403255,-0.062330934,31.5075708,120.4021669,9.824771352
1571105559,31.50751682,120.4021797,741.2813362,-2.302275506,0.791121717,116.8456896,-84.42506398,16.7238544,-0.45961712,78.61793318,22.19275589,-2.639715965,-1.456077791,-0.811539826,64.77496354,6.29879521,0.061442981,-0.183545482,84.15499972,23.0253634,0.471477433,-2.302275506,-0.791121717,67.44742839,-2.502275506,-1.491121717,65.44207611,7.026670769,0.019900679,-0.063476851,31.50756718,120.4021753,9.82653378
1571105559,31.50751308,120.4021883,741.4589531,-2.262179491,0.823638008,116.4796271,-84.83974808,17.54651106,-0.462709388,78.96002852,23.03700247,-2.633674282,-1.561463311,-0.97515172,65.1629974,6.448212125,0.007280071,-0.198640471,84.50693706,23.8767546,0.474569701,-2.262179491,-0.823638008,67.81349087,-2.462179491,-1.523638008,65.80813858,7.142483569,-0.026475927,-0.087893587,31.50756353,120.4021839,9.832582632
1571105560,31.50750966,120.4021967,741.9173193,-2.090117881,0.924466261,116.0525534,-85.21895113,18.3416192,-0.470702077,79.32061678,23.9181912,-2.637047999,-1.561169334,-1.135508611,65.42117158,6.629825821,0.036915794,-0.228759955,84.82555516,24.69801852,0.482562391,-2.090117881,-0.924466261,68.24056456,-2.290117881,-1.624466261,66.23521227,7.215521036,-0.029590461,-0.076056794,31.5075597,120.4021929,9.829216578
1571105560,31.5075056,120.4022063,742.3241194,-1.985217242,0.878507064,115.7869249,-85.6691161,19.25642114,-0.477793328,79.68797443,24.81410514,-2.639433692,-1.603281796,-1.193691916,65.66728489,6.800346964,0.077771509,-0.205886902,85.20597591,25.64395252,0.489653642,-1.985217242,-0.878507064,68.50619308,-2.185217242,-1.578507064,66.50084079,7.338350183,-0.031302658,-0.064543916,31.50755579,120.402202,9.826838832
1571105560,31.50750181,120.4022155,742.6736236,-1.906273752,0.938437964,115.5131714,-86.08934388,20.12182573,-0.483884979,80.06002052,25.71349664,-2.642191778,-1.607623973,-1.282765496,65.92815387,6.952917939,0.084592251,-0.209771349,85.56024132,26.53838671,0.495745292,-1.906273752,-0.938437964,68.77994659,-2.106273752,-1.638437964,66.7745943,7.458570147,-0.029910657,-0.081307938,31.50755183,120.4022111,9.824088912
1571105560,31.50749799,120.4022247,742.9429138,-1.855305648,1.022225833,115.2704871,-86.5128979,21.00432948,-0.488576382,80.43524511,26.64132908,-2.649091423,-1.697291737,-1.412309737,66.17975234,7.141653702,0.098831982,-0.240652375,85.91654359,27.45012108,0.500436695,-1.855305648,-1.022225833,69.02263083,-2.055305648,-1.722225833,67.01727855,7.59575587,-0.030397841,-0.094358724,31.50754783,120.4022206,9.817197741
1571105560,31.50749382,120.402235,743.3439842,-1.791665704,0.978625119,115.023851,-86.97525915,21.97517869,-0.4955668,80.8147845,27.61364399,-2.659445719,-1.732528986,-1.453106719,66.40548401,7.339038994,0.143932158,-0.281468855,86.30493076,28.45285809,0.507427113,-1.791665704,-0.978625119,69.26926693,-1.991665704,-1.678625119,67.26391465,7.771149464,-0.034356158,-0.081852521,31.50754376,120.4022305,9.806852321
1571105560,31.5074899,120.4022447,743.6533815,-1.735522779,0.822480514,114.8675969,-87.40990077,22.89853045,-0.500957591,81.19373406,28.58550506,-2.670471897,-1.782305988,-1.322926599,66.56857919,7.517925082,0.126507633,-0.294742933,86.66923169,29.40615587,0.512817904,-1.735522779,-0.822480514,69.42552106,-1.935522779,-1.522480514,67.42016878,7.91729088,-0.046106864,-0.081690885,31.5075397,120.4022404,9.795835179
1571105560,31.50748592,120.4022546,743.9226716,-1.655476305,0.736083085,114.7199883,-87.85119498,23.83708149,-0.505648069,81.5766791,29.56938131,-2.679702817,-1.768568705,-1.280693579,66.70857637,7.681198665,0.159596509,-0.246882193,87.03902874,30.37510828,0.517508382,-1.655476305,-0.736083085,69.57312965,-1.855476305,-1.436083085,67.56777737,8.044931114,-0.055412475,-0.066785068,31.50753559,120.4022504,9.786613573
1571105560,31.50748174,120.4022657,739.7057022,-1.56497578,0.887779769,114.5435888,-88.31466341,24.89627594,-0.4320376,81.96071814,30.55964192,-2.681790226,-1.701290274,-1.371723354,66.83283284,7.830059975,0.171831142,-0.205871822,87.42190656,31.46602553,0.443897913,-1.56497578,-0.887779769,69.74952915,-1.76497578,-1.587779769,67.74417687,8.149437021,-0.015344649,-0.134253074,31.50753147,120.4022605,9.784535699
1571105561,31.50747772,120.402276,739.6713248,-1.529111662,1.018743989,114.4023271,-88.76039241,25.86997527,-0.431427516,82.34775466,31.57255835,-2.685123279,-1.694992481,-1.547504244,66.9753691,8.007550394,0.192105054,-0.285690804,87.7934948,32.47035959,0.44328783,-1.529111662,-1.018743989,69.8907909,-1.729111662,-1.718743989,67.88543861,8.325063557,-0.025210903,-0.147563976,31.5075273,120.4022708,9.781212508
1571105561,31.50747362,120.4022864,739.7801868,-1.406352701,0.974624146,114.3275375,-89.21499158,26.8626737,-0.433317049,82.7437538,32.6028436,-2.693312187,-1.612360082,-1.498366165,67.04742791,8.15911645,0.195329479,-0.283732907,88.17250606,33.49430346,0.445177362,-1.406352701,-0.974624146,69.96558047,-1.606352701,-1.674624146,67.96022819,8.472079242,-0.032323643,-0.118252438,31.50752305,120.4022813,9.773033849
1571105561,31.50746914,120.4022979,739.9921811,-1.334238711,0.965986142,114.2297717,-89.71172424,27.95131724,-0.43700538,83.14329802,33.63254935,-2.698637698,-1.56412092,-1.491842833,67.12913245,8.296667,0.202717423,-0.237233962,88.58635023,34.61707729,0.448865694,-1.334238711,-0.965986142,70.06334631,-1.534238711,-1.665986142,68.05799403,8.599475249,-0.022516655,-0.127153939,31.50751876,120.4022918,9.76771882
1571105561,31.50746495,120.4023087,740.089584,-1.295400326,1.072502114,114.1366391,-90.17630217,28.97726412,-0.438694228,83.54811695,34.67520838,-2.703485547,-1.535267609,-1.590142686,67.2112205,8.428668483,0.228790434,-0.267420104,88.97282332,35.67492332,0.450554541,-1.295400326,-1.072502114,70.15647889,-1.495400326,-1.772502114,68.15112661,8.742793291,-0.024005479,-0.151251853,31.50751441,120.4023025,9.762881782
1571105561,31.50746069,120.4023197,740.2328234,-1.233293443,1.01672686,114.0551862,-90.64864146,30.02316005,-0.441182672,83.95885393,35.72908747,-2.713594399,-1.455596779,-1.505923436,67.28198186,8.554579971,0.224705317,-0.305278441,89.36554261,36.75324343,0.453042986,-1.233293443,-1.01672686,70.23793179,-1.433293443,-1.71672686,68.2325795,8.894045367,-0.037606182,-0.133379786,31.50751001,120.4023132,9.75278408
1571105561,31.50745603,120.4023317,740.4276291,-1.143090414,0.89732755,113.9903955,-91.16533173,31.16880095,-0.444569789,84.37792357,36.81828116,-2.727212172,-1.393042142,-1.389067019,67.32480033,8.70883383,0.216736879,-0.297041977,89.79502164,37.9343487,0.456430102,-1.143090414,-0.89732755,70.30272242,-1.343090414,-1.59732755,68.29737014,9.044855909,-0.040364479,-0.117791625,31.5075055,120.4023243,9.739177968
1571105561,31.50745167,120.4023431,740.5193023,-1.104987962,0.921891055,113.9491399,-91.64875852,32.24699541,-0.446157478,84.79646957,37.88174947,-2.741973795,-1.371390857,-1.39528009,67.35874402,8.808449782,0.235875171,-0.271160244,90.1963795,39.04570671,0.458017791,-1.104987962,-0.921891055,70.34397809,-1.304987962,-1.621891055,68.3386258,9.151378494,-0.029700256,-0.151860214,31.50750102,120.4023351,9.724428061
