time,ins1000_lon,ins1000_lat,ins1000_alt,ins1000_roll,ins1000_pitch,ins1000_yaw,ins1000_ned_x,ins1000_ned_y,ins1000_ned_z,algo_pose_x,algo_pose_y,algo_pose_z,algo_roll,algo_pitch,algo_yaw,algo_vel_x,algo_vel_y,algo_vel_z,align_pose_x,align_pose_y,align_pose_z,align_roll,align_pitch,align_yaw,align_vel_x,align_vel_y,align_vel_z,algo_lon,algo_lat,algo_alt
1571103792,120.4017507,31.50769096,729.9711493,-0.810586738,-0.464869824,7.319657441,0,0,0,1.040842725,-0.008329299,0.042759955,0.357175304,-3.291287328,-0.62203919,1.243045144,-0.010370459,-0.040790147,1.040842725,-0.008329299,0.042759955,-0.810586738,0.464869824,-6.695391818,1.774533723,0.004817269,-0.023137392,120.4017507,31.50769096,12.74040001
1571103792,120.401751,31.50769326,729.7534253,-0.755222925,-0.490818839,7.411091029,0.255020443,0.034198102,0.003800005,1.321850707,-0.013492471,0.048770357,0.352059799,-3.318895569,-0.707752384,1.412521371,-0.016346533,-0.031777888,1.296220629,-0.039746854,0.03895995,-0.755222925,0.490818839,-6.786825407,1.892300697,-0.032666661,-0.011221926,120.4017508,31.50769349,12.74641041
1571103792,120.4017514,31.50769551,729.5013239,-0.617683055,-0.487746527,7.502713127,0.504496963,0.072195992,0.00820002,1.523998404,-0.018755505,0.061429822,0.415622821,-3.669551121,-0.777765487,1.486541024,-0.048796781,-0.045195017,1.546096339,-0.075024373,0.034559935,-0.617683055,0.487746527,-6.878447504,1.995820982,-0.024104923,-0.022072148,120.4017508,31.50769532,12.75906989
1571103793,120.4017502,31.50769969,727.816828,-0.642212699,-0.679132464,5.747501575,0.967968894,-0.04844731,0.037600074,1.856826483,-0.025206306,0.069318836,0.489219071,-3.576200293,-0.910288005,1.679750747,0.000259391,-0.058148746,2.008226319,0.050661422,0.005159882,-0.642212699,0.679132464,-5.123235953,2.092847717,0.066076561,-0.006854198,120.401751,31.50769832,12.76695894
1571103793,120.4017504,31.50770219,727.6277519,-0.876145158,-0.758708821,5.818165557,1.245165025,-0.031348258,0.040900122,2.117837204,-0.023749333,0.086246832,0.203075305,-3.835157819,-0.983774797,1.763472142,0.04219146,-0.053108473,2.285592295,0.036583513,0.001859833,-0.876145158,0.758708821,-5.193899934,2.155546064,0.087346827,0.007479871,120.401751,31.50770067,12.78388697
1571103793,120.4017506,31.50770474,727.3985688,-1.082077763,-0.736100275,5.88856959,1.52790508,-0.012349314,0.044900183,2.419699322,-0.02222815,0.105114387,-0.090029191,-3.998856785,-1.049928433,1.859216387,0.015726765,-0.024033052,2.568522566,0.020666228,-0.002140227,-1.082077763,0.736100275,-5.264303967,2.214406334,0.060213983,-0.006916253,120.401751,31.50770339,12.80275459
1571103793,120.4017508,31.50770759,727.0719829,-1.14888715,-0.685907597,5.98005128,1.843908669,0.014249208,0.050600268,2.74381803,-0.024896844,0.122540165,-0.181547242,-4.114479055,-1.145014099,1.99822323,0.01357937,-0.046970859,2.884797197,-0.002487769,-0.007840312,-1.14888715,0.685907597,-5.355785658,2.308938179,0.026304858,-0.017336902,120.401751,31.50770632,12.82018044
1571103793,120.4017512,31.50771034,726.7740448,-0.973991013,-0.625636508,6.047154189,2.148824413,0.046547409,0.055800364,3.086637973,-0.028241553,0.141501105,-0.121525284,-4.248655095,-1.218866611,2.143967846,-0.022242807,-0.050542243,3.190046741,-0.031461913,-0.013040409,-0.973991013,0.625636508,-5.422888567,2.403929695,-0.027907854,-0.013928218,120.4017511,31.50770941,12.83914149
1571103793,120.4017516,31.5077132,726.4474589,-0.7814289,-0.657901786,6.172809372,2.465936787,0.083595344,0.061500481,3.325054602,-0.037895547,0.158703454,0.107693543,-4.461960089,-1.318364186,2.17541694,-0.039981509,-0.083871192,3.50754394,-0.065052623,-0.018740525,-0.7814289,0.657901786,-5.548543749,2.504070702,-0.008216544,-0.023763336,120.4017513,31.50771156,12.85634392
1571103793,120.401752,31.5077164,725.9776335,-0.652925827,-0.606975339,6.263322356,2.820747832,0.121593223,0.069700628,3.706773673,-0.043043884,0.166033074,0.303062813,-4.344966204,-1.436161321,2.324032859,0.010955487,-0.075417606,3.862747922,-0.099182482,-0.026940672,-0.652925827,0.606975339,-5.639056733,2.615147319,0.021288636,-0.026457007,120.4017514,31.507715,12.86367368
1571103794,120.4017506,31.50772104,725.5249968,-0.678716291,-0.806811973,5.152141393,3.335223848,-0.011399365,0.077600876,4.00943788,-0.047450533,0.184070978,0.319263445,-4.468391574,-1.478419374,2.42390841,0.003074324,-0.113337583,4.375744411,0.03940757,-0.034840921,-0.678716291,0.806811973,-4.527875771,2.709268212,0.059654927,-0.013346315,120.4017514,31.50771773,12.88171172
1571103794,120.4017508,31.50772427,725.101008,-0.612829677,-0.855174698,5.254969343,3.693361245,0.014249205,0.085001073,4.341118332,-0.055115084,0.194012338,0.445220584,-4.411481711,-1.586144724,2.505618199,0.005392822,-0.123724933,4.734139999,0.017662528,-0.042241118,-0.612829677,0.855174698,-4.63070372,2.817109011,0.073561879,-0.017770767,120.4017516,31.50772072,12.89165325
1571103794,120.4017511,31.50772787,724.7171263,-0.663204166,-0.93259187,5.370264621,4.092523671,0.038947824,0.09170132,4.707250614,-0.060473483,0.199977827,0.319675413,-4.286434957,-1.679739238,2.612956459,0.012890663,-0.100764811,5.133547831,-0.002685641,-0.048941364,-0.663204166,0.93259187,-4.745998999,2.892893167,0.07308875,0.015033837,120.4017516,31.50772402,12.89761894
1571103794,120.4017514,31.5077313,724.4879432,-0.722415993,-0.952099137,5.474432193,4.47283676,0.06459639,0.095701576,5.056023127,-0.066173811,0.211204303,0.305028044,-4.191828949,-1.792331296,2.657087508,0.030654103,-0.072531383,5.514117795,-0.024189069,-0.05294162,-0.722415993,0.952099137,-4.850166571,2.975832553,0.087356731,0.018853282,120.4017517,31.50772716,12.90884562
1571103794,120.4017517,31.50773484,724.2358418,-0.715957449,-1.043824123,5.543630136,4.86534648,0.092144847,0.100101864,5.406307416,-0.074015715,0.225339371,0.23176704,-4.14868661,-1.879932694,2.724682027,0.049385807,-0.108407926,5.906904365,-0.047459389,-0.057341908,-0.715957449,1.043824123,-4.919364513,3.060730637,0.065224642,0.010575279,120.4017519,31.50773032,12.92298092
1571103794,120.401752,31.50773844,723.8003939,-0.647480492,-1.047026344,5.56591648,5.264508903,0.123493089,0.107702182,5.77296471,-0.079808482,0.241824331,0.008613291,-4.147872793,-1.880026078,2.763203326,0.00803606,-0.076345876,6.306384643,-0.074456787,-0.064942227,-0.647480492,1.047026344,-4.941650857,3.099916595,0.044998529,0.003054022,120.401752,31.50773363,12.93946614
1571103794,120.4017523,31.50774238,723.3305685,-0.541378336,-0.971404805,5.656719299,5.701369998,0.157691167,0.11590256,6.104102567,-0.090756025,0.263822408,-0.019674464,-4.282955574,-1.995202943,2.775983763,0.032678907,-0.070887962,6.743592405,-0.103893113,-0.073142605,-0.541378336,0.971404805,-5.032453677,3.17213868,0.093848228,-0.020938792,120.4017521,31.50773661,12.96146448
1571103794,120.4017526,31.50774615,722.7633402,-0.652361602,-0.897140743,5.645791206,6.119381755,0.185239617,0.12580295,6.46383623,-0.095228287,0.286929294,-0.484182271,-4.43792744,-2.003938843,2.821200108,0.078444759,-0.109494189,7.1618795,-0.126885575,-0.083042995,-0.652361602,0.897140743,-5.021525584,3.257867408,0.129417418,-0.022421087,120.4017522,31.50773986,12.98457166
1571103795,120.4017515,31.50775128,724.654101,-1.063835425,-0.901766228,5.431013729,6.688188249,0.073145897,0.092803522,6.838447642,-0.096605679,0.308252435,-1.268023303,-4.558791736,-2.020152828,2.867210202,0.085573107,-0.088529999,7.72943094,-0.008601205,-0.050043566,-1.063835425,0.901766228,-4.806748107,3.275918986,0.166522755,0.033358091,120.4017523,31.50774324,13.00589513
1571103795,120.4017518,31.50775545,724.585346,-0.823009091,-0.913539696,5.371965866,7.150551396,0.103544185,0.094004025,7.214253129,-0.103298663,0.338443213,-1.812061635,-4.58658114,-1.998477964,2.881652118,0.021078261,-0.062031337,8.19209784,-0.033960115,-0.051244069,-0.823009091,0.913539696,-4.747700243,3.324368743,0.057787468,0.043942461,120.4017524,31.50774662,13.03608626
1571103795,120.4017521,31.50775937,724.3733517,-0.648803738,-0.852357725,5.473255861,7.585194927,0.131092636,0.097704531,7.603123151,-0.120883941,0.37104663,-2.323891598,-4.725007276,-2.051945582,2.93972298,-0.001305075,-0.069454601,8.627015722,-0.05677137,-0.054944575,-0.648803738,0.852357725,-4.848990239,3.392902665,0.166495302,0.005558556,120.4017526,31.50775013,13.06869007
1571103795,120.4017522,31.50776341,724.0639544,-0.849336437,-0.969059926,5.464165613,8.033143871,0.149141613,0.103105082,8.042570724,-0.125185043,0.383468019,-3.094257435,-4.577562557,-2.115059324,3.027068811,0.105835121,-0.138149072,9.075134726,-0.069938748,-0.060345126,-0.849336437,0.969059926,-4.83989999,3.482085529,0.191629341,0.02933827,120.4017527,31.50775409,13.08111193
1571103795,120.4017525,31.50776783,723.8462305,-0.934389976,-1.068266071,5.465693734,8.523226629,0.172890271,0.10690572,8.497442093,-0.13150748,0.401842989,-3.506649921,-4.415715204,-2.063089099,3.100342166,0.036954246,-0.054935221,9.565447142,-0.088346411,-0.064145765,-0.934389976,1.068266071,-4.841428111,3.509301027,0.136486458,0.044965439,120.4017528,31.50775819,13.09948742
1571103795,120.4017528,31.50777196,723.6743431,-0.834779993,-0.90076572,5.48643853,8.981154636,0.199488764,0.109906352,8.925193722,-0.140248965,0.427353913,-3.459477041,-4.513798632,-2.134857158,3.142602974,0.057218895,-0.022434521,10.02363777,-0.109954073,-0.067146397,-0.834779993,0.90076572,-4.862172907,3.553851982,0.128200165,0.049247818,120.401753,31.50776205,13.12499886
1571103795,120.401753,31.50777617,723.5654812,-0.79236445,-0.983458153,5.429442313,9.447952921,0.224187364,0.111807029,9.356115625,-0.145480059,0.447984874,-3.323027847,-4.416441704,-2.079946215,3.167143973,0.072826701,-0.099547002,10.49067744,-0.129565312,-0.069047073,-0.79236445,0.983458153,-4.805176691,3.628940827,0.175125825,0.040517485,120.4017531,31.50776594,13.14563037
1571103796,120.4017524,31.50778215,725.4906194,-0.981643073,-1.052762615,5.684040456,10.11100612,0.159590996,0.078208048,9.847421895,-0.150310659,0.466228549,-3.383637611,-4.302216615,-2.079469216,3.299622453,0.056820908,-0.040583862,11.15298749,-0.057748631,-0.035448092,-0.981643073,1.052762615,-5.059774834,3.612527723,0.241204213,0.081630864,120.4017532,31.50777037,13.1638747
1571103796,120.4017525,31.50778639,725.4963489,-1.048677729,-0.785539433,5.682210884,10.58113077,0.173840182,0.078108814,10.31886868,-0.151170369,0.49131205,-3.155643061,-4.459938212,-2.082174306,3.313652241,0.081270571,0.010316104,11.62323948,-0.066874834,-0.035348858,-1.048677729,0.785539433,-5.057945261,3.621279022,0.247144311,0.048482535,120.4017532,31.50777462,13.18895888
1571103796,120.4017527,31.50779069,725.5020785,-1.020352926,-0.684159951,5.623883122,11.05790812,0.190939208,0.078009627,10.82079148,-0.155379509,0.518939556,-2.990975853,-4.613174678,-2.048381985,3.413342216,0.080644353,-0.116064475,12.10017483,-0.078778225,-0.035249671,-1.020352926,0.684159951,-4.999617499,3.722396784,0.19526314,0.058237803,120.4017533,31.50777914,13.21658714
1571103796,120.401753,31.50779546,725.576563,-0.711583145,-0.940303766,5.612183709,11.58679835,0.217537694,0.07671057,11.31870241,-0.16695349,0.536264417,-2.67132833,-4.412898872,-2.002469893,3.529106594,0.017272487,-0.162381933,12.62932347,-0.099612728,-0.033950614,-0.711583145,0.940303766,-4.987918087,3.805319764,0.212059694,0.070495984,120.4017535,31.50778363,13.23391278
1571103796,120.4017531,31.50779994,725.5078081,-0.758569979,-0.94901047,5.692750156,12.08353382,0.232736825,0.077911497,11.84279268,-0.178841872,0.55519217,-2.516993038,-4.306173105,-2.09468467,3.589046152,0.079068564,-0.104766595,13.12619505,-0.109398887,-0.035151541,-0.758569979,0.94901047,-5.068484534,3.817763211,0.278725348,0.06193559,120.4017537,31.50778836,13.2528414
1571103796,120.4017533,31.5078048,725.6395884,-1.016812556,-1.074241919,5.650216033,12.62240311,0.244136166,0.075612546,12.31351425,-0.183935997,0.574068806,-2.64728135,-4.269346133,-2.077811987,3.591799542,0.127106785,-0.118619584,13.66515656,-0.114926422,-0.03285259,-1.016812556,1.074241919,-5.025950411,3.861007518,0.305947493,0.123055344,120.4017538,31.5077926,13.27171886
1571103796,120.4017534,31.50780938,725.9776335,-0.961279881,-1.340812677,5.66337757,13.13022644,0.26028524,0.069713575,12.81770568,-0.193026755,0.595916459,-2.811950265,-4.037474928,-2.080125545,3.667643172,0.039125416,-0.117605707,14.1731257,-0.125541662,-0.026953619,-0.961279881,1.340812677,-5.039111948,3.91670186,0.204977376,0.121837115,120.401754,31.50779715,13.29356743
1571103796,120.4017537,31.50781398,725.9719039,-0.729436962,-1.283164883,5.706081489,13.64026733,0.284033878,0.06981465,13.32406947,-0.209037512,0.619811496,-2.575462677,-3.965143886,-2.118479703,3.719346533,0.009791595,-0.055802056,14.68339506,-0.143731856,-0.027054694,-0.729436962,1.283164883,-5.081815866,3.910829359,0.219171641,0.063588084,120.4017542,31.50780171,13.31746342
1571103797,120.4017544,31.50782099,716.1456777,-0.531509539,-1.111813015,5.118173318,14.41752491,0.35717969,0.241316371,13.86164226,-0.223572405,0.646457479,-2.360854756,-4.083682781,-2.163232991,3.726081756,0.0522161,-0.054574248,15.46140345,-0.208404891,-0.198556416,-0.531509539,1.111813015,-4.493907696,3.928495924,0.211935091,0.041502121,120.4017544,31.50780656,13.34411047
1571103797,120.4017546,31.50782563,715.8362805,-0.571707704,-0.983883351,5.128860706,14.93200091,0.373328752,0.246717559,14.39377505,-0.23354479,0.674904046,-2.404907492,-4.207713778,-2.139039244,3.803730252,0.062166508,-0.048651627,15.97602487,-0.218947637,-0.203957603,-0.571707704,0.983883351,-4.504595084,3.99137432,0.224392666,0.020679269,120.4017546,31.50781136,13.37255813
1571103797,120.4017548,31.50783037,715.395103,-0.743696459,-0.975958185,5.153696728,15.45756476,0.388527868,0.254418818,14.92628088,-0.240820122,0.695852406,-2.398592577,-4.217600814,-2.173143129,3.875030063,0.088277919,-0.145810907,16.50172311,-0.228419689,-0.211658863,-0.743696459,0.975958185,-4.529431105,4.052436764,0.254428602,0.007428191,120.4017547,31.50781616,13.39350764
1571103797,120.401755,31.50783547,714.8851706,-0.701923917,-1.069668915,5.142466321,16.02304484,0.407526763,0.26332022,15.48403225,-0.248689069,0.708487418,-2.415370675,-4.052337576,-2.186991972,3.878910085,0.052021243,-0.147565625,17.06737663,-0.241256395,-0.220560264,-0.701923917,1.069668915,-4.518200698,4.002281177,0.196791244,0.026932326,120.4017549,31.50782119,13.40614389
1571103797,120.4017552,31.50784015,714.6674466,-0.699765653,-1.023940396,5.130718185,16.54195598,0.425575713,0.267121552,16.03320667,-0.257197945,0.725927666,-2.284020907,-4.037948816,-2.160008221,3.879221924,0.054872385,-0.055614136,17.58645362,-0.253650594,-0.224361596,-0.699765653,1.023940396,-4.506452563,3.990550395,0.250227084,0.066282894,120.401755,31.50782614,13.42358541
1571103797,120.4017553,31.50784486,714.5929621,-0.785487792,-1.134546619,5.178036667,17.06419349,0.438874932,0.268422934,16.53411944,-0.26275717,0.748390059,-2.28130949,-4.013206637,-2.235534088,3.865903292,0.089335211,-0.144398202,18.10880502,-0.261259102,-0.225662978,-0.785487792,1.134546619,-4.553771044,4.015827369,0.252137045,0.064889173,120.4017551,31.50783066,13.44604901
1571103797,120.4017555,31.50784955,714.3064832,-0.723408378,-1.286553061,5.166933132,17.58421341,0.456923878,0.273424352,17.03771158,-0.268880102,0.762778434,-2.345305298,-3.803640476,-2.240308438,3.822438825,0.053105177,-0.127441387,18.62899073,-0.273641217,-0.230664396,-0.723408378,1.286553061,-4.54266751,3.9620774,0.211676392,0.030441286,120.4017553,31.5078352,13.46043863
1571103798,120.4017556,31.50785612,717.1483539,-0.729068401,-0.978874965,4.786225993,18.31268498,0.471173034,0.223826412,17.55001592,-0.279846712,0.779090206,-2.21566878,-3.930078281,-2.297027164,3.787809693,0.083943089,-0.062833317,19.35757431,-0.279952629,-0.181066456,-0.729068401,0.978874965,-4.161960371,3.883796384,0.26414392,0.062524587,120.4017554,31.50783982,13.47675171
1571103798,120.4017558,31.50786068,717.3947257,-0.767846732,-0.816953198,4.73967362,18.81829074,0.481622414,0.21952789,18.03491768,-0.285385155,0.805803123,-2.327435154,-4.140246396,-2.288450859,3.747715191,0.103510326,-0.044202288,19.86326391,-0.284892675,-0.176767934,-0.767846732,0.816953198,-4.115407997,3.892452733,0.193455983,0.124414815,120.4017555,31.50784419,13.50346591
1571103798,120.4017559,31.50786526,717.8129849,-0.646912264,-0.936479332,4.773835382,19.32611407,0.496821519,0.212229416,18.52203941,-0.295210481,0.830020279,-2.147565608,-4.106543422,-2.302453408,3.725906195,0.048468928,-0.133084817,20.3712227,-0.294558003,-0.169469461,-0.646912264,0.936479332,-4.149569759,3.893905268,0.239794605,0.087666014,120.4017557,31.50784858,13.52768439
1571103798,120.401756,31.50787016,717.4806694,-0.581078548,-1.008042902,4.773660241,19.86941847,0.509170783,0.218031093,19.02936066,-0.304932858,0.841231627,-2.146774832,-3.98733833,-2.348023426,3.706786597,0.097860938,-0.194012341,20.9146294,-0.300987083,-0.175271137,-0.581078548,1.008042902,-4.149394619,3.859884955,0.235841104,0.006298755,120.4017559,31.50785316,13.53889715
1571103798,120.4017561,31.50787469,717.2285679,-0.672663867,-1.015994504,4.717263457,20.37169785,0.517720267,0.222432683,19.54622961,-0.310204185,0.853589186,-2.258332264,-3.972940736,-2.288131766,3.710218555,0.090184732,-0.14293708,21.41697211,-0.304063588,-0.179672728,-0.672663867,1.015994504,-4.092997835,3.844418793,0.266896656,0.081218609,120.401756,31.50785782,13.5512562
1571103798,120.4017562,31.5078792,717.6181792,-0.779712116,-1.10321475,4.741705856,20.8717597,0.52246997,0.215634308,20.02777281,-0.317825009,0.875746632,-2.423435478,-3.905927724,-2.324203881,3.665657386,0.107672185,-0.071199861,21.91705603,-0.303364697,-0.172874353,-0.779712116,1.10321475,-4.117440234,3.825128975,0.293680591,0.16598911,120.4017561,31.50786216,13.57341506
1571103798,120.4017563,31.50788402,718.2770807,-0.795556784,-1.217476817,4.708301589,21.40619388,0.530069507,0.204136086,20.48123421,-0.325144496,0.906063979,-2.573492368,-3.824582402,-2.306254328,3.610803611,0.091467169,-0.050761677,22.45154129,-0.305140976,-0.161376131,-0.795556784,1.217476817,-4.084035966,3.778066647,0.209324264,0.144026148,120.4017562,31.50786625,13.60373378
1571103798,120.4017564,31.50788845,718.368754,-0.539504684,-1.124704729,4.71659461,21.89738543,0.543368717,0.202537762,20.9442003,-0.341335275,0.931144531,-2.332829714,-3.880236726,-2.290215539,3.562130216,0.013017009,-0.078476122,22.94284858,-0.313087729,-0.159777807,-0.539504684,1.124704729,-4.092328988,3.753256305,0.228150108,0.03722761,120.4017565,31.50787042,13.62881577
1571103799,120.4017571,31.50789461,719.1365174,-0.419765976,-0.833465262,4.106549897,22.58039676,0.609864848,0.189140159,21.36777118,-0.359171612,0.945756298,-2.230527261,-4.074813361,-2.343604622,3.516011982,0.068292535,-0.14773597,23.62654386,-0.372138318,-0.146380204,-0.419765976,0.833465262,-3.482284275,3.73662642,0.206587254,0.032571382,120.4017567,31.50787424,13.64342888
1571103799,120.4017572,31.50789935,719.400078,-0.582397733,-0.89654594,4.085148356,23.10596065,0.615564492,0.18454205,21.79610584,-0.36604273,0.960864194,-2.300439582,-4.107767497,-2.311559808,3.451346203,0.069140498,-0.125284768,24.15213865,-0.37211146,-0.141782095,-0.582397733,0.89654594,-3.460882734,3.749334333,0.258056529,0.1413133,120.4017568,31.5078781,13.65853816
1571103799,120.4017572,31.50790373,720.0188724,-0.800236921,-1.186299907,4.191946017,23.59160831,0.617464352,0.173743834,22.22359025,-0.373102044,0.979264701,-2.590593524,-3.929939373,-2.434202002,3.383598025,0.074608496,-0.146138899,24.6377782,-0.368719943,-0.130983879,-0.800236921,1.186299907,-3.567680395,3.688082159,0.213349248,0.158784274,120.4017569,31.50788196,13.67694008
1571103799,120.4017573,31.50790799,720.5746415,-0.644128936,-1.318328343,4.15671613,24.06395057,0.630763558,0.164045608,22.64658094,-0.379030471,0.996072518,-2.625668678,-3.73468393,-2.447327078,3.243670456,0.026873891,-0.064993457,25.11023731,-0.376872061,-0.121285653,-0.644128936,1.318328343,-3.532450507,3.549078671,0.116623136,0.154515534,120.4017571,31.50788577,13.69374932
1571103799,120.4017575,31.50791241,721.0100894,-0.451411394,-1.049874421,4.210701296,24.55403337,0.645012704,0.156447484,23.09514183,-0.391532382,1.023541134,-2.376929958,-3.908564583,-2.485875572,3.189262842,0.048646691,0.009304533,25.60044627,-0.385780774,-0.113687529,-0.451411394,1.049874421,-3.586435674,3.46404452,0.210976954,0.10745407,120.4017572,31.50788982,13.72121948
1571103799,120.4017575,31.50791648,721.3252162,-0.540900721,-0.667900569,4.266975793,25.0053087,0.647862514,0.150949244,23.5458847,-0.405683686,1.05448397,-2.505988715,-4.267518211,-2.537755217,3.179875603,0.057709724,-0.017204359,26.05172587,-0.383713646,-0.108189289,-0.540900721,0.667900569,-3.642710171,3.476966381,0.240709578,0.099313705,120.4017574,31.50789388,13.75216389
1571103799,120.4017576,31.50792059,721.9153627,-0.632575759,-0.664429356,4.278942175,25.46101919,0.652612211,0.140651055,24.00863841,-0.412323457,1.077462506,-2.654076663,-4.390134849,-2.572051424,3.222533538,0.075479815,-0.11232277,26.50746106,-0.38349797,-0.097891099,-0.632575759,0.664429356,-3.654676553,3.499987523,0.190438962,0.130705742,120.4017576,31.50789805,13.77514409
1571103800,120.4017588,31.50792717,716.535289,-0.596484165,-0.667270273,3.980589844,26.19059904,0.76755549,0.234554034,24.47365945,-0.425551223,1.094871055,-2.779862128,-4.279089213,-2.650749321,3.242740691,0.069351381,-0.08547685,27.23824995,-0.490485453,-0.191794078,-0.596484165,0.667270273,-3.356324221,3.499919735,0.176275193,0.052300721,120.4017578,31.50790224,13.79255434
1571103800,120.4017589,31.50793127,716.7644721,-0.696367128,-0.572067756,3.980592922,26.64520072,0.778004849,0.230555925,24.95297429,-0.437621719,1.113251946,-2.993422973,-4.369056894,-2.687940982,3.247101808,0.098710099,-0.089845236,27.69293849,-0.495981182,-0.18779597,-0.696367128,0.572067756,-3.3563273,3.478809413,0.108340852,0.097062149,120.4017579,31.50790657,13.81093701
1571103800,120.4017591,31.50793538,717.3202412,-0.572691275,-0.633431497,4.037542246,27.10091121,0.797003713,0.220857856,25.37997257,-0.456997906,1.135048926,-2.887287257,-4.324790231,-2.699224002,3.271224195,0.02359937,-0.098862461,28.14882893,-0.510013827,-0.178097901,-0.572691275,0.633431497,-3.413276623,3.543279767,0.128663139,0.101068966,120.4017582,31.50791041,13.83273562
1571103800,120.4017592,31.50793986,717.8760103,-0.591800143,-0.827142582,4.142125555,27.59764672,0.81125285,0.211159996,25.82134321,-0.4745231,1.154287686,-2.952547521,-4.180183687,-2.840505333,3.2875779,0.081686047,-0.123784929,28.64569021,-0.518850048,-0.16840004,-0.591800143,0.827142582,-3.517859933,3.529123558,0.158271585,0.122399782,120.4017584,31.50791439,13.85197608
1571103800,120.4017594,31.50794399,718.2312441,-0.626573848,-0.849104112,4.085234589,28.05557477,0.825501983,0.204962003,26.26579375,-0.487610324,1.177815965,-3.172728717,-4.06396791,-2.803943101,3.27929501,0.081333292,-0.063846488,29.10374632,-0.528109084,-0.162202048,-0.626573848,0.849104112,-3.460968967,3.526195416,0.12577561,0.084244676,120.4017586,31.5079184,13.87550611
1571103800,120.4017595,31.50794815,718.5291821,-0.580012545,-0.816048978,4.153436485,28.51682916,0.840701065,0.199764059,26.7096389,-0.506610567,1.203597572,-3.23505529,-4.154042279,-2.834263224,3.313937743,0.032019374,-0.073288185,29.56513893,-0.53828177,-0.157004104,-0.580012545,0.816048978,-3.529170863,3.551774423,0.159862103,0.09761831,120.4017589,31.5079224,13.9012895
1571103800,120.4017597,31.50795267,718.9474413,-0.626639019,-0.825543863,4.211080017,29.01799981,0.854950195,0.192466329,27.1620919,-0.523043937,1.22266573,-3.17274466,-4.14047856,-2.927443578,3.348981226,0.076283527,-0.080479971,30.06643508,-0.547069662,-0.149706374,-0.626639019,0.825543863,-3.586814395,3.60553325,0.157787289,0.119493421,120.4017591,31.50792648,13.9203595
1571103800,120.4017598,31.50795692,719.4459146,-0.605670322,-0.883761709,4.188333071,29.48923329,0.870149271,0.183768502,27.61673491,-0.536774457,1.242339961,-3.109250257,-4.057694428,-2.92196385,3.378882036,0.070691817,-0.058935715,30.53780619,-0.557133618,-0.141008547,-0.605670322,0.883761709,-3.564067449,3.614447536,0.153296571,0.102987292,120.4017593,31.50793058,13.94003562
1571103801,120.4017609,31.50796347,716.2029735,-0.474732635,-0.809396269,3.900302296,30.21548691,0.973693158,0.24037193,28.08251549,-0.54563956,1.261479631,-3.029966457,-4.125845602,-2.968211132,3.411394829,0.078992585,-0.058637588,31.26514484,-0.652758627,-0.197611975,-0.474732635,0.809396269,-3.276036674,3.665336533,0.084347491,0.074385901,120.4017594,31.50793478,13.95917726
1571103801,120.4017612,31.50796813,716.4837228,-0.298827099,-0.700790693,3.86441798,30.73218053,0.999341613,0.235474413,28.53944819,-0.554565103,1.283224717,-2.784104715,-4.229378823,-2.953807127,3.444012021,0.065815084,-0.062492799,31.78208724,-0.672776039,-0.192714457,-0.298827099,0.700790693,-3.240152357,3.706154718,0.078739895,0.091347949,120.4017596,31.5079389,13.9809243
1571103801,120.4017614,31.5079725,716.7816609,-0.274503467,-0.655700338,3.88706706,31.2167194,1.0192904,0.230276777,28.99561076,-0.563966774,1.305808448,-2.651198228,-4.289846667,-2.971459431,3.471338761,0.114340619,-0.097324185,32.2668147,-0.687444458,-0.187516822,-0.274503467,0.655700338,-3.262801438,3.764165493,0.115203037,0.079734693,120.4017597,31.50794301,14.00351003
1571103801,120.4017616,31.50797694,717.0165736,-0.334057994,-0.734115385,3.818917978,31.70901976,1.03828924,0.226179218,29.4495062,-0.573256577,1.317519553,-2.674624565,-4.202732178,-2.946604759,3.499661816,0.114967448,-0.118681203,32.75929283,-0.701078423,-0.183419263,-0.334057994,0.734115385,-3.194652356,3.789558772,0.105826257,0.077877939,120.4017599,31.5079471,14.01522315
1571103801,120.4017618,31.50798172,717.3832665,-0.436376398,-0.70777443,3.819473185,32.23901881,1.056338131,0.219781889,29.90167301,-0.584415486,1.333932053,-2.619676912,-4.224362283,-2.923196865,3.476580474,0.124416083,-0.076655847,33.28945707,-0.713351758,-0.177021934,-0.436376398,0.70777443,-3.195207563,3.774953457,0.133432056,0.104657971,120.4017601,31.50795118,14.03163769
1571103801,120.401762,31.50798581,717.7900666,-0.477494098,-0.568903726,3.796241723,32.69251173,1.072487141,0.21268421,30.3663052,-0.593483509,1.359928216,-2.681404349,-4.3490578,-2.918040149,3.494921923,0.139728633,-0.045494789,33.74309902,-0.724558879,-0.169924254,-0.477494098,0.568903726,-3.171976101,3.786637965,0.098447176,0.100126637,120.4017602,31.50795537,14.05763598
1571103801,120.4017622,31.50799061,718.3229173,-0.398060935,-0.606206387,3.726881965,33.22472836,1.096235694,0.203386975,30.83371484,-0.604101449,1.381713811,-2.501748627,-4.364365595,-2.854495132,3.498263035,0.095468799,-0.122386379,34.27554281,-0.742507376,-0.160627019,-0.398060935,0.606206387,-3.102616343,3.82118591,0.105430187,0.10566942,120.4017604,31.50795958,14.07942375
1571103802,120.4017631,31.50799741,716.2316214,-0.330935645,-0.689084304,3.554966469,33.97870167,1.183630475,0.239890979,31.28616188,-0.615112082,1.403067233,-2.56699474,-4.309576851,-2.853766389,3.487938048,0.117922908,-0.110850295,35.03042356,-0.821682222,-0.197131023,-0.330935645,0.689084304,-2.930700846,3.819586001,0.041529872,0.05398091,120.4017605,31.50796366,14.10077931
1571103802,120.4017635,31.50800223,716.3634017,-0.07649747,-0.628203513,3.496125558,34.51313584,1.214028628,0.237593866,31.74017459,-0.625502608,1.423588156,-2.37358043,-4.403255935,-2.795696381,3.44977977,0.078592283,-0.113924559,35.5651572,-0.846255765,-0.19483391,-0.07649747,0.628203513,-2.871859936,3.817624586,0.018168241,0.08178568,120.4017607,31.50796776,14.12130241
1571103802,120.4017637,31.50800671,716.901982,-0.156146795,-0.614343995,3.462180374,35.00987137,1.232077511,0.228196587,32.18927727,-0.634788171,1.447013708,-2.302069181,-4.435452444,-2.780317841,3.429377646,0.15936057,-0.055711633,36.0620599,-0.858891505,-0.185436632,-0.156146795,0.614343995,-2.837914752,3.820947436,0.135683719,0.143147171,120.4017608,31.50797181,14.14473015
1571103802,120.4017638,31.50801119,717.6239088,-0.375623637,-0.69993463,3.314392818,35.50660692,1.244426725,0.215599347,32.65016317,-0.63225442,1.472287886,-2.589258018,-4.366701252,-2.664178008,3.415979807,0.20215813,-0.087728472,36.55890051,-0.865827917,-0.172839392,-0.375623637,0.69993463,-2.690127196,3.814326973,0.116091565,0.122068034,120.4017609,31.50797596,14.1700066
1571103802,120.401764,31.50801599,717.9734131,-0.398234873,-0.711068044,3.211479574,36.03882354,1.262475602,0.209502345,33.10622338,-0.632800281,1.491995185,-2.676409049,-4.328477085,-2.557656293,3.388411872,0.147206678,-0.103561988,37.09128219,-0.878077075,-0.16674239,-0.398234873,0.711068044,-2.587213951,3.77605276,0.057655045,0.073769579,120.4017609,31.50798008,14.18971619
1571103802,120.4017642,31.5080204,718.2255145,-0.052049447,-0.663465576,3.04893712,36.52779756,1.286224143,0.205105143,33.56077455,-0.63676368,1.511231296,-2.413916785,-4.374729838,-2.447951733,3.365912451,0.132287187,-0.105349835,37.58048593,-0.8964967,-0.162345188,-0.052049447,0.663465576,-2.424671498,3.765932446,-0.003335694,0.079909599,120.401761,31.50798417,14.20895461
1571103802,120.4017645,31.5080248,718.6036667,0.199342746,-0.749999108,2.8179247,37.0156628,1.308072794,0.198507972,33.989162,-0.637238826,1.527178081,-2.154081554,-4.335625504,-2.206723023,3.319452436,0.141556436,-0.105014123,38.06856027,-0.913028629,-0.155748016,0.199342746,0.749999108,-2.193659078,3.739973027,0.048020907,0.124499037,120.4017611,31.50798804,14.2249036
1571103802,120.4017645,31.5080295,719.4058076,0.095905784,-0.793174248,2.704006144,37.53679163,1.315672281,0.184511033,34.43853585,-0.62947363,1.54809597,-2.087845927,-4.256222304,-2.104936345,3.279480923,0.208636118,-0.053416184,38.58974096,-0.914949823,-0.141751077,0.095905784,0.793174248,-2.079740522,3.699812571,0.147330551,0.145984331,120.401761,31.50799209,14.24582384
1571103803,120.4017651,31.50803608,718.2541624,0.098933691,-0.80424143,2.234004725,38.26637176,1.365069264,0.204615395,34.86914391,-0.615979845,1.572962754,-2.312152595,-4.286019142,-1.897767929,3.250411305,0.197212508,-0.084223982,39.31981598,-0.956394898,-0.161855439,0.098933691,0.80424143,-1.609739103,3.684775487,0.034566017,0.095970163,120.401761,31.50799598,14.2706929
1571103803,120.4017652,31.50804041,718.4661568,0.262219447,-0.726669767,2.026801501,38.7464755,1.379318358,0.200918308,35.29801627,-0.610051786,1.590184576,-2.124403553,-4.327655795,-1.657088335,3.226619717,0.182436802,-0.127682254,39.80004647,-0.965412284,-0.158158353,0.262219447,0.726669767,-1.402535879,3.695086771,0.015375605,0.078099453,120.4017609,31.50799984,14.28791702
1571103803,120.4017654,31.50804506,718.8958751,0.560619959,-0.833543193,1.703380941,39.26206037,1.393567449,0.193421476,35.7310523,-0.600772516,1.604612747,-1.865218647,-4.195016326,-1.410397795,3.211621317,0.208960619,-0.12286979,40.31575598,-0.974043091,-0.150661521,0.560619959,0.833543193,-1.079115319,3.657518077,0.041466293,0.101517881,120.4017609,31.50800375,14.30234754
1571103803,120.4017654,31.50804934,719.3485118,0.574734868,-0.820501315,1.359596286,39.73662021,1.396417217,0.185524428,36.14611089,-0.578031904,1.622808527,-1.751237071,-4.233800428,-1.064180896,3.158476067,0.286693199,-0.095484017,40.7903187,-0.971722229,-0.142764473,0.574734868,0.820501315,-0.735330664,3.646456987,0.115931987,0.133274711,120.4017607,31.5080075,14.3205456
1571103803,120.4017653,31.50805395,720.0589795,0.439412081,-1.023124374,0.844123271,40.24776997,1.389767547,0.173127643,36.55932943,-0.542784126,1.641104478,-1.893937307,-4.050823464,-0.661423048,3.132598163,0.357563114,-0.112438287,41.30136568,-0.959503836,-0.130367688,0.439412081,1.023124374,-0.219857649,3.635555611,0.086009218,0.131881657,120.4017604,31.50801123,14.33884384
1571103803,120.4017653,31.5080582,720.3855654,0.513046776,-1.181444772,0.258296357,40.71900345,1.385017767,0.167430646,36.98771209,-0.501495252,1.645639128,-1.891496745,-3.820630954,-0.099093267,3.116718214,0.351916604,-0.146170679,41.77251943,-0.94962012,-0.124670691,0.513046776,1.181444772,0.365969265,3.612579237,0.095744106,0.105756059,120.40176,31.50801509,14.3433809
1571103803,120.4017651,31.50806243,720.6032894,0.486046576,-1.258701588,-0.429368591,41.18801934,1.367918721,0.163633666,37.44375038,-0.456792217,1.647002945,-1.966101282,-3.642706536,0.538619982,3.127600588,0.467692227,-0.127021306,42.24132119,-0.927412032,-0.12087371,0.486046576,1.258701588,1.053634214,3.586032547,0.151125585,0.106121106,120.4017596,31.50801921,14.34474731
1571103804,120.401765,31.50806895,719.1995428,0.420359252,-1.357838828,-1.620938556,41.91094672,1.359369129,0.18813839,37.91948177,-0.391789126,1.652592358,-2.252765111,-3.413722354,1.423518409,3.13996528,0.544120462,-0.094893875,42.96411251,-0.910986455,-0.145378435,0.420359252,1.357838828,2.245204178,3.572064263,0.110327565,0.149382329,120.4017589,31.50802351,14.35033946
1571103804,120.4017647,31.50807314,719.7438527,0.56245608,-1.465201314,-2.746504756,42.37552751,1.328970879,0.178641467,38.35705421,-0.299289411,1.655629542,-2.282203552,-3.239174968,2.505186573,3.159392338,0.610534475,-0.108470999,43.42833453,-0.875528274,-0.135881512,0.56245608,1.465201314,3.370770378,3.561527596,0.100507662,0.162142056,120.401758,31.50802746,14.35337919
1571103804,120.4017642,31.50807728,720.173571,0.730814109,-1.545329618,-4.021729769,42.83456437,1.286223371,0.171144537,38.79703573,-0.196468057,1.655424316,-2.232283098,-2.905149618,3.716264793,3.13809109,0.703361372,-0.091762893,43.8868784,-0.82778197,-0.128384581,0.730814109,1.545329618,4.645995391,3.510601863,0.152237641,0.12738892,120.401757,31.50803144,14.35317656
1571103804,120.4017635,31.50808165,720.4256724,0.744442934,-1.351211292,-5.718137088,43.31910325,1.218777332,0.166747809,39.29978483,-0.069553183,1.6519715,-2.520864522,-2.726564477,5.222194156,3.17231281,0.853257955,-0.054988176,44.37065367,-0.755060751,-0.123987854,0.744442934,1.351211292,6.34240271,3.475846959,0.208011168,0.111902301,120.4017557,31.50803599,14.34972676
1571103804,120.4017626,31.50808567,720.649126,0.485233382,-1.265828621,-7.528314182,43.76483467,1.134232324,0.162850848,39.83025903,0.086719776,1.634688212,-3.134201804,-2.415610225,6.9857353,3.271781459,0.963001536,-0.122409131,44.81543749,-0.665664394,-0.120090893,0.485233382,1.265828621,8.152579804,3.470660223,0.280307723,0.107227348,120.4017541,31.50804079,14.33244668
1571103804,120.4017615,31.50808997,720.9757119,0.420730732,-1.298310854,-9.700510433,44.24161206,1.028788569,0.157154134,40.36373925,0.272499051,1.611147487,-3.642421632,-2.084423647,8.963025172,3.375170171,1.028417798,-0.159205011,45.29103775,-0.555032277,-0.114394178,0.420730732,1.298310854,10.32477606,3.481250437,0.191235062,0.127109851,120.4017522,31.50804562,14.30890924
1571103804,120.4017605,31.50809364,721.3309458,0.555228354,-1.383414961,-11.60121943,44.64853604,0.929994434,0.150956965,40.85604956,0.476495297,1.585178759,-3.759865392,-1.663019316,11.07151789,3.434090648,0.967877734,-0.144251539,45.69686118,-0.451810458,-0.10819701,0.555228354,1.383414961,12.22548505,3.459733708,0.183923443,0.131890519,120.4017501,31.50805007,14.28294359
1571103804,120.4017591,31.50809783,721.7549345,0.79888115,-1.357936258,-13.771934,45.11311682,0.799852175,0.14356023,41.3456312,0.692912596,1.562156443,-3.49467189,-1.412015683,13.09297037,3.479555931,0.982801492,-0.114466644,46.15999645,-0.316614188,-0.100800274,0.79888115,1.357936258,14.39619962,3.42723003,0.187406323,0.147462856,120.4017479,31.50805451,14.25992439
1571103805,120.4017572,31.50810367,721.1017626,0.852958545,-1.453717807,-16.03925394,45.76064692,0.623162699,0.154964841,41.75514096,0.93979295,1.5483916,-3.00757547,-1.240469579,15.34668913,3.442814558,1.119116152,-0.121525553,46.80556304,-0.13288018,-0.112204886,0.852958545,1.453717807,16.66351956,3.412166889,0.241196496,0.174150717,120.4017454,31.50805823,14.24616219
1571103805,120.4017556,31.5081074,721.7262866,0.976264466,-1.431705812,-18.49784743,46.17422364,0.462622291,0.14406782,42.13598349,1.211284728,1.540460938,-2.395844533,-1.150744813,17.80514404,3.410343878,1.181009591,-0.119019539,47.21736608,0.032156731,-0.101307864,0.976264466,1.431705812,19.12211306,3.369820451,0.254238221,0.158938516,120.4017426,31.50806169,14.23823402
1571103805,120.4017535,31.50811128,722.3107036,1.047657126,-1.295931324,-21.25397452,46.60443212,0.269783831,0.13387095,42.49758725,1.506141236,1.53869874,-1.873013124,-1.19528236,20.36666009,3.385931817,1.232236455,-0.134607195,47.645448,0.229670984,-0.091110995,1.047657126,1.295931324,21.87824015,3.349515465,0.244001355,0.124546261,120.4017395,31.50806498,14.23647424
1571103805,120.4017515,31.50811481,722.6773966,1.155379683,-1.196100749,-23.91982134,46.99583313,0.075045499,0.127473829,42.85772386,1.819504459,1.522515207,-1.465670435,-1.069860795,23.05048319,3.379444349,1.269517005,-0.169888993,48.03470404,0.42866218,-0.084713873,1.155379683,1.196100749,24.54408696,3.344824122,0.224081374,0.112551181,120.4017362,31.50806826,14.22029315
1571103805,120.401749,31.50811849,723.2732727,1.153729809,-1.23308661,-26.79794224,47.40386593,-0.156740595,0.117076862,43.19736665,2.148116359,1.499615644,-1.182876981,-0.784066425,25.77267465,3.357629491,1.262675986,-0.153138455,48.44018726,0.664880145,-0.074316906,1.153729809,1.23308661,27.42220786,3.321462284,0.266396669,0.170388403,120.4017328,31.50807135,14.19739593
1571103805,120.4017468,31.50812151,724.0467657,1.02627846,-1.165423804,-29.22807945,47.73871899,-0.370477759,0.103579378,43.51554261,2.484272354,1.480437508,-0.928710229,-0.519613544,28.4592795,3.307047159,1.238221866,-0.061825646,48.77269171,0.882252939,-0.060819423,1.02627846,1.165423804,29.85234507,3.27765154,0.262247458,0.188337445,120.4017293,31.50807426,14.17822004
1571103805,120.401744,31.50812492,725.0265235,0.978179293,-1.07783156,-32.12667283,48.11681467,-0.630762111,0.08648225,43.81126659,2.829709628,1.457712025,-0.850871628,-0.234301882,31.18395163,3.308268449,1.228312988,-0.095750822,49.14792908,1.146641298,-0.043722294,0.978179293,1.07783156,32.75093845,3.251465487,0.171536085,0.174590466,120.4017257,31.50807696,14.15549668
1571103806,120.4017401,31.50812983,721.0960331,1.256238934,-1.059869645,-34.75043424,48.66122741,-1.003139679,0.155086445,44.08560816,3.180745197,1.433936595,-0.378299869,0.011150004,33.99038569,3.280633349,1.173169362,-0.10580007,49.68825236,1.52492829,-0.112326489,1.256238934,1.059869645,35.37469986,3.246603844,0.138991018,0.128859281,120.401722,31.50807947,14.13172327
1571103806,120.4017371,31.50813302,721.6346134,1.598050124,-0.955896082,-37.70959799,49.0149298,-1.288122499,0.145689215,44.33862829,3.530579373,1.408076688,0.274692293,0.252743911,36.8022345,3.226927397,1.164985933,-0.116486917,50.03882878,1.813747879,-0.10292926,1.598050124,0.955896082,38.33386361,3.212288264,0.19484728,0.109314487,120.4017184,31.50808178,14.10586527
1571103806,120.4017341,31.50813577,722.2304895,1.57083675,-0.812185707,-40.57461649,49.31984568,-1.572155368,0.135291638,44.56893149,3.903287842,1.392671704,0.473504369,0.287173017,39.69607509,3.172097086,1.217287274,-0.078824726,50.34063195,2.101086032,-0.092531683,1.57083675,0.812185707,41.19888211,3.170901911,0.233397528,0.141216833,120.4017145,31.5080839,14.09046207
1571103806,120.4017308,31.50813853,723.2331656,1.332147907,-0.676793486,-43.59366245,49.62587042,-1.893235989,0.117794108,44.77858143,4.292856817,1.385871895,0.362265292,0.180935853,42.61380236,3.143996097,1.178709289,-0.057025324,50.64314026,2.425481819,-0.075034153,1.332147907,0.676793486,44.21792807,3.149437457,0.242675091,0.180020983,120.4017104,31.50808582,14.08366396
1571103806,120.4017275,31.50814097,724.2702192,1.102815254,-0.624670444,-46.37761257,49.89641406,-2.198167575,0.099696327,44.9609167,4.683231514,1.387113219,0.295405213,0.047831735,45.45528622,3.092917307,1.146306395,-0.057800369,50.91034553,2.733342953,-0.056936371,1.102815254,0.624670444,47.00187819,3.095769724,0.147320079,0.156254125,120.4017063,31.50808751,14.08490681
1571103806,120.4017241,31.50814349,725.20987,1.145646477,-0.38308129,-49.18194476,50.17582798,-2.526847713,0.083298648,45.12165157,5.074898261,1.402258091,0.40217516,-0.309481615,48.18412122,3.043908941,1.017990022,-0.039275791,51.18616181,3.065047873,-0.040538692,1.145646477,0.38308129,49.80621038,3.064302602,0.041036092,0.137497968,120.4017022,31.508089,14.1000531
1571103806,120.4017211,31.50814559,726.052118,1.385793611,-0.210451309,-51.41059771,50.40867294,-2.808980653,0.06860061,45.28174472,5.483908113,1.41403976,0.628250453,-0.64291802,50.658932,3.028623125,0.943632184,-0.051950564,51.41591903,3.349700977,-0.025840655,1.385793611,0.210451309,52.03486333,3.032420382,-0.000868849,0.146603142,120.4016979,31.50809048,14.11183622
1571103806,120.4017176,31.50814791,727.2381406,1.53411426,-0.208059767,-54.05033914,50.66591123,-3.145260311,0.047902814,45.43741951,5.885858938,1.408503423,0.745239805,-0.690249758,53.14583385,3.014877589,0.968826876,-0.115747678,51.66947819,3.688763357,-0.005142859,1.53411426,0.208059767,54.67460476,3.005185607,-0.02066407,0.160624641,120.4016937,31.50809192,14.10630133
1571103807,120.4017111,31.50815078,722.7461515,1.369315043,-0.203558582,-56.25931368,50.98413198,-3.755123371,0.126305689,45.56981381,6.290271977,1.402930714,0.850748632,-0.644680037,55.64255705,2.986938107,0.930312348,-0.091924547,51.98103543,4.302057321,-0.083545733,1.369315043,0.203558582,56.8835793,3.02843898,0.067026113,0.129395386,120.4016895,31.50809316,14.10072993
1571103807,120.4017077,31.50815265,723.662884,1.545405999,-0.132000425,-58.55622673,51.19147495,-4.084753405,0.110307558,45.69100258,6.698411152,1.399209687,0.955787126,-0.703839635,58.00791819,2.939724802,0.878987385,-0.060146635,52.18477468,4.633926848,-0.067547603,1.545405999,0.132000425,59.18049235,2.953630098,0.018019515,0.114660732,120.4016852,31.50809429,14.09701017
1571103807,120.4017039,31.50815447,724.5108615,1.520442776,0.151184257,-61.02728437,51.39327401,-4.440031881,0.095509424,45.79229783,7.11584826,1.405499762,0.957893467,-1.031390748,60.31617304,2.910107236,0.920145601,-0.037553757,52.38269091,4.991382893,-0.052749469,1.520442776,-0.151184257,61.65154999,2.891502944,0.023726181,0.106278556,120.4016808,31.50809524,14.10330141
1571103807,120.4017005,31.50815604,725.3702982,1.45670035,0.280023924,-63.39012334,51.56735346,-4.77156179,0.080511075,45.87023707,7.529181293,1.406843908,0.801775824,-1.232202169,62.73991594,2.890280565,0.934003443,-0.094132551,52.55314792,5.324789768,-0.037751119,1.45670035,-0.280023924,64.01438897,2.867654689,-0.016746173,0.106446233,120.4016765,31.50809599,14.10464658
1571103807,120.401697,31.50815753,726.3844335,1.450313988,0.267073784,-65.62543646,51.73256267,-5.104041642,0.062812675,45.92905441,7.925326896,1.405386449,0.784664501,-1.239971373,65.05620142,2.85699532,0.862801111,-0.09399467,52.71472486,5.659049885,-0.020052719,1.450313988,-0.267073784,66.24970209,2.816303403,-0.068419813,0.138149812,120.4016723,31.50809656,14.10319002
1571103807,120.4016935,31.50815892,727.3871097,1.549432486,0.406686566,-67.83870799,51.88668404,-5.430821835,0.045314202,45.9766327,8.337197081,1.409312852,0.810024964,-1.361309318,67.29828157,2.813914158,0.852571074,-0.053731002,52.86527672,5.987489876,-0.002554247,1.549432486,-0.406686566,68.46297361,2.738629426,-0.094579954,0.107560675,120.401668,31.50809703,14.10711728
1571103807,120.4016898,31.50816026,728.3611379,1.402659887,0.634732191,-70.14432866,52.0352615,-5.780400644,0.028315722,46.00564029,8.736064934,1.416296249,0.678889979,-1.615784763,69.51532187,2.787521999,0.830416264,-0.065129521,53.01003661,6.338666729,0.014444233,1.402659887,-0.634732191,70.76859428,2.686933557,-0.106035679,0.104967648,120.4016638,31.50809733,14.11410142
1571103808,120.4016821,31.50816056,723.554022,0.843899979,0.866464387,-71.87227586,52.06852479,-6.515656099,0.112216705,46.02704443,9.129987155,1.422044775,0.515909753,-1.731187168,71.49464607,2.775517005,0.710316043,-0.101413911,53.03528711,7.074240955,-0.069456749,0.843899979,-0.866464387,72.49654148,2.836710902,-0.025680496,0.096002607,120.4016596,31.50809756,14.11985065
1571103808,120.4016782,31.50816168,724.6884784,1.083969189,0.65561668,-73.74963694,52.19270907,-6.889933412,0.092418116,46.0551136,9.533350782,1.419645153,0.664025515,-1.571293351,73.2962607,2.765932644,0.623479714,-0.109806729,53.15538616,7.449849074,-0.04965816,1.083969189,-0.65561668,74.37390256,2.784660539,-0.072461138,0.096731095,120.4016554,31.50809785,14.11745181
1571103808,120.4016745,31.50816259,725.3473799,1.118225803,0.689353614,-75.32610619,52.29360879,-7.23191268,0.080919324,46.07466464,9.957981653,1.419875964,0.640439839,-1.544829669,74.94163261,2.765151079,0.625443647,-0.078055821,53.25255394,7.792907374,-0.038159369,1.118225803,-0.689353614,75.95037182,2.702786156,-0.050079512,0.028266923,120.4016509,31.50809807,14.11768341
1571103808,120.401671,31.50816342,725.8802307,1.057719969,0.824040266,-76.81983522,52.38563823,-7.569142231,0.071620473,46.08408311,10.36639421,1.422838819,0.558392343,-1.719731892,76.46975906,2.754561557,0.610147631,-0.078142328,53.34090371,8.131119595,-0.028860518,1.057719969,-0.824040266,77.44410084,2.66307099,-0.087919633,0.051137258,120.4016466,31.50809819,14.12064699
1571103808,120.4016672,31.50816427,726.7625857,1.07734161,0.81853243,-78.3356715,52.47988532,-7.92822046,0.056221687,46.08393935,10.76570085,1.429413558,0.49598185,-1.770108975,77.93337394,2.748224089,0.587249828,-0.06930752,53.43123294,8.491203359,-0.013461731,1.07734161,-0.81853243,78.95993713,2.633120858,-0.132794835,0.094007058,120.4016424,31.50809823,14.12722239
1571103808,120.4016638,31.50816504,727.6621294,1.21711218,0.777327039,-79.71880471,52.56526212,-8.25595059,0.040522808,46.07489427,11.14829371,1.434339102,0.598382585,-1.727772516,79.34982822,2.703698435,0.561382843,-0.060734202,53.51303396,8.81984424,0.002237147,1.21711218,-0.777327039,80.34307033,2.568588523,-0.168784029,0.084264823,120.4016384,31.50809819,14.13214852
1571103808,120.4016604,31.50816575,728.4069745,1.309155713,0.831664839,-80.99419741,52.64398619,-8.577981063,0.027523884,46.06182536,11.52993893,1.441125878,0.679037785,-1.79110699,80.69755127,2.692770833,0.530983561,-0.065241142,53.58824476,9.142713319,0.015236071,1.309155713,-0.831664839,81.61846303,2.519964276,-0.200768103,0.060531932,120.4016344,31.50809811,14.13893589
1571103808,120.4016568,31.50816648,729.1804676,1.417949684,0.798287816,-82.32639417,52.72492787,-8.919960325,0.014025025,46.04914358,11.90427799,1.440583195,0.805480095,-1.742474037,81.97821798,2.67736263,0.506327828,-0.097112176,53.66545567,9.485554164,0.02873493,1.417949684,-0.798287816,82.95065979,2.471345678,-0.208760598,0.074864015,120.4016304,31.50809803,14.1383938
1571103809,120.401649,31.50816487,723.296191,0.734110082,1.019931346,-83.22342994,52.54641335,-9.657115735,0.116724618,46.02548994,12.26946707,1.441728115,0.735044783,-1.708229149,83.23395468,2.646453041,0.548996069,-0.07300296,53.47892024,10.22072086,-0.073964663,0.734110082,-1.019931346,83.84769556,2.6130999,0.101438588,-0.006314726,120.4016266,31.50809785,14.13953924
1571103809,120.4016455,31.5081651,723.5597516,0.482434865,1.071637942,-84.39409447,52.57191576,-9.995295258,0.11212535,45.99081318,12.63562251,1.441368281,0.434032062,-1.749719307,84.45566534,2.628919708,0.516915524,-0.088882433,53.50073657,10.55915816,-0.069365394,0.482434865,-1.071637942,85.01836009,2.593949789,0.045681101,-0.013000699,120.4016227,31.50809758,14.13917988
1571103809,120.4016417,31.50816542,723.9665516,0.656433368,1.028571784,-85.53596441,52.60739727,-10.35437351,0.105026216,45.95485275,13.00110529,1.440814865,0.411526309,-1.731268648,85.56809108,2.620077886,0.41993105,-0.083992947,53.53230373,10.91860168,-0.06226626,0.656433368,-1.028571784,86.16023003,2.556904098,-0.084317313,0.026172789,120.4016189,31.50809729,14.13862694
1571103809,120.4016382,31.50816571,724.4994024,0.952980359,0.96046434,-86.56380094,52.63955243,-10.68210366,0.095727022,45.92254804,13.36818478,1.441153689,0.735101463,-1.631040836,86.62499819,2.599406591,0.389739257,-0.06007336,53.56088627,11.24666272,-0.052967067,0.952980359,-0.96046434,87.18806657,2.508619473,-0.059940775,0.021552113,120.401615,31.50809703,14.1389663
1571103809,120.4016349,31.5081659,724.8947432,0.978527069,0.999616837,-87.46304669,52.66061973,-11.00318422,0.088827742,45.88786317,13.72538121,1.446074954,0.802096286,-1.642481814,87.57906362,2.569300658,0.394243141,-0.039491526,53.57845406,11.56795376,-0.046067787,0.978527069,-0.999616837,88.08731231,2.454352093,-0.013532941,0.009816062,120.4016113,31.50809676,14.14388808
1571103809,120.4016315,31.50816607,725.2327883,1.012447065,1.030080052,-88.2647394,52.67946946,-11.32046501,0.082928452,45.849445,14.08270065,1.450025772,0.74557042,-1.665731888,88.42241791,2.556427045,0.320470611,-0.063896644,53.5938458,11.88542109,-0.040168496,1.012447065,-1.030080052,88.88900502,2.422601096,-0.08113066,-0.001719105,120.4016075,31.50809644,14.1478394
1571103809,120.401628,31.50816625,725.5651039,1.030915728,1.043739311,-88.92090282,52.699428,-11.65579471,0.077129222,45.81469281,14.44576474,1.452375818,0.769288823,-1.688203281,89.10672285,2.567656332,0.246012014,-0.073583682,53.61014965,12.22094834,-0.034369266,1.030915728,-1.043739311,89.54516844,2.385172137,-0.082499737,0.012240561,120.4016037,31.50809617,14.15019002
1571103810,120.401621,31.50816432,723.513915,0.479241125,1.130559199,-89.06339005,52.48543304,-12.31980472,0.112928697,45.78752134,14.80256638,1.450754963,0.67273994,-1.625614778,89.5699731,2.548636404,0.217807497,-0.053018844,53.38893282,12.8825874,-0.070168742,0.479241125,-1.130559199,89.68765567,2.508282215,0.152828706,-0.023573624,120.4015999,31.50809596,14.14856979
1571103810,120.4016173,31.50816419,723.6571544,0.144570531,1.352500806,-89.4229501,52.47101928,-12.66843365,0.11042926,45.75968201,15.15058726,1.458405298,0.289931137,-1.788060429,89.95185378,2.523142795,0.169492487,-0.013325795,53.37072151,13.23103859,-0.067669305,0.144570531,-1.352500806,90.04721572,2.466993926,0.093338918,-0.045877822,120.4015962,31.50809574,14.15622074
1571103810,120.4016139,31.50816417,723.8576896,0.168174489,1.409225207,-89.50362145,52.46880214,-12.98951424,0.106929888,45.74601789,15.49699924,1.46362289,0.17899742,-1.90579429,90.11396922,2.524011273,0.011143395,-0.064183087,53.36500623,13.55207597,-0.064169933,0.168174489,-1.409225207,90.12788708,2.468225592,-0.013382401,-0.021468735,120.4015926,31.50809565,14.16143907
1571103810,120.4016106,31.50816424,724.1556277,0.548833863,1.350850229,-89.49921963,52.47656407,-13.30774499,0.101730606,45.72216718,15.87561181,1.467774955,0.481411459,-1.871051038,90.05989975,2.516048075,0.011927194,-0.048177184,53.3693005,13.8703724,-0.058970651,0.548833863,-1.350850229,90.12348525,2.416179195,-0.031570296,-0.019164341,120.4015886,31.50809547,14.1655919
1571103810,120.4016073,31.50816425,724.4134587,0.653307743,1.423887094,-89.59481217,52.47767329,-13.61837621,0.09723127,45.72713038,16.20758715,1.472422316,0.719240037,-1.882254906,90.18291741,2.487683204,0.068588921,-0.025531662,53.36702524,14.18099726,-0.054471315,0.653307743,-1.423887094,90.21907779,2.367637401,0.060253629,-0.025829789,120.4015851,31.50809555,14.17024013
1571103810,120.4016039,31.50816419,724.6082643,0.531156377,1.497549864,-89.6608159,52.47102105,-13.94800628,0.093831926,45.70802778,16.55171243,1.477515062,0.568740328,-1.963083211,90.24088751,2.471620974,0.071627778,-0.055122369,53.35678198,14.5105353,-0.051071971,0.531156377,-1.497549864,90.28508152,2.332532048,0.047310568,-0.043413985,120.4015815,31.50809541,14.17533362
1571103810,120.4016007,31.50816417,724.7400446,0.513817683,1.56287087,-89.757991,52.46880391,-14.24818813,0.091532573,45.69298637,16.88363028,1.47910949,0.524292801,-2.032058946,90.34216386,2.452708703,0.080071877,-0.062058898,53.35129441,14.81067517,-0.048772618,0.513817683,-1.56287087,90.38225662,2.291787484,0.001193874,-0.043234414,120.401578,31.50809531,14.17692882
1571103810,120.4015973,31.50816416,724.9348503,0.610483326,1.643909672,-89.81295145,52.46769559,-14.56736883,0.088133284,45.67997049,17.21328098,1.482479826,0.633896518,-2.062461214,90.40428104,2.440323463,0.045974362,-0.04150743,53.3467086,15.12982485,-0.045373328,0.610483326,-1.643909672,90.43721707,2.273395043,0.016714012,-0.038414475,120.4015745,31.50809522,14.18029994
1571103811,120.4015912,31.508163,724.8145292,0.344563097,1.619674042,-89.70338316,52.3390774,-15.15348356,0.090233587,45.668015,17.54170181,1.489102952,0.628818539,-2.119589803,90.4295242,2.483590544,0.087044061,-0.075906403,53.21171215,15.71450346,-0.047473632,0.344563097,-1.619674042,90.32764878,2.46167099,0.170521293,-0.020912627,120.4015711,31.50809515,14.18692388
1571103811,120.4015878,31.50816281,725.0838193,0.131941327,1.523199783,-89.82807279,52.318011,-15.47361425,0.085534182,45.64759071,17.87550997,1.487855906,0.432362783,-1.990721948,90.51933762,2.491968591,0.127981113,-0.086347143,53.18715909,16.03438562,-0.042774226,0.131941327,-1.523199783,90.45233841,2.458549786,0.15255193,-0.055723494,120.4015675,31.508095,14.18567762
1571103811,120.4015841,31.50816268,725.101008,0.179995933,1.588044693,-89.87595307,52.30359733,-15.82224318,0.085234917,45.63295019,18.21300508,1.490457603,0.362957932,-2.037266622,90.59280834,2.563494996,0.038006746,-0.073714617,53.16894787,16.38283682,-0.042474962,0.179995933,-1.588044693,90.50021869,2.536944396,0.085895679,-0.063400895,120.401564,31.5080949,14.18828017
1571103811,120.4015806,31.50816259,725.2900841,0.406387462,1.474447312,-89.90563235,52.29361881,-16.15662299,0.081935674,45.62289929,18.5577672,1.490369939,0.570682846,-1.962659705,90.60328508,2.616875958,0.045395679,-0.097208311,53.15532678,16.71708806,-0.039175718,0.406387462,-1.474447312,90.52989797,2.605879535,0.074552116,-0.034092948,120.4015604,31.50809484,14.18819342
1571103811,120.401577,31.50816249,725.5192672,0.576334006,1.417662859,-89.91993815,52.28253153,-16.50050222,0.07793646,45.60917037,18.91762566,1.490867581,0.727794776,-1.856666851,90.62680299,2.689247379,0.042973409,-0.069719868,53.1404935,17.06082609,-0.035176505,0.576334006,-1.417662859,90.54420378,2.686411739,0.090908332,-0.044792914,120.4015566,31.50809475,14.18869202
1571103811,120.4015733,31.50816236,725.6739658,0.649427632,1.425574403,-89.91087868,52.26811792,-16.851981,0.07523726,45.59867046,19.28434004,1.491938015,0.887066128,-1.875971668,90.60570704,2.754615394,0.041427921,-0.064927424,53.12225129,17.41212696,-0.032477304,0.649427632,-1.425574403,90.53514431,2.744400388,0.138979314,-0.035164193,120.4015527,31.50809469,14.18976348
1571103811,120.4015692,31.50816217,725.9146081,0.535406469,1.409735293,-89.95289551,52.24705169,-17.24335738,0.071038132,45.58117982,19.66016759,1.49562544,0.843327764,-1.966643694,90.61790781,2.910162638,0.117820087,-0.079336253,53.09692215,17.80325059,-0.028278176,0.535406469,-1.409735293,90.57716113,2.851112624,0.154586391,-0.039000784,120.4015488,31.50809457,14.19345193
1571103812,120.401563,31.50816204,725.8229349,0.438479579,1.312392082,-89.9220464,52.23263846,-17.83137184,0.072639629,45.56474927,20.04919208,1.496381506,0.653589751,-1.767219162,90.64834083,2.9684456,0.061543054,-0.065625028,53.07610321,18.39107312,-0.029879673,0.438479579,-1.312392082,90.54631203,3.019652447,0.118544516,-0.061185596,120.4015447,31.50809446,14.19420909
1571103812,120.4015584,31.50816189,725.8802307,0.527936164,1.450038236,-89.90418079,52.21600745,-18.26169586,0.071640709,45.55523749,20.45177683,1.500785554,0.892178037,-1.955172077,90.59685273,3.07765199,0.05876281,-0.066739647,53.05478468,18.82119039,-0.028880754,0.527936164,-1.450038236,90.52844642,3.13186994,0.12854297,-0.065260416,120.4015404,31.50809442,14.19861436
1571103812,120.4015541,31.50816173,725.9661743,0.46297825,1.563624017,-89.92075094,52.19826764,-18.67492091,0.070141758,45.54164408,20.86847599,1.505524732,0.802849113,-2.01363105,90.61659877,3.176456841,0.070025809,-0.062584886,53.03254372,19.23419763,-0.027381802,0.46297825,-1.563624017,90.54501657,3.226651863,0.180276951,-0.085836581,120.401536,31.50809433,14.20335479
1571103812,120.4015496,31.50816153,726.0864955,0.244706804,1.685276348,-89.89105566,52.17609274,-19.10239511,0.068042841,45.52649683,21.29963949,1.51225642,0.587259844,-2.162148056,90.58030147,3.297705685,0.082095721,-0.075112527,53.00571269,19.66140486,-0.025282886,0.244706804,-1.685276348,90.51532128,3.352425211,0.148634104,-0.080462815,120.4015315,31.50809424,14.21008779
1571103812,120.4015449,31.50816138,726.2240053,0.236141786,1.709667551,-89.92354534,52.15946181,-19.54506838,0.065644044,45.51318795,21.74782207,1.515179641,0.572689296,-2.182001302,90.60777317,3.420239133,0.052350479,-0.110933822,52.9842597,20.10387066,-0.022884089,0.236141786,-1.709667551,90.54781097,3.466458883,0.13190638,-0.078000241,120.4015268,31.50809416,14.21301243
1571103812,120.4015397,31.50816119,726.4302701,0.164369788,1.68528208,-89.84361624,52.13839587,-20.03998852,0.062045406,45.50359238,22.21235116,1.518113202,0.559507394,-2.168516696,90.53234648,3.54279621,0.060672555,-0.113514988,52.95780273,20.5985319,-0.019285451,0.164369788,-1.68528208,90.46788187,3.58723299,0.171753224,-0.084227947,120.4015219,31.50809412,14.21594753
1571103812,120.4015347,31.50816104,726.6193462,0.139568454,1.677248045,-89.87640472,52.12176505,-20.51305996,0.058746771,45.48745905,22.69562351,1.52081615,0.450086409,-2.142980054,90.53865111,3.641309358,0.071783964,-0.110655223,52.93601865,21.07139407,-0.015986816,0.139568454,-1.677248045,90.50067034,3.6848728,0.115845553,-0.084472233,120.4015168,31.50809403,14.21865206
1571103812,120.4015292,31.5081609,726.8943659,0.270281021,1.644401472,-89.80162332,52.10624315,-21.03837825,0.053948353,45.47483636,23.19205893,1.522531257,0.593291751,-2.153499423,90.50692231,3.760968116,0.038686955,-0.131785072,52.91477418,21.59651206,-0.011188397,0.270281021,-1.644401472,90.42588894,3.810454462,0.127065634,-0.070174705,120.4015116,31.50809396,14.22036886
1571103813,120.4015221,31.50816117,727.2954364,0.081575968,1.490943706,-89.95842108,52.13618178,-21.70998761,0.046950848,45.46188867,23.70382176,1.523163849,0.559480445,-2.019774477,90.47645485,3.855824275,0.1243597,-0.124946784,52.93739366,22.26840775,-0.004190892,0.081575968,-1.490943706,90.58268671,3.968673002,0.175890151,-0.063432546,120.4015062,31.50809389,14.22100325
1571103813,120.4015166,31.50816098,727.4730533,-0.097155338,1.442350131,-89.99311945,52.11511599,-22.23150615,0.043852469,45.43724616,24.22842421,1.521674816,0.318615301,-2.00411588,90.51984157,3.964425315,0.105355074,-0.126338618,52.91064704,22.78966581,-0.001092514,-0.097155338,-1.442350131,90.61738507,4.05145077,0.165315249,-0.075723341,120.4015006,31.50809372,14.21951601
1571103813,120.4015111,31.50816082,727.6793181,-0.14578273,1.474772859,-89.99377279,52.09737662,-22.7625241,0.040254195,45.41493622,24.76226995,1.521694057,0.205352986,-1.991819627,90.51268836,4.032329005,0.092954057,-0.112902195,52.88712313,23.32045896,0.00250576,-0.14578273,-1.474772859,90.61803841,4.132865121,0.087546138,-0.077269891,120.401495,31.50809357,14.21953715
1571103813,120.4015049,31.5081607,727.9142308,-0.000492896,1.393715183,-90.04052348,52.08407254,-23.3505386,0.03615621,45.39639543,25.3084829,1.519582844,0.43457046,-1.978716537,90.54381931,4.156177107,0.093986655,-0.162116464,52.86741326,23.90829361,0.006603745,-0.000492896,-1.393715183,90.6647891,4.248726767,0.126695288,-0.074860799,120.4014893,31.50809346,14.21742795
