time,ins1000_lon,ins1000_lat,ins1000_alt,ins1000_roll,ins1000_pitch,ins1000_yaw,ins1000_ned_x,ins1000_ned_y,ins1000_ned_z,algo_pose_x,algo_pose_y,algo_pose_z,algo_roll,algo_pitch,algo_yaw,algo_vel_x,algo_vel_y,algo_vel_z,align_pose_x,align_pose_y,align_pose_z,align_roll,align_pitch,align_yaw,align_vel_x,align_vel_y,align_vel_z,algo_lon,algo_lat,algo_alt
1571104381,120.4017647,31.50770198,718.7526357,-0.666800748,0.84855172,7.655990635,0,0,0,1.485502945,0.051187402,0.005209072,0.432188593,-1.878836705,0.181947225,1.446864988,0.040116149,-0.034109738,1.485502945,0.051187402,0.005209072,-0.666800748,-0.84855172,2.187299508,1.539883564,-0.008324888,-0.00160203,120.4017647,31.50770198,12.54460001
1571104381,120.4017649,31.50770355,718.8500385,-0.621359786,0.845299256,7.609846012,0.174079167,0.023748682,-0.001699997,1.683639345,0.058000306,0.005141443,0.471314154,-1.772798587,0.22714321,1.576870448,0.05984728,-0.047958172,1.661079427,0.057547852,0.006909069,-0.621359786,-0.845299256,2.233444131,1.641554879,0.00029959,-0.01061593,120.401765,31.50770375,12.54453238
1571104381,120.4017652,31.50770505,718.9187934,-0.656017724,0.847297951,7.56384232,0.340396843,0.044647517,-0.002899991,1.871917088,0.065452061,0.005254618,0.485981801,-1.780771075,0.275348544,1.676189758,0.070697137,-0.046483082,1.828521482,0.065389336,0.008109063,-0.656017724,-0.847297951,2.279447823,1.720304262,0.022682977,-0.012281641,120.4017652,31.50770544,12.54464556
1571104381,120.4017654,31.50770647,719.0276554,-0.700612775,0.872891422,7.51761708,0.497844242,0.063646462,-0.00479998,2.058799205,0.072567909,0.010772916,0.474522491,-1.956162298,0.315889001,1.771427388,0.072676503,-0.030092397,1.986899045,0.073586334,0.010009052,-0.700612775,-0.872891422,2.325673063,1.795989281,0.009085428,0.002651055,120.4017655,31.50770711,12.55016388
1571104381,120.4017656,31.50770811,719.2224611,-0.691418541,0.848678931,7.414171125,0.679684902,0.087395138,-0.008199963,2.250244088,0.082563682,0.016140204,0.448238739,-2.02018576,0.417852219,1.871682257,0.070343832,-0.048391003,2.170122762,0.081273647,0.013409035,-0.691418541,-0.848678931,2.429119018,1.882814064,0.005768453,0.000982104,120.4017657,31.50770882,12.55553118
1571104381,120.4017659,31.50770983,719.3141343,-0.793505881,0.877631482,7.333164117,0.870395837,0.110193867,-0.009799939,2.462853674,0.095964069,0.01722007,0.428929193,-2.014441086,0.510605135,1.972802195,0.111179078,-0.052085133,2.361923777,0.091413331,0.015009011,-0.793505881,-0.877631482,2.510126026,1.963527746,0.051904323,-0.024261718,120.401766,31.50771073,12.55661108
1571104382,120.4017659,31.5077118,716.7358242,-0.990202904,0.887575771,7.044915063,1.088826377,0.113993651,0.035200094,2.665872007,0.112160629,0.018295027,0.289376001,-2.03659479,0.596880386,2.05353231,0.161682354,-0.06562569,2.577788393,0.125011054,-0.029991022,-0.990202904,-0.887575771,2.79837508,2.04063825,0.059217314,-0.047800142,120.4017662,31.50771256,12.55768607
1571104382,120.4017661,31.50771368,716.6212327,-1.092623101,0.926369875,6.848588555,1.297277863,0.134892485,0.037200134,2.869380479,0.130979045,0.016615746,0.152782524,-2.057461064,0.780797516,2.155901684,0.150399139,-0.078289171,2.786744006,0.140055482,-0.031991062,-1.092623101,-0.926369875,2.994701588,2.144500379,0.022799454,-0.054753621,120.4017664,31.5077144,12.55600683
1571104382,120.4017664,31.50771565,716.5295594,-1.045011285,0.979154609,6.66476921,1.515708409,0.161491001,0.038800182,3.091101427,0.149466443,0.019146605,0.167336434,-2.137209248,0.972347321,2.272986938,0.114827076,-0.082238648,3.006506162,0.151190095,-0.03359111,-1.045011285,-0.979154609,3.178520933,2.264850853,-0.028701903,-0.048641798,120.4017666,31.5077164,12.55853774
1571104382,120.4017667,31.50771774,716.4493453,-0.900025265,0.9236686,6.528490378,1.74744437,0.190939354,0.040200244,3.317994707,0.165318736,0.019145642,0.360413222,-2.150544865,1.114698559,2.376799675,0.116633456,-0.125146347,3.239865054,0.161791436,-0.034991172,-0.900025265,-0.9236686,3.314799765,2.3931776,-0.023108791,-0.062057544,120.4017668,31.50771844,12.55853684
1571104382,120.401767,31.50771993,716.277458,-0.765546794,0.891648846,6.334632511,1.990268174,0.220387707,0.043200315,3.534165775,0.18339866,0.020169229,0.536255329,-2.229263685,1.284998688,2.459773416,0.161845234,-0.127066296,3.484148566,0.174288287,-0.037991243,-0.765546794,-0.891648846,3.508657632,2.503360249,-0.018223818,-0.07431533,120.401767,31.50772039,12.55956049
1571104382,120.4017673,31.50772247,716.0654636,-0.652598228,0.895247459,6.059625084,2.271899436,0.251735952,0.046900412,3.765761377,0.205032199,0.025665311,0.685080474,-2.376181347,1.530155475,2.565502453,0.195963122,-0.12407303,3.766993045,0.191547504,-0.04169134,-0.652598228,-0.895247459,3.783665059,2.662462663,0.002600201,-0.074083564,120.4017672,31.50772248,12.56505666
1571104382,120.4017676,31.50772467,715.9680608,-0.522959929,0.772424363,5.820284358,2.515832026,0.278334462,0.048600505,4.010458976,0.228985198,0.037700279,0.768923335,-2.608554973,1.797667276,2.675646775,0.157697968,-0.142395873,4.011881828,0.207041799,-0.043391433,-0.522959929,-0.772424363,4.023005785,2.788689903,-0.024330127,-0.040721605,120.4017674,31.50772469,12.57709172
1571104382,120.4017679,31.50772722,716.0253566,-0.406054245,0.616292164,5.557816746,2.798572074,0.308732754,0.047600624,4.329944371,0.258925912,0.04337861,0.930752145,-2.56564545,2.066530161,2.828361677,0.195016088,-0.113510697,4.295656373,0.225426536,-0.042391552,-0.406054245,-0.616292164,4.285473397,2.878947403,-0.013056242,-0.011759803,120.4017677,31.50772758,12.58277018
1571104382,120.4017682,31.50772981,716.2144326,-0.416557957,0.420663663,5.271761638,3.085747262,0.334381313,0.044300758,4.62109004,0.290201533,0.059097029,1.123105992,-2.671902947,2.355847203,2.857226464,0.223952622,-0.106681642,4.582988782,0.24924929,-0.039091686,-0.416557957,-0.420663663,4.571528505,2.891899025,0.035382022,0.021326334,120.4017679,31.50773021,12.59848874
1571104382,120.4017684,31.50773241,716.426427,-0.516151887,0.263385042,4.996834966,3.374031234,0.355280137,0.040600907,4.917190278,0.326903895,0.070179731,1.115100317,-2.627683904,2.64926181,2.864291114,0.230308728,-0.072514354,4.870601668,0.277941411,-0.035391835,-0.516151887,-0.263385042,4.846455177,2.870036461,0.063536857,0.009279508,120.401768,31.5077329,12.6095716
1571104383,120.401768,31.50773505,718.259892,-0.742953862,0.393022336,4.020376949,3.666750359,0.31538236,0.008601066,5.206237165,0.365894302,0.084007368,1.011144675,-2.75181215,2.899896516,2.892645777,0.214600469,-0.039912396,5.152190995,0.367293353,-0.003391994,-0.742953862,-0.393022336,5.822913194,2.856982352,0.080892071,-0.006249213,120.4017681,31.50773553,12.6233994
1571104383,120.4017682,31.50773765,718.2656216,-0.79732053,0.507851229,3.77888363,3.955034332,0.331531449,0.008501239,5.487764459,0.403427903,0.096819684,0.964552931,-2.936812448,3.135668498,2.940219588,0.216603502,-0.032899391,5.438991895,0.400665287,-0.003292167,-0.79732053,-0.507851229,6.064406513,2.920156659,0.008693457,-0.029366012,120.4017682,31.50773809,12.63621189
1571104383,120.4017684,31.50774031,718.2484328,-0.703085279,0.640156145,3.434506251,4.249971012,0.352430267,0.008801432,5.789863623,0.443734993,0.108223485,1.092885974,-3.100587857,3.454206708,3.023283542,0.219798833,-0.0654711,5.733159552,0.430494719,-0.00359236,-0.703085279,-0.640156145,6.408783892,3.002313625,-0.049522488,-0.032555777,120.4017684,31.50774083,12.64761589
1571104383,120.4017686,31.50774304,718.259892,-0.485129982,0.701157413,3.148765499,4.552669183,0.374279033,0.008601643,6.097231593,0.484098428,0.1221866,1.355306012,-3.250629721,3.780839957,3.078124844,0.15201617,-0.086243474,6.035136842,0.460715046,-0.003392571,-0.485129982,-0.701157413,6.694524644,3.049401715,-0.037466845,-0.033337038,120.4017685,31.50774363,12.66157922
1571104383,120.4017688,31.5077458,718.3286469,-0.359194067,0.75421071,2.89705362,4.858693708,0.392328011,0.007401869,6.397029563,0.522827635,0.133828129,1.553737316,-3.348068893,4.023195762,3.105561881,0.206268797,-0.067528261,6.339741929,0.495247878,-0.002192797,-0.359194067,-0.75421071,6.946236523,3.084851593,-0.00474545,-0.023238365,120.4017686,31.50774635,12.67322098
1571104383,120.401769,31.50774887,718.2083258,-0.297560878,1.049684167,2.55300893,5.199090552,0.411326932,0.009502141,6.702255233,0.566546443,0.147714044,1.653780169,-3.560523097,4.332758229,3.150449228,0.214343483,-0.026207681,6.678375737,0.534720836,-0.004293069,-0.297560878,-1.049684167,7.290281213,3.142271344,-0.016831698,-0.073365288,120.4017687,31.50774913,12.68710714
1571104383,120.4017692,31.50775146,718.2140554,-0.285542073,1.174877288,2.335116914,5.486265741,0.423676228,0.009402383,7.005032634,0.609983753,0.163584248,1.629701677,-3.777515804,4.614256077,3.230975779,0.155336383,-0.071991808,6.963434585,0.571647074,-0.00419331,-0.285542073,-1.174877288,7.508173229,3.248644893,0.014517989,-0.046448349,120.4017688,31.50775189,12.70297761
1571104383,120.4017693,31.50775444,718.4203202,-0.40088484,1.222576151,2.173136218,5.816683529,0.434125628,0.005802678,7.313064727,0.657329356,0.181910646,1.693822754,-3.942525945,4.783667602,3.319762822,0.202342007,-0.114147322,7.290774664,0.617837737,-0.000593606,-0.40088484,-1.222576151,7.670153925,3.374196197,0.041836611,-0.024006466,120.4017689,31.5077547,12.72130428
1571104383,120.4017694,31.50775753,718.6609624,-0.520510432,1.097409617,1.897440577,6.159297946,0.444575027,0.001603003,7.638917196,0.710793777,0.199269034,1.719339613,-3.976876796,5.030391218,3.389406394,0.255037312,-0.146804756,7.630131826,0.666113462,0.003606069,-0.520510432,-1.097409617,7.945849566,3.456029367,-0.013956158,-0.03522538,120.4017689,31.50775768,12.73866298
1571104383,120.4017695,31.50776069,718.7984723,-0.455211852,1.037846041,1.623292857,6.509673856,0.45882421,-0.000796648,7.976506978,0.763447314,0.211487737,1.869398457,-3.90756155,5.329006185,3.464409056,0.184101603,-0.1441972,7.977785811,0.711972197,0.00600572,-0.455211852,-1.037846041,8.219997286,3.541683695,-0.052624397,-0.04567691,120.401769,31.50776076,12.75088202
1571104384,120.4017691,31.50776381,720.024602,-0.276527606,1.136938615,1.005736774,6.855614645,0.417976493,-0.022196287,8.325705951,0.812625018,0.222033751,2.225654338,-3.871187294,5.525450364,3.560352011,0.139333926,-0.135893794,8.311650931,0.81135855,0.02740536,-0.276527606,-1.136938615,8.837553369,3.597034203,-0.055200757,-0.035546199,120.4017691,31.50776394,12.76142841
1571104384,120.4017692,31.50776708,720.282433,-0.130173838,1.066605351,0.789536525,7.218187188,0.428425893,-0.026695884,8.678156527,0.861974443,0.230365949,2.619697477,-3.742550268,5.728680536,3.599570039,0.18693866,-0.133709058,8.670672416,0.863046195,0.031904956,-0.130173838,-1.066605351,9.053753618,3.641081697,-0.018231551,-0.002519501,120.4017692,31.50776714,12.769761
1571104384,120.4017692,31.50777035,720.757988,-0.224901056,0.89495063,0.548278917,7.580759736,0.431275716,-0.034995463,9.031095916,0.91848316,0.240070497,2.720942051,-3.558659042,5.977892319,3.572811854,0.230597325,-0.115818875,9.028394727,0.922221545,0.040204535,-0.224901056,-0.89495063,9.295011226,3.627588542,0.035946822,0.040186264,120.4017693,31.50777037,12.77946597
1571104384,120.4017692,31.50777361,721.27365,-0.341482673,0.768817841,0.341482673,7.9422235,0.42937581,-0.043995021,9.385516596,0.976963667,0.249208884,2.891524403,-3.311574722,6.180338468,3.567139266,0.218851015,-0.082956038,9.384212592,0.985887152,0.049204093,-0.341482673,-0.768817841,9.50180747,3.598451002,0.042147955,0.016268916,120.4017693,31.50777361,12.7886048
1571104384,120.4017692,31.50777684,721.571588,-0.423498106,0.722242741,0.077544969,8.300360908,0.430325742,-0.049194564,9.729350853,1.037114433,0.258887484,3.071755196,-3.197715722,6.450108322,3.535087678,0.20879915,-0.087269027,9.737240259,1.04617622,0.054403636,-0.423498106,-0.722242741,9.765745174,3.568654093,-0.034681576,0.001360294,120.4017693,31.50777676,12.79828384
1571104384,120.4017693,31.50778038,721.8523374,-0.241824608,0.733020946,-0.184893194,8.692870637,0.435075458,-0.054094038,10.06443004,1.099641682,0.271609994,3.080626549,-3.322088652,6.685773468,3.492345195,0.168678016,-0.08284671,10.12478384,1.108597525,0.05930311,-0.241824608,-0.733020946,10.02818334,3.542314701,-0.067505092,-0.006203277,120.4017693,31.50777983,12.8110068
1571104384,120.4017693,31.50778324,722.0700613,0.031542757,0.859582383,-0.377914173,9.009983017,0.441725071,-0.057893595,10.39963123,1.155245984,0.289752084,3.199512188,-3.47874506,6.899953166,3.460954386,0.12425075,-0.030889165,10.43836479,1.156257424,0.063102668,0.031542757,-0.859582383,10.22120432,3.514027901,-0.086680214,-0.0047702,120.4017693,31.50778289,12.82914937
1571104384,120.4017694,31.50778641,722.3278923,0.200754445,1.066729131,-0.5940613,9.361467719,0.444574894,-0.062393087,10.76847582,1.21700929,0.31457928,3.106177787,-3.795327956,7.106809427,3.478748498,0.166222147,-0.030677277,10.78516248,1.213537262,0.067602159,0.200754445,-1.066729131,10.43735144,3.537362558,-0.030076151,-0.028354308,120.4017693,31.50778627,12.8539771
1571104384,120.4017693,31.50778961,722.5456163,0.17483069,1.204481523,-0.811829966,9.716278773,0.440775093,-0.066192554,11.13191835,1.282604815,0.340173629,2.837347261,-4.14079961,7.31189391,3.54782528,0.198515184,-0.079541014,11.13410078,1.277937489,0.071401626,0.17483069,-1.204481523,10.65512011,3.597108729,0.026065201,-0.024698545,120.4017693,31.5077896,12.87957201
1571104384,120.4017692,31.5077929,722.8091769,-0.171414398,1.190242705,-1.056098553,10.08106889,0.42747583,-0.070791986,11.49713165,1.356427895,0.358463624,2.332125755,-4.138829415,7.543750564,3.648734011,0.280645042,-0.162169777,11.49124726,1.353403296,0.076001058,-0.171414398,-1.190242705,10.8993887,3.701291495,0.079871735,-0.024150234,120.4017692,31.50779296,12.89786258
1571104385,120.4017689,31.50779626,717.6296384,-0.311903805,1.061752707,-1.504103525,10.45362034,0.402777207,0.019608613,11.87193768,1.430957128,0.362531232,1.948729186,-3.970538598,7.78011751,3.735954193,0.222255874,-0.154229443,11.85409206,1.441427485,-0.014399541,-0.311903805,-1.061752707,11.34739367,3.751805745,-0.01683205,-0.047721549,120.4017691,31.5077964,12.90193081
1571104385,120.4017689,31.50779967,717.7270412,-0.222332061,1.07393476,-1.709713273,10.83171587,0.397077516,0.017909246,12.24897461,1.500207172,0.366461254,1.772751519,-3.805928571,7.991526598,3.818908483,0.142498422,-0.100385933,12.22564726,1.511680206,-0.012700174,-0.222332061,-1.07393476,11.55300342,3.796192704,-0.121595342,-0.060733405,120.401769,31.50779986,12.90586147
1571104385,120.4017689,31.50780311,717.8874694,0.235460434,1.012416395,-1.888886846,11.21313774,0.400877287,0.015109909,12.62368651,1.564939117,0.375369264,2.063590823,-3.733320789,8.177856834,3.820310248,0.089120396,-0.15983735,12.60210382,1.57314196,-0.009900837,0.235460434,-1.012416395,11.73217699,3.80725901,-0.15588072,-0.025934532,120.401769,31.50780329,12.91477014
1571104385,120.4017689,31.50780653,718.2197849,0.548377328,0.731965472,-2.07079261,11.59234206,0.400877273,0.009310589,13.00487019,1.635279337,0.392516535,2.331982233,-3.632722557,8.373561647,3.799765044,0.117289711,-0.180298266,12.97572587,1.637968462,-0.004101517,0.548377328,-0.731965472,11.91408275,3.786627679,-0.076960096,0.010964271,120.401769,31.50780678,12.93191811
1571104385,120.4017688,31.50780994,718.5005342,0.471697681,0.501940367,-2.209718632,11.97043759,0.389477904,0.004411289,13.37026436,1.706294556,0.404935699,2.249441435,-3.443797574,8.523174097,3.760057384,0.196933028,-0.144376352,13.3463067,1.713836957,0.000797783,0.471697681,-0.501940367,12.05300878,3.755598337,0.027905044,-0.001930405,120.4017689,31.50781014,12.94433796
1571104385,120.4017686,31.50781332,718.5750188,0.115818642,0.518061746,-2.268546526,12.34520676,0.369529021,0.003112006,13.74741066,1.781905213,0.419199682,1.772726937,-3.411677368,8.611122157,3.782490363,0.163507177,-0.052709853,13.71214855,1.797560453,0.002097066,0.115818642,-0.518061746,12.11183667,3.749415723,0.049739292,-0.038603514,120.4017688,31.50781361,12.95860269
1571104385,120.4017684,31.50781669,718.4948047,-0.188261474,0.833011432,-2.24752465,12.71886714,0.351480035,0.004512742,14.12349865,1.854702206,0.442696429,1.304163568,-3.694301486,8.603890499,3.81533295,0.139957292,0.014023182,14.07722274,1.87922247,0.000696331,-0.188261474,-0.833011432,12.09081479,3.7434784,-0.012432353,-0.062071478,120.4017687,31.50781706,12.98210019
1571104385,120.4017683,31.50782008,718.5979371,-0.170069084,1.074088339,-2.247750151,13.0947451,0.3448304,0.002713504,14.49909647,1.921394658,0.466879145,1.158140657,-3.978996836,8.597613066,3.812409684,0.069966921,-0.037131451,14.44643062,1.950032049,0.002495568,-0.170069084,-1.074088339,12.09104029,3.790170888,-0.137369757,-0.028160564,120.4017687,31.5078205,13.00628368
1571104385,120.4017683,31.50782353,718.8729568,0.069427478,1.136100785,-2.245467838,13.47727577,0.343880441,-0.002085695,14.87771725,1.984849431,0.49179812,1.390366574,-4.111859008,8.594817137,3.885716347,0.03452807,-0.084232053,14.82316766,2.016363164,0.007294767,0.069427478,-1.136100785,12.08875798,3.858963602,-0.137141482,-0.034453866,120.4017687,31.50782397,13.03120346
1571104385,120.4017683,31.50782704,719.0505737,0.253541367,1.105290389,-2.232253649,13.86645914,0.34103059,-0.005184857,15.24144713,2.042506094,0.505395477,1.656436502,-4.054122521,8.586110565,3.900850742,0.05420859,-0.140727709,15.20613468,2.08570351,0.010393929,0.253541367,-1.105290389,12.07554379,3.901901388,-0.094593839,-0.051958407,120.4017688,31.50782729,13.04480162
1571104386,120.401768,31.50783118,716.1514073,0.265942058,1.025473876,-2.301061035,14.32549582,0.318231871,0.045416159,15.6006896,2.104369612,0.512742824,1.893660464,-3.920296591,8.560104995,3.898615914,0.08528165,-0.144619827,15.65451635,2.186640757,-0.040207087,0.265942058,-1.025473876,12.14435118,3.913956862,-0.062262948,-0.091574554,120.4017688,31.50783057,13.05214977
1571104386,120.401768,31.50783436,715.9909791,0.264552106,1.11703021,-2.255034462,14.67808929,0.309682349,0.048216964,15.98070696,2.172335428,0.522421239,2.022678636,-3.964840016,8.523124003,3.919923236,0.081745173,-0.117516825,16.00045773,2.255341679,-0.043007892,0.264552106,-1.11703021,12.09832461,3.927604744,-0.075827811,-0.103237829,120.4017688,31.50783406,13.06182906
1571104386,120.4017679,31.50783793,715.9852495,0.331105129,1.244242414,-2.231326897,15.07392536,0.303032716,0.048317891,16.35769376,2.23626072,0.537649301,2.18262592,-4.059345962,8.497101329,3.933454725,0.071627545,-0.093713513,16.38932992,2.329563175,-0.043108818,0.331105129,-1.244242414,12.07461704,3.971511268,-0.093201368,-0.051013475,120.4017688,31.50783751,13.07705802
1571104386,120.4017678,31.50784154,716.3576721,0.458027715,1.212349984,-2.206939258,15.47419659,0.298282976,0.041818853,16.74202428,2.300355959,0.555608274,2.325777502,-4.065377975,8.474280938,3.984433268,0.054553691,-0.104024156,16.78289677,2.402670954,-0.036609781,0.458027715,-1.212349984,12.0502294,4.049810168,-0.101486938,0.00122586,120.4017688,31.50784102,13.09501793
1571104386,120.4017677,31.50784522,716.7873904,0.427062833,1.03975545,-2.196452734,15.88222931,0.289733453,0.034319859,17.12760523,2.364584511,0.56981026,2.475088022,-3.874707494,8.460356314,4.014253554,0.105338112,-0.142170175,17.18346128,2.480849438,-0.029110787,0.427062833,-1.03975545,12.03974288,4.092902786,-0.035311495,-0.017910762,120.4017688,31.50784454,13.10922087
1571104386,120.4017676,31.50784928,716.9764665,0.165039053,0.965905917,-2.176021941,16.33239584,0.272634417,0.031021001,17.52120526,2.437070521,0.585854336,2.317860494,-3.751378195,8.459491035,4.031936915,0.13644007,-0.105157347,17.62407776,2.574654518,-0.025811929,0.165039053,-0.965905917,12.01931208,4.085544068,0.011865867,-0.067715892,120.4017688,31.50784815,13.12526596
1571104386,120.4017674,31.50785259,716.9363595,-0.021339828,1.12284455,-2.177622158,16.69940351,0.260285115,0.031721953,17.91611847,2.512155955,0.603434068,2.178790735,-3.84242181,8.444103554,4.037374826,0.143918011,-0.058460293,17.98357155,2.649563449,-0.026512881,-0.021339828,-1.12284455,12.0209123,4.088536425,-0.068608074,-0.091562423,120.4017687,31.50785178,13.14284673
1571104386,120.4017674,31.5078563,716.9650074,0.111054584,1.366027563,-2.222140254,17.11076257,0.257435267,0.031223049,18.32168126,2.583155214,0.627102357,2.277091764,-4.080295233,8.480934596,4.086699918,0.05941608,-0.049633587,18.38838781,2.722694814,-0.026013977,0.111054584,-1.366027563,12.0654304,4.127304789,-0.169828985,-0.074884895,120.4017687,31.50785549,13.1665161
1571104386,120.4017674,31.50786006,717.1884609,0.408346809,1.406186467,-2.21845277,17.52766556,0.257435257,0.027324184,18.73302228,2.647461304,0.64476227,2.563145997,-4.156299314,8.472429014,4.14879505,0.025578565,-0.140226783,18.79915358,2.79396605,-0.022115112,0.408346809,-1.406186467,12.06174291,4.222157408,-0.161019837,-0.050181403,120.4017688,31.50785925,13.18417715
1571104386,120.4017674,31.5078639,717.5093173,0.618158663,1.226849101,-2.216845264,17.95343884,0.255535354,0.021725373,19.13828414,2.716550503,0.663049126,2.809028075,-4.049813941,8.463506392,4.171045778,0.087022506,-0.172000737,19.21833425,2.868625621,-0.016516301,0.618158663,-1.226849101,12.06013541,4.264665082,-0.117874527,-0.038950177,120.4017688,31.50786295,13.20246514
1571104387,120.401767,31.50786838,715.5154241,0.393738429,1.050058945,-2.059229755,18.4501742,0.218487466,0.056526795,19.54387988,2.789043176,0.673174886,2.85229862,-3.882052468,8.501398311,4.196870999,0.158528258,-0.186488121,19.7014237,2.990047015,-0.051317723,0.393738429,-1.050058945,11.9025199,4.294776239,0.033309753,-0.095152989,120.4017688,31.50786667,13.21259208
1571104387,120.4017668,31.50787227,715.3779143,0.00526863,0.997203172,-2.02841858,18.88149137,0.197588658,0.058928062,19.95587301,2.867878915,0.684085409,2.403705866,-3.831218329,8.485699547,4.219734519,0.146928071,-0.162836825,20.12281872,3.084373559,-0.05371899,0.00526863,-0.997203172,11.87170872,4.325117253,0.064608798,-0.093992787,120.4017687,31.50787045,13.22350382
1571104387,120.4017666,31.50787617,715.4409396,-0.418595353,0.978198776,-2.043495654,19.31391734,0.176689852,0.057829362,20.38042914,2.947342428,0.693695434,1.915317927,-3.807677954,8.477591721,4.256497766,0.193331525,-0.120905374,20.54530622,3.178889655,-0.05262029,-0.418595353,-0.978198776,11.8867858,4.347543806,0.020700003,-0.028274761,120.4017687,31.50787435,13.23311513
1571104387,120.4017664,31.50788011,715.8362805,-0.429154806,0.897538424,-2.112029816,19.75077846,0.166240444,0.050930704,20.79586532,3.026770429,0.711798157,1.669265203,-3.760074531,8.542460726,4.270304922,0.112879681,-0.093940673,20.97394995,3.263868386,-0.045721631,-0.429154806,-0.897538424,11.95531996,4.384937485,-0.120268851,0.015014309,120.4017686,31.50787816,13.25121914
1571104387,120.4017664,31.50788406,716.2029735,-0.131119649,0.891551432,-2.121146131,20.18874837,0.164340547,0.044532081,21.21452113,3.095700284,0.726537,1.853773168,-3.636086471,8.57343545,4.288731092,0.030576264,-0.056862656,21.40514771,3.340613013,-0.039323009,-0.131119649,-0.891551432,11.96443627,4.384122369,-0.156587241,-0.039779639,120.4017686,31.50788199,13.2659593
1571104387,120.4017664,31.50788804,716.2659988,0.177310628,0.943128829,-2.130124134,20.63004462,0.163390593,0.043433498,21.63213822,3.162059582,0.741866307,2.243294931,-3.705068989,8.569494845,4.325142404,0.063175464,-0.138108405,21.83978525,3.416990333,-0.038224426,0.177310628,-0.943128829,11.97341428,4.4280413,-0.131334609,-0.075289563,120.4017687,31.5078858,13.28128995
1571104387,120.4017663,31.50789205,716.0368157,0.222180139,1.001250016,-2.11818465,21.0746672,0.153891134,0.047434957,22.05955294,3.234341649,0.750338666,2.398233782,-3.67742062,8.573651063,4.335411563,0.094650416,-0.174358476,22.27623857,3.502359952,-0.042225885,0.222180139,-1.001250016,11.96147479,4.455493346,-0.016471084,-0.134013879,120.4017687,31.50788971,13.28976371
1571104387,120.4017661,31.50789608,715.8133622,-0.065020628,1.064724578,-2.063441967,21.52150735,0.136792115,0.051336456,22.47799887,3.311120649,0.759040452,2.201307424,-3.762531451,8.52069401,4.350805117,0.142579207,-0.158922689,22.71357765,3.595596359,-0.046127384,-0.065020628,-1.064724578,11.90673211,4.485225668,0.018187071,-0.091939223,120.4017687,31.50789355,13.29846691
1571104387,120.401766,31.50790015,715.9623312,-0.326626381,0.968403222,-2.031224814,21.97278266,0.119693096,0.048738,22.9085913,3.390258465,0.769481318,1.942691749,-3.734306925,8.483279149,4.389084252,0.142196811,-0.188421641,23.1552866,3.689590974,-0.043528928,-0.326626381,-0.968403222,11.87451496,4.561116368,-0.004411928,-0.026016805,120.4017686,31.5078975,13.30890925
1571104387,120.4017659,31.50790428,716.2201622,-0.334474223,0.773475263,-2.007806415,22.43071069,0.110193639,0.044239599,23.34866432,3.466769226,0.778378613,1.795978297,-3.52516871,8.467334679,4.439003815,0.068256325,-0.172426252,23.60484951,3.777235209,-0.039030527,-0.334474223,-0.773475263,11.85109656,4.585020679,-0.145589816,-0.023546849,120.4017686,31.50790152,13.31780809
1571104388,120.4017656,31.50790923,715.4753171,-0.045398533,0.67541027,-1.868318172,22.97955898,0.082645226,0.057241562,23.79439075,3.537230861,0.791751231,2.080502141,-3.410489149,8.447640425,4.444787594,-0.015925581,-0.106403863,24.1409087,3.898205883,-0.05203249,-0.045398533,-0.67541027,11.71160831,4.575359478,-0.155633121,-0.018458293,120.4017687,31.50790559,13.33118229
1571104388,120.4017655,31.50791335,715.5211537,0.113499558,0.826921397,-1.741012744,23.43637821,0.078845441,0.05644323,24.2393151,3.602763768,0.811795596,2.282180828,-3.491728227,8.318354261,4.444695534,0.025766069,-0.064408358,24.59035351,3.980044797,-0.051234158,0.113499558,-0.826921397,11.58430289,4.576949335,-0.073478234,-0.083917896,120.4017688,31.50790965,13.35122827
1571104388,120.4017654,31.50791749,715.4294805,0.121294458,1.090516824,-1.706474927,23.895415,0.070295932,0.05804494,24.67844543,3.673381125,0.833269401,2.326602559,-3.704266817,8.24245934,4.468751837,0.110648226,-0.075294464,25.04117126,4.066942616,-0.052835868,0.121294458,-1.090516824,11.54976507,4.609328386,-0.027964333,-0.07998003,120.4017689,31.50791366,13.3727037
1571104388,120.4017653,31.50792167,715.6414749,-0.005221117,1.13447212,-1.684763189,24.35888695,0.05889659,0.054346699,25.1234813,3.749546742,0.853548899,2.11250166,-3.825409571,8.231146005,4.508461105,0.095926413,-0.119626464,25.49587168,4.157406522,-0.049137627,-0.005221117,-1.13447212,11.52805333,4.652492118,-0.029195186,-0.049126888,120.4017689,31.50791773,13.39298489
1571104388,120.4017652,31.50792587,715.7904439,-0.177496099,1.223747544,-1.594934429,24.82457646,0.046547303,0.051748502,25.57186694,3.825059996,0.873740424,2.048491765,-3.888526962,8.132449307,4.511527173,0.095413894,-0.10940876,25.95259462,4.249185492,-0.04653943,-0.177496099,-1.223747544,11.43822457,4.662994172,-0.000840847,-0.086409361,120.4017689,31.50792183,13.41317814
1571104388,120.4017651,31.50793008,715.8305509,-0.270729487,1.383036698,-1.539010005,25.29137475,0.037047853,0.051050343,26.01290484,3.898031355,0.895353707,1.877922086,-4.011253753,8.053494815,4.529429239,0.09022323,-0.11451479,26.41089721,4.338346127,-0.045841271,-0.270729487,-1.383036698,11.38230015,4.673557252,-0.068529852,-0.093053776,120.4017689,31.50792586,13.43479315
1571104388,120.401765,31.50793433,716.0654636,-0.338744431,1.336306853,-1.528233462,25.7626082,0.030398235,0.046952236,26.44803946,3.968734495,0.911234212,1.973147659,-4.065286395,8.051610667,4.543227099,0.075415178,-0.182994784,26.87405686,4.425457088,-0.041743164,-0.338744431,-1.336306853,11.3715236,4.74591948,-0.048624093,-0.062584339,120.401769,31.50792984,13.4506754
1571104388,120.4017649,31.50793862,716.2831876,-0.392272394,1.210252489,-1.333478283,26.23827678,0.022798678,0.043154185,26.85863441,4.030109142,0.925751733,2.007605671,-3.940384159,7.904980548,4.516219942,0.011596237,-0.185719941,27.34142396,4.514262211,-0.037945113,-0.392272394,-1.210252489,11.17676843,4.766325802,-0.047481546,-0.067212666,120.4017691,31.50793358,13.46519458
1571104388,120.4017649,31.50794292,716.5238299,-0.411233187,1.061845542,-1.092506724,26.71505415,0.018998897,0.038956171,27.27598128,4.085823851,0.94331647,2.123293745,-3.822228519,7.662713087,4.487720827,-0.03459387,-0.160625127,27.8105331,4.599513044,-0.033747099,-0.411233187,-1.061845542,10.93579687,4.767976351,-0.073208066,-0.044092475,120.4017693,31.50793738,13.48276103
1571104388,120.4017649,31.50794723,716.7644721,-0.477172599,0.981960222,-0.852136204,27.1929403,0.018048952,0.034758199,27.70488996,4.137558022,0.957572585,2.11512821,-3.745316798,7.427182935,4.489071404,-0.032760795,-0.14546917,28.2812219,4.682145545,-0.029549127,-0.477172599,-0.981960222,10.69542635,4.788391113,-0.073961409,-0.043585314,120.4017695,31.50794127,13.49701894
1571104389,120.4017646,31.50795243,717.3718074,-0.4862363,0.937095917,-0.599907088,27.76950831,-0.0085495,0.024160693,28.14813829,4.194595277,0.976146338,2.277061959,-3.680928172,7.164736369,4.486468204,-0.021826772,-0.120923852,28.84475515,4.806919038,-0.018951621,-0.4862363,-0.937095917,10.44319723,4.815508695,-0.047760871,-0.030766586,120.4017697,31.5079453,13.51559457
1571104389,120.4017646,31.50795677,717.6983933,-0.529861399,0.903729425,-0.347952142,28.25072082,-0.006649611,0.018462815,28.58854714,4.248160149,0.995913181,2.242899106,-3.621643769,6.908897917,4.481327374,-0.041228977,-0.090213538,29.31920854,4.887312313,-0.013253743,-0.529861399,-0.903729425,10.19124228,4.814681317,-0.0486967,-0.026393767,120.4017699,31.50794929,13.53536332
1571104389,120.4017647,31.50796111,717.8817398,-0.51628003,0.973765732,-0.073141853,28.73193333,-0.002849832,0.015264972,29.0391315,4.302190919,1.017010344,2.27100743,-3.72306785,6.649656044,4.495131316,-0.027782891,-0.089707797,29.79398671,4.965833664,-0.0100559,-0.51628003,-0.973765732,9.916431996,4.797936645,-0.069460563,-0.051874407,120.4017702,31.50795338,13.55646245
1571104389,120.4017648,31.50796544,718.0708159,-0.365034963,1.054888648,0.179986179,29.21203705,0.007599557,0.011967161,29.50242254,4.354802007,1.034494404,2.30543826,-3.716515341,6.394501792,4.484898262,-0.075662925,-0.112263135,30.2688092,5.037613743,-0.006758089,-0.365034963,-1.054888648,9.663303964,4.799791351,-0.114706209,-0.050005472,120.4017705,31.50795758,13.57394857
1571104389,120.4017649,31.50796976,718.3401061,-0.23719047,1.020737052,0.387497141,29.691032,0.018998891,0.007269383,29.96217315,4.404046546,1.051835916,2.507094381,-3.78677765,6.176805929,4.49640736,-0.021756724,-0.120695372,30.74270163,5.108268311,-0.002060311,-0.23719047,-1.020737052,9.455793002,4.778532104,-0.079727223,-0.038262506,120.4017708,31.50796174,13.59129216
1571104389,120.401765,31.50797406,718.5119934,-0.063378944,1.077460217,0.572414324,30.16780937,0.030398223,0.004271628,30.40362093,4.45099279,1.071004412,2.692411935,-3.779115669,5.97475147,4.44430607,-0.002909193,-0.124599634,31.21440913,5.178543778,0.000937444,-0.063378944,-1.077460217,9.270875819,4.760135459,-0.064874129,-0.063493173,120.4017711,31.50796573,13.61046269
1571104389,120.4017651,31.50797834,718.6896103,-0.176623083,1.089713392,0.708849842,30.64236917,0.039897665,0.001173901,30.88471038,4.509804363,1.088415786,2.567752532,-3.806151101,5.846656787,4.468668213,0.025073615,-0.12559296,31.68360691,5.250312064,0.004035171,-0.176623083,-1.089713392,9.134440301,4.745261043,-0.003364926,-0.042263305,120.4017714,31.5079701,13.62787631
1571104389,120.4017652,31.50798261,719.0505737,-0.324192766,1.091069256,0.856419524,31.1158202,0.044647385,-0.005123798,31.3580272,4.567425033,1.109961017,2.414713552,-3.848431324,5.69147014,4.485609337,0.079913059,-0.091530673,32.15090026,5.326570604,0.01033287,-0.324192766,-1.091069256,8.986870619,4.711490114,0.007260598,-0.025378243,120.4017716,31.50797439,13.64942379
1571104389,120.4017653,31.50798685,719.4459146,-0.392069449,1.149046476,0.901413362,31.58594489,0.053196882,-0.012021478,31.83032195,4.626403286,1.135114167,2.294762826,-3.943780744,5.602783815,4.476745223,0.089470332,-0.076523634,32.61556582,5.39851665,0.01723055,-0.392069449,-1.149046476,8.941876781,4.676734755,-0.060617594,-0.032405954,120.4017718,31.50797868,13.67457922
1571104389,120.4017654,31.50799106,719.806878,-0.219348765,1.250832991,0.902950563,32.05274322,0.069345934,-0.01831914,32.30039935,4.68188791,1.158723062,2.441483449,-4.048142532,5.596657347,4.489614894,0.069137164,-0.103669233,33.07825316,5.462406361,0.023528212,-0.219348765,-1.250832991,8.94033958,4.675771272,-0.075386264,-0.037567138,120.4017721,31.50798294,13.69819042
1571104390,120.4017656,31.50799632,718.5692892,-0.151547037,1.204366906,0.846453976,32.63596378,0.08549498,0.00328383,32.76123278,4.738249947,1.177644487,2.483562645,-4.061820705,5.581249545,4.497329945,0.080749037,-0.145740099,33.65564889,5.546198922,0.001925242,-0.151547037,-1.204366906,8.996836167,4.697293095,-0.068523059,-0.070227581,120.4017724,31.50798713,13.71711414
1571104390,120.4017657,31.50800054,718.6953399,0.031385548,1.191556208,0.813994144,33.10387088,0.099744142,0.00108625,33.206794,4.79118601,1.194153837,2.725671613,-4.071429039,5.592345496,4.460850635,0.11747424,-0.172591443,34.11910388,5.612150103,0.004122822,0.031385548,-1.191556208,9.029295999,4.670166201,-0.04429129,-0.074208281,120.4017726,31.50799117,13.73362574
1571104390,120.4017658,31.50800474,718.9875484,-0.128947413,1.227063436,0.80082714,33.56956042,0.104493855,-0.004011307,33.64896619,4.844042138,1.21348949,2.706165851,-4.081035111,5.621783745,4.431918103,0.126972094,-0.112411317,34.57874999,5.68708179,0.009220379,-0.128947413,-1.227063436,9.042463003,4.630721284,0.071860131,-0.018007809,120.4017729,31.50799518,13.75296365
1571104390,120.4017658,31.50800892,719.5318583,-0.335414576,1.239899519,0.775659023,34.03303241,0.105443797,-0.01350884,34.07997109,4.902400815,1.238416579,2.464527927,-4.173231346,5.630415224,4.399043662,0.196749448,-0.092930846,35.03556162,5.765378216,0.018717912,-0.335414576,-1.239899519,9.06763112,4.635127539,0.036432466,0.000715551,120.401773,31.5079991,13.77789298
1571104390,120.4017659,31.50801309,720.0475203,-0.371267686,1.159607085,0.683852493,34.49539562,0.111143456,-0.022506347,34.51441603,4.961861162,1.260609638,2.36428843,-4.10442341,5.72804039,4.37395224,0.119652062,-0.127291573,35.49209277,5.838805292,0.027715419,-0.371267686,-1.159607085,9.15943765,4.623529624,-0.02561243,-0.017638963,120.4017732,31.50800305,13.80008833
1571104390,120.4017659,31.50801724,720.3626471,-0.325853634,1.124884672,0.661491015,34.95554125,0.118743004,-0.028003831,34.94802895,5.015596441,1.279471161,2.387825028,-4.084128084,5.784821557,4.370345651,0.106906539,-0.139811108,35.94676376,5.909981343,0.033212903,-0.325853634,-1.124884672,9.181799128,4.574921858,-0.023810199,-0.048158849,120.4017734,31.50800699,13.81895216
1571104390,120.401766,31.50802095,720.5058865,-0.107992654,1.203809868,0.629175654,35.36690033,0.127292495,-0.030501554,35.37925541,5.068871645,1.300298958,2.63953732,-4.156792038,5.796339154,4.312647233,0.108292365,-0.1304686,36.35352881,5.971881182,0.035710626,-0.107992654,-1.203809868,9.214114489,4.55581328,-0.05981357,-0.082243637,120.4017736,31.5080109,13.83978229
1571104390,120.4017661,31.50802547,720.7293401,-0.029927798,1.237685093,0.412245806,35.86807098,0.136791928,-0.034398744,35.78875343,5.125074303,1.320829805,2.749306218,-4.214160458,5.9780848,4.291191914,0.167055127,-0.133455362,36.84894569,6.048198707,0.039607816,-0.029927798,-1.237685093,9.431044337,4.556986292,-0.036097453,-0.034957915,120.4017738,31.50801463,13.86031538
1571104390,120.4017662,31.50802916,721.2220838,0.060630876,1.145711193,0.3329541,36.27721253,0.139641753,-0.042996421,36.19972558,5.182327382,1.340725937,2.818375331,-4.208605595,6.10140842,4.256338383,0.142768535,-0.122871378,37.25255147,6.115335212,0.048205493,0.060630876,-1.145711193,9.510336043,4.551453929,0.025258922,0.015669641,120.4017739,31.50801837,13.88021379
1571104390,120.4017662,31.50803365,721.8122303,0.070611747,1.088568416,0.1954762,36.77505686,0.138691804,-0.053293558,36.61769487,5.244475644,1.362861217,2.921435292,-4.096856726,6.205203223,4.221426238,0.196936205,-0.09647377,37.74290464,6.201379647,0.05850263,0.070611747,-1.088568416,9.647813943,4.49819308,0.009424531,-0.01647109,120.4017741,31.50802218,13.90235142
1571104391,120.4017663,31.50803867,720.1506527,0.170847264,1.054473756,-0.113019474,37.33166655,0.151041066,-0.024290311,37.03231831,5.312148602,1.38292805,3.006055996,-4.152351082,6.460054243,4.20118136,0.220527826,-0.110906177,38.29343164,6.28436682,0.029499383,0.170847264,-1.054473756,9.956309617,4.508442708,-0.00265971,-0.055670617,120.4017741,31.50802596,13.92242061
1571104391,120.4017663,31.50804273,720.3053513,0.31707373,1.066811651,-0.409616863,37.7818331,0.150091113,-0.026987651,37.44380834,5.383862063,1.400276783,3.118679501,-4.163944449,6.7584704,4.161108763,0.223475838,-0.134917668,38.7368089,6.362260551,0.032196723,0.31707373,-1.066811651,10.25290701,4.506915733,-0.016846871,-0.040825597,120.4017741,31.50802973,13.93977172
1571104391,120.4017662,31.50804678,720.4944274,0.45150149,1.068636266,-0.740698229,38.23089086,0.146291334,-0.030284965,37.84391142,5.455556947,1.420248434,3.310653184,-4.164869272,7.070629803,4.126167377,0.258799349,-0.118796921,39.17860651,6.442772608,0.035494037,0.45150149,-1.068636266,10.58398837,4.476111231,0.016373598,-0.046118557,120.4017741,31.5080334,13.95974571
1571104391,120.4017661,31.50805082,720.8095542,0.448628926,1.001389839,-1.119152995,38.67883986,0.133942059,-0.035782252,38.26542944,5.535155376,1.439433026,3.369051061,-4.147365566,7.423863921,4.134629759,0.307073228,-0.141800624,39.6178501,6.531518753,0.040991324,0.448628926,-1.001389839,10.96244314,4.483898361,0.063705027,-0.005463301,120.401774,31.50803727,13.9789328
1571104391,120.4017659,31.50805486,721.1934359,0.468787082,0.854999354,-1.681045504,39.12678887,0.117793011,-0.042479509,38.6643227,5.625541487,1.457246414,3.309462587,-4.004238592,7.928193441,4.106311301,0.370141098,-0.150841883,40.05644411,6.624008738,0.047688581,0.468787082,-0.854999354,11.52433565,4.472153315,0.051379543,-0.01925659,120.4017738,31.50804095,13.99674858
1571104391,120.4017657,31.50805847,721.3939711,0.467223373,0.708512456,-2.289095244,39.52706012,0.097844191,-0.045977032,39.05686891,5.727295451,1.475295127,3.315103712,-3.941127073,8.596643816,4.089067191,0.460207373,-0.152870291,40.44741264,6.712091855,0.051186104,0.467223373,-0.708512456,12.13238539,4.453325217,0.074451466,-0.029078118,120.4017734,31.5080446,14.0147997
1571104391,120.4017654,31.50806247,721.4971035,0.418991479,0.630055424,-3.023420463,39.97057396,0.067445993,-0.047774257,39.44349151,5.83930877,1.490583838,3.293979319,-3.877030825,9.30930789,4.035046666,0.539378118,-0.150013451,40.87920083,6.817863019,0.05298333,0.418991479,-0.630055424,12.86671061,4.42271623,0.125495832,-0.041154851,120.401773,31.5080482,14.03009081
1571104391,120.401765,31.50806644,721.5887768,0.34689621,0.585165093,-3.918083071,40.41076145,0.027548362,-0.049371473,39.83702666,5.966578956,1.507024701,3.151614175,-3.826091499,10.15655601,4.013280686,0.631110559,-0.12834254,41.30608766,6.93242512,0.054580545,0.34689621,-0.585165093,13.76137321,4.407846823,0.136018796,-0.019141635,120.4017724,31.5080519,14.04653415
1571104391,120.4017645,31.50807039,721.7950416,0.334034729,0.496226615,-4.97367694,40.84873138,-0.018998867,-0.052968671,40.25378007,6.109627565,1.524737069,3.060731727,-3.801353233,11.18391077,4.039746594,0.689088415,-0.125768747,41.72965281,7.053159831,0.058177743,0.334034729,-0.496226615,14.81696708,4.404799071,0.11299266,0.005793041,120.4017716,31.50805582,14.06424918
1571104391,120.4017639,31.50807471,722.0757909,0.416810477,0.355420605,-6.212801507,41.32772635,-0.079795247,-0.057865573,40.66127948,6.265017415,1.537776441,3.02479264,-3.713755634,12.30321463,4.042704375,0.728329134,-0.118563129,42.19120312,7.194947325,0.063074646,0.416810477,-0.355420605,16.05609165,4.375899513,0.128893299,0.011318214,120.4017707,31.50805968,14.07729121
1571104392,120.4017635,31.50807939,720.649126,0.529260469,0.333477071,-7.544283489,41.84663737,-0.115893092,-0.032962177,41.08847487,6.434054227,1.555279262,3.070009659,-3.64055355,13.49109007,4.039093492,0.796735149,-0.083610469,42.69630418,7.319223679,0.038171249,0.529260469,-0.333477071,17.38757363,4.333042507,0.154807362,-0.015550237,120.4017698,31.50806374,14.09479684
1571104392,120.4017627,31.50808323,720.6777739,0.539716924,0.444808793,-9.002733726,42.27241065,-0.193788441,-0.033459355,41.49701266,6.623093274,1.575543166,2.971552069,-3.748399138,14.88152241,4.064564959,0.933505354,-0.084252247,43.10249314,7.468759969,0.038668427,0.539716924,-0.444808793,18.84602387,4.316032733,0.208796566,-0.040676429,120.4017685,31.50806766,14.1150635
1571104392,120.4017616,31.50808703,720.6090189,0.250304616,0.529452623,-10.55681771,42.69374878,-0.293532481,-0.032256534,41.88334118,6.831027752,1.593958541,2.671103382,-3.876136723,16.40261995,4.036406992,1.013590986,-0.126930636,43.50057712,7.63906511,0.037465606,0.250304616,-0.529452623,20.40010785,4.306295203,0.276535455,-0.054303444,120.4017671,31.50807141,14.13348154
1571104392,120.4017604,31.50809081,720.5861006,0.047839082,0.523672381,-12.18154766,43.11286935,-0.403725888,-0.031853698,42.27315125,7.058468363,1.606567338,2.250944111,-3.900378916,18.00001994,4.080882144,1.065764215,-0.166641087,43.89468982,7.819286691,0.03706277,0.047839082,-0.523672381,22.0248378,4.334666697,0.223113096,-0.033205145,120.4017654,31.50807523,14.14609307
1571104392,120.4017593,31.5080942,720.6376668,0.043171036,0.409122844,-13.70405291,43.48874733,-0.50821963,-0.032751128,42.66558323,7.298305357,1.613213679,2.003273047,-3.78617637,19.68425122,4.109997476,1.051637993,-0.162774743,44.24717089,7.986500019,0.0379602,0.043171036,-0.409122844,23.54734305,4.330834846,0.169410054,-0.01425225,120.4017636,31.50807908,14.15274221
1571104392,120.4017581,31.50809793,720.7350697,0.252371098,0.357805301,-15.36645457,43.902324,-0.630762282,-0.034448272,43.03703137,7.540979312,1.621656835,2.037886746,-3.682860595,21.33348262,4.103015518,1.034612505,-0.139527534,44.63371015,8.177941301,0.039657344,0.252371098,-0.357805301,25.20974471,4.298663555,0.145792057,-0.005886795,120.4017618,31.50808276,14.16118807
1571104392,120.4017566,31.5081016,720.9356049,0.428740283,0.307952547,-17.13744195,44.30924797,-0.767554073,-0.037945432,43.41082894,7.801499201,1.630421957,2.052921251,-3.544310037,23.0551234,4.107665678,1.115969856,-0.120546247,45.0112587,8.382284654,0.043154504,0.428740283,-0.307952547,26.9807321,4.276002176,0.224175865,0.009540467,120.4017598,31.50808648,14.16995596
1571104392,120.401755,31.50810519,721.1361401,0.414046781,0.301973074,-19.07425978,44.70730167,-0.922394774,-0.041442623,43.74399687,8.078191429,1.643767995,1.95836997,-3.541736626,24.95331624,4.082729481,1.254465742,-0.111538863,45.37698202,8.602894813,0.046651695,0.414046781,-0.301973074,28.91754992,4.243010653,0.245298106,0.010465454,120.4017575,31.50808987,14.18330455
1571104392,120.4017532,31.50810869,721.2851091,0.411526822,0.356399236,-21.09935713,45.09537631,-1.092434552,-0.044039853,44.05588875,8.37049926,1.661700958,1.863413637,-3.570228587,26.93316648,4.019276708,1.294037621,-0.101576916,45.73027484,8.836774342,0.049248925,0.411526822,-0.356399236,30.94264728,4.221490499,0.272553461,-0.009016904,120.401755,31.50809309,14.20123997
1571104392,120.401751,31.50811245,721.2564612,0.415021208,0.42543424,-23.42285657,45.51227933,-1.295722322,-0.043536842,44.37707932,8.684142041,1.668603356,1.706717796,-3.550399637,28.99690671,4.059999566,1.382716691,-0.149992335,46.10628778,9.108340747,0.048745914,0.415021208,-0.42543424,33.26614671,4.207978866,0.268450238,-0.051992159,120.4017523,31.50809643,14.20814495
1571104393,120.4017494,31.50811619,720.2365964,0.536843657,0.379759207,-25.46351873,45.92696466,-1.454362751,-0.025733824,44.67766939,9.011078812,1.670237528,1.63696697,-3.482567109,31.18078237,4.030452907,1.408110825,-0.196745194,46.48774832,9.335537939,0.030942896,0.536843657,-0.379759207,35.30680887,4.199904668,0.252166245,-0.043702479,120.4017495,31.50809961,14.20978161
1571104393,120.4017471,31.50811946,720.2996217,0.467963104,0.351590882,-27.7375249,46.28953726,-1.668099869,-0.02683114,44.96462676,9.352071597,1.668377642,1.453921603,-3.279466399,33.44807826,4.041036486,1.457682463,-0.150797725,46.80844428,9.608111865,0.032040212,0.467963104,-0.351590882,37.58081505,4.179914474,0.327693999,0.000774137,120.4017465,31.50810268,14.20792417
1571104393,120.4017444,31.5081229,720.5631823,0.195875121,0.373408406,-30.23422133,46.67095923,-1.92363446,-0.031428278,45.23853277,9.701904764,1.666936251,1.306873012,-3.143243094,35.68100383,4.017574121,1.494792353,-0.111285442,47.14056669,9.92509034,0.03663735,0.195875121,-0.373408406,40.07751148,4.151091286,0.36514131,0.023499043,120.4017433,31.50810565,14.20648518
1571104393,120.4017419,31.50812594,720.8611204,0.07491316,0.35620901,-32.60359886,47.00802983,-2.16776973,-0.036625713,45.48817305,10.05583111,1.668290395,1.158325072,-2.855063024,38.00885265,3.994309571,1.510556349,-0.103624875,47.43093938,10.22325526,0.041834785,0.07491316,-0.35620901,42.446889,4.131425732,0.270447313,0.021461844,120.4017401,31.50810842,14.20784159
1571104393,120.4017393,31.50812891,721.0444669,0.328934416,0.404346548,-35.05687734,47.33733893,-2.416654697,-0.03982318,45.7154931,10.41626224,1.665704088,1.293803735,-2.705995061,40.42368092,3.981553694,1.458242802,-0.116208782,47.71285285,10.5247731,0.045032252,0.328934416,-0.404346548,44.90016748,4.114555048,0.21018604,-0.00634381,120.4017368,31.50811099,14.20525744
1571104393,120.4017368,31.50813149,721.0903035,0.570998549,0.494625711,-37.22617602,47.62340541,-2.650340576,-0.040620949,45.92028136,10.78522514,1.669832564,1.411940903,-2.637056529,42.83446291,3.966628628,1.464049566,-0.123027021,47.95475863,10.80392309,0.045830021,0.570998549,-0.494625711,47.06946617,4.096108286,0.241416788,-0.04497033,120.4017333,31.50811338,14.20938796
1571104393,120.4017339,31.50813422,721.0731148,0.692694841,0.578778576,-39.66411882,47.92610368,-2.925823919,-0.040318552,46.11785197,11.16754606,1.666087265,1.46032022,-2.604463474,45.21706913,3.939334694,1.523732499,-0.142656595,48.2059059,11.12709852,0.045527625,0.692694841,-0.578778576,49.50740896,4.066963269,0.313140942,-0.033871835,120.4017297,31.50811573,14.2056447
1571104393,120.4017305,31.50813703,721.2679204,0.530170664,0.660742699,-42.44218212,48.23767227,-3.248804387,-0.043716037,46.28618086,11.56137237,1.665546828,1.131564278,-2.4967159,47.70771942,3.918347189,1.592932216,-0.115647212,48.4576731,11.49858829,0.04892511,0.530170664,-0.660742699,52.28547227,4.05445668,0.379193743,0.002836321,120.4017259,31.50811783,14.20510615
1571104393,120.4017276,31.50813919,721.6174247,0.281214038,0.611401115,-44.74194001,48.47716987,-3.525237665,-0.049814069,46.44451072,11.96255007,1.652137409,0.771957796,-2.227111582,50.2514654,3.917609067,1.64339632,-0.128718235,48.64638769,11.81189527,0.055023141,0.281214038,-0.611401115,54.58523015,4.036085294,0.398034107,0.027080294,120.4017221,31.50811986,14.19169859
1571104393,120.4017243,31.50814146,721.9268219,0.090692698,0.67785124,-47.34614771,48.72886413,-3.84061858,-0.05521196,46.56802473,12.36231985,1.649056494,0.467417282,-2.042307817,52.84037576,3.88103929,1.602555741,-0.062205793,48.84046114,12.1656616,0.060421032,0.090692698,-0.67785124,57.18943785,3.991023561,0.352271858,0.001826919,120.4017181,31.50812157,14.18861931
1571104394,120.4017204,31.50814441,721.1132218,0.153422663,0.754630152,-50.07431431,49.05595561,-4.207296345,-0.041009213,46.66918048,12.7560252,1.653945222,0.536643306,-2.20955199,55.41939537,3.858472388,1.551704391,-0.068332825,49.10005249,12.5828591,0.046218285,0.153422663,-0.754630152,59.91760446,3.963974148,0.25209383,0.000317924,120.4017142,31.50812308,14.19350953
1571104394,120.401717,31.50814646,721.4111598,0.270616542,0.875078083,-52.58993091,49.28325663,-4.533126604,-0.046207229,46.7575814,13.1498968,1.658214174,0.728116216,-2.272978124,57.94163695,3.813668914,1.485441087,-0.113016094,49.26830543,12.94275083,0.051416301,0.270616542,-0.875078083,62.43322106,3.972024202,0.278992177,-0.005580619,120.4017103,31.50812447,14.19777991
1571104394,120.4017138,31.50814819,721.7205571,0.3208523,0.82481957,-54.83959368,49.47507654,-4.836158245,-0.051605517,46.83333001,13.54656322,1.655199005,0.765531413,-2.200865765,60.45213674,3.811626191,1.488695377,-0.173676177,49.4054971,13.27411392,0.056814589,0.3208523,-0.82481957,64.68288382,3.966881713,0.256672057,0.00335868,120.4017063,31.50812575,14.19476611
1571104394,120.4017102,31.50814999,722.1044388,0.44392059,0.764886998,-57.30484063,49.67465799,-5.179087462,-0.05830369,46.89933528,13.94594471,1.642995402,0.881078118,-1.950778088,62.94762466,3.782952104,1.459929081,-0.154054809,49.54351539,13.64611413,0.063512762,0.44392059,-0.764886998,67.14813077,3.945814824,0.267119985,0.018958591,120.4017023,31.50812696,14.18256384
1571104394,120.4017061,31.5081518,722.5742642,0.470615906,0.72096036,-59.92175744,49.87534826,-5.56191426,-0.066501795,46.95370214,14.34639729,1.631066758,0.845387029,-1.762122822,65.35985406,3.769901972,1.361233074,-0.121706385,49.67580554,14.05761414,0.071710868,0.470615906,-0.72096036,69.76504758,3.898868955,0.254232434,0.01845537,120.4016982,31.50812806,14.17063647
1571104394,120.4017024,31.50815327,722.9008501,0.424642724,0.871521894,-62.16600853,50.03833983,-5.914342898,-0.072200197,46.99445566,14.73913517,1.621644921,0.779469521,-1.684884479,67.63606186,3.732221199,1.32547362,-0.06901713,49.77614864,14.43271874,0.077409269,0.424642724,-0.871521894,72.00929868,3.85581172,0.286223148,-0.0044699,120.4016942,31.50812902,14.16121582
1571104394,120.4016991,31.50815448,723.187329,0.330193342,1.00501951,-64.17307183,50.172503,-6.235423435,-0.077198834,47.02292135,15.13562326,1.613756093,0.636250389,-1.804175634,69.85054426,3.734988095,1.27752513,-0.123921493,49.85344679,14.77200838,0.082407906,0.330193342,-1.00501951,74.01636197,3.85048761,0.259673621,-0.008335224,120.4016902,31.50812989,14.15332812
1571104394,120.4016949,31.50815586,723.6170474,0.28055056,1.034231232,-66.57987702,50.32551557,-6.631549426,-0.084697224,47.03578136,15.52988721,1.604552703,0.480461435,-1.695093741,72.07165695,3.728686074,1.212399862,-0.143204815,49.93648756,15.18846111,0.089906296,0.28055056,-1.034231232,76.42316716,3.848453866,0.223351287,0.015145516,120.4016861,31.50813061,14.14412577
1571104394,120.4016911,31.508157,724.1155206,0.261952502,1.039079249,-68.63636336,50.45191732,-6.993477487,-0.093395836,47.03776243,15.92740102,1.599014422,0.389340882,-1.672630735,74.16532068,3.720195878,1.132705429,-0.113020594,49.99915551,15.56667012,0.098604908,0.261952502,-1.039079249,78.47965351,3.810182188,0.212119638,0.007836521,120.401682,31.50813124,14.13858848
1571104394,120.4016876,31.50815791,724.4592953,0.184998241,1.168605526,-70.43935717,50.552817,-7.320257682,-0.099394667,47.02630454,16.32282116,1.599545913,0.307862146,-1.739941874,76.16676821,3.713171619,1.128206642,-0.099579254,50.04270546,15.90588899,0.104603739,0.184998241,-1.168605526,80.28264732,3.780749499,0.210354265,-0.01838985,120.4016779,31.50813175,14.13912089
1571104395,120.4016831,31.50815902,724.2644897,0.128435444,1.300273166,-72.3195398,50.67589237,-7.746781812,-0.095993183,47.0037404,16.72243898,1.601954966,0.128067186,-1.887081561,78.11168847,3.715126632,1.037547122,-0.117934157,50.09105304,16.34717449,0.101202255,0.128435444,-1.300273166,82.16282994,3.784995766,0.16607752,0.000638477,120.4016737,31.50813216,14.14153082
1571104395,120.4016789,31.50815998,724.9749573,0.222108703,1.188079896,-74.20276871,50.7823361,-8.151457288,-0.108391828,46.98179129,17.11039156,1.600561206,0.19451306,-1.86406016,79.86468933,3.745463327,0.898000931,-0.169912643,50.12674893,16.76408972,0.1136009,0.222108703,-1.188079896,84.04605886,3.807723987,0.112097222,0.053826574,120.4016696,31.50813257,14.14013792
1571104395,120.4016754,31.5081607,725.6510475,0.32270274,1.004739863,-75.62552828,50.86216895,-8.483937142,-0.120190757,46.95526232,17.49377423,1.600962107,0.256497926,-1.66285114,81.45254137,3.710510848,0.845140464,-0.143619358,50.14856781,17.10532289,0.125399829,0.32270274,-1.004739863,85.46881842,3.776070861,0.108950516,0.039779355,120.4016656,31.50813292,14.14053967
1571104395,120.4016715,31.50816139,726.0693067,0.430291462,1.003677436,-77.23173262,50.93867545,-8.849664978,-0.127489648,46.9192429,17.87806094,1.599127632,0.426842919,-1.65182072,83.04391934,3.68708356,0.897123442,-0.124103504,50.16142543,17.47874594,0.13269872,0.430291462,-1.003677436,87.07502276,3.71155334,0.111379262,-0.009651796,120.4016616,31.5081332,14.138706
1571104395,120.4016673,31.50816203,726.4359997,0.352507068,1.121952857,-78.97529174,51.00963806,-9.251490631,-0.133888508,46.8691711,18.25058215,1.603377042,0.333557921,-1.725900509,84.65038288,3.647359688,0.832179619,-0.10019887,50.16264971,17.88678767,0.13909758,0.352507068,-1.121952857,88.81858189,3.699828746,0.142311057,-0.002520484,120.4016576,31.50813332,14.14295611
1571104395,120.4016638,31.50816246,726.8771772,0.155929483,1.14956568,-80.15688274,51.05731616,-9.581120671,-0.14158764,46.81344276,18.61739696,1.607573806,0.150752687,-1.840375474,86.04118096,3.664105892,0.755882718,-0.117945779,50.15327437,18.21971599,0.146796712,0.155929483,-1.14956568,90.00017289,3.70804034,0.124983297,0.028673766,120.4016537,31.50813339,14.14715353
1571104395,120.40166,31.50816292,727.4787829,0.120949601,1.05537116,-81.29593977,51.10832068,-9.947798465,-0.152086668,46.76243055,18.98614276,1.609246651,0.059248202,-1.801296284,87.19643605,3.628055421,0.633793592,-0.108735098,50.14084303,18.58971535,0.15729574,0.120949601,-1.05537116,91.13922991,3.68447479,0.030604033,0.04067931,120.4016498,31.50813351,14.1488271
1571104395,120.4016558,31.50816346,728.1204956,0.327683619,1.034147567,-82.49610303,51.16819553,-10.3467743,-0.163285553,46.71372227,19.33362793,1.613844828,0.25524457,-1.795354779,88.29963426,3.601387476,0.568198176,-0.09962876,50.13162995,18.99305371,0.168494625,0.327683619,-1.034147567,92.33939318,3.656277714,-0.055677629,0.027333678,120.4016461,31.50813361,14.15342597
1571104395,120.4016523,31.50816386,728.5788619,0.561310232,1.006530059,-83.39538306,51.21254731,-10.67260456,-0.171284658,46.66311212,19.68651546,1.617577841,0.572193504,-1.801030001,89.32269562,3.55638129,0.503946401,-0.11785655,50.11962685,19.32166954,0.17649373,0.561310232,-1.006530059,93.2386732,3.640394862,-0.02554247,0.023906539,120.4016423,31.50813371,14.1571597
1571104395,120.4016485,31.5081642,729.0372281,0.48883966,1.01404385,-84.27248228,51.25024642,-11.03358271,-0.179283741,46.60878583,20.03985812,1.6191096,0.533978833,-1.815978477,90.23018022,3.541735922,0.513047629,-0.101598351,50.09506035,19.68377855,0.184492813,0.48883966,-1.01404385,94.11577243,3.61756533,0.055404914,0.008807282,120.4016386,31.50813377,14.15869218
1571104396,120.4016441,31.50816416,726.3328673,0.283549874,1.115071468,-85.03643816,51.24581136,-11.45440718,-0.132083036,46.54651556,20.3988549,1.62157426,0.366241742,-1.907795932,91.07911742,3.531541666,0.573689371,-0.127068614,50.01874895,20.09764987,0.137292108,0.283549874,-1.115071468,94.8797283,3.598802528,0.075340975,-0.018210733,120.4016347,31.50813377,14.16115753
1571104396,120.4016403,31.50816438,726.6881011,0.264081024,1.044710063,-85.93714237,51.27020507,-11.8125355,-0.138282186,46.48057909,20.74515839,1.622376364,0.308812768,-1.840015269,91.97599742,3.493654134,0.506723684,-0.136973096,49.9815601,20.45467639,0.143491258,0.264081024,-1.044710063,95.78043251,3.583532187,-0.000309174,0.011366254,120.401631,31.50813372,14.16196028
1571104396,120.4016366,31.50816461,727.192304,0.416511857,0.977275034,-86.78716701,51.2957076,-12.16876394,-0.147081311,46.41657049,21.09492836,1.622447441,0.351208647,-1.764982298,92.84775376,3.497711107,0.44152044,-0.095273366,49.94578854,20.81002056,0.152290383,0.416511857,-0.977275034,96.63045715,3.555269715,-0.041645773,0.030769875,120.4016273,31.50813369,14.16203205
1571104396,120.4016329,31.5081648,727.6965069,0.62855098,0.983714876,-87.58787927,51.316775,-12.52214256,-0.155880456,46.3502289,21.43529996,1.625396911,0.635099817,-1.805730439,93.64460428,3.45660094,0.471531279,-0.082568883,49.90613432,21.16179865,0.161089528,0.62855098,-0.983714876,97.43116941,3.519402088,-0.020731334,0.028211376,120.4016236,31.50813362,14.16498219
1571104396,120.4016292,31.50816494,728.183521,0.735208958,1.002759417,-88.40527006,51.33229848,-12.87267135,-0.164379636,46.27593793,21.77075062,1.62995706,0.684932301,-1.789034125,94.47643749,3.412440074,0.459113905,-0.065540355,49.86150499,21.50982112,0.169588708,0.735208958,-1.002759417,98.2485602,3.496200049,-0.049266181,0.01404991,120.40162,31.50813348,14.16954294
1571104396,120.4016255,31.50816505,728.550214,0.866948047,1.046845259,-89.12502227,51.34449559,-13.22035032,-0.170778826,46.20196798,22.11201726,1.632644151,0.828424506,-1.871515418,95.22090695,3.416930526,0.385842068,-0.102682916,49.81408545,21.85446706,0.175987898,0.866948047,-1.046845259,98.96831242,3.479890997,-0.022216396,0.003859985,120.4016163,31.50813335,14.17223069
1571104396,120.4016219,31.50816509,728.9799323,0.764488553,1.035144676,-89.69326491,51.34893124,-13.56802929,-0.178278059,46.12748427,22.45067765,1.634145363,0.727829145,-1.855470692,95.81315579,3.402941476,0.378455162,-0.10665628,49.75901869,22.19778615,0.183487131,0.764488553,-1.035144676,99.53655505,3.465785078,0.005469134,0.016419348,120.4016127,31.50813321,14.17373256
1571104396,120.4016179,31.50816507,729.432569,0.531876104,1.087234329,-90.31098881,51.34671424,-13.94610645,-0.186177264,46.0488389,22.79193222,1.637010108,0.56595579,-1.891266366,96.36524517,3.370570793,0.428508973,-0.05493434,49.69220053,22.56991862,0.191386336,0.531876104,-1.087234329,100.154279,3.401638679,0.013840196,-7.35E-05,120.401609,31.50813304,14.17659796
1571104396,120.4016147,31.50816505,729.7476958,0.347369081,1.266642419,-90.83080575,51.34449712,-14.25103802,-0.191676607,45.96569757,23.12855198,1.646060906,0.321698208,-2.06924416,96.9488077,3.35492863,0.380660336,-0.04672444,49.63788679,22.86998228,0.19688568,0.347369081,-1.266642419,100.6740959,3.389147393,-0.03068823,-0.008534286,120.4016054,31.50813282,14.18564938
1571104396,120.4016111,31.50816505,730.1888733,0.349744811,1.340963979,-91.27629679,51.34449765,-14.59016752,-0.199375842,45.88838603,23.45877599,1.653133524,0.221818927,-2.161154895,97.43622194,3.358459057,0.275691681,-0.08912973,49.57991177,23.20411955,0.204584914,0.349744811,-1.340963979,101.1195869,3.388482787,-0.102620062,0.009231325,120.4016018,31.50813264,14.19272266
1571104397,120.4016068,31.50816443,724.9692278,0.440564206,1.424786915,-91.72068019,51.27575285,-14.99959265,-0.108275449,45.81881714,23.78705414,1.657119738,0.373183839,-2.178474858,97.81417911,3.331697,0.223516916,-0.081377916,49.44218611,23.59576534,0.113484521,0.440564206,-1.424786915,101.5639703,3.373727307,-0.07219682,-0.022539251,120.4015983,31.50813253,14.1967096
1571104397,120.4016033,31.50816439,725.2900841,0.557505881,1.436537359,-92.07567519,51.27131825,-15.33587232,-0.113874685,45.74920122,24.11150105,1.661145116,0.532369376,-2.175978395,98.17823037,3.302440819,0.234326156,-0.084331141,49.38032844,23.92633653,0.119083757,0.557505881,-1.436537359,101.9189653,3.348008857,-0.064650692,-0.035717563,120.4015948,31.50813241,14.20073572
