time,ins1000_lat,ins1000_lon,ins1000_alt,ins1000_roll,ins1000_pitch,ins1000_yaw,ins1000_ned_x,ins1000_ned_y,ins1000_ned_z,algo_pose_x,algo_pose_y,algo_pose_z,algo_roll,algo_pitch,algo_yaw,algo_vel_x,algo_vel_y,algo_vel_z,align_pose_x,align_pose_y,align_pose_z,align_roll,align_pitch,align_yaw,align_vel_x,align_vel_y,align_vel_z,algo_lat,algo_lon,algo_alt,loop_pose_x,loop_pose_y,loop_pose_z,loop_lat,loop_lon,loop_alt,loop_roll,loop_pitch,loop_yaw
1573539864.305,31.50805814,120.40198682,13.017,-0.301332088268651,1.9264419382625466,166.9361363782876,0.0,0.0,0.0,-0.01425,-0.10655,-0.02361,0.7527979474897207,-9.923510787720732,1.8763567907881051,-0.09493603893709752,-0.3093088362637591,-0.028515378659470313,-0.01425,-0.10655,-0.02361,-0.30133208826866487,-1.926441938262545,1.8763567907881091,2.625372465906389,-0.14640172024278864,-0.04875337496581728,31.508058140000166,120.40198682,13.017000005580485
1573539864.405,31.508056009999997,120.40198725,13.0206,-0.2857790333612595,1.916652606170196,167.10852887281013,-0.23617113033733347,0.04084757883071772,-0.003599995309637699,-0.01555,-0.13436,-0.03125,2.006566234501161,-5.385491579780872,0.7317206224121034,-0.0571593218651217,-0.33309603080685374,-0.038316219602655924,0.22535855043139602,-0.11230065746768157,-0.020010004690362307,-0.28577903336127336,-1.9166526061701945,1.7039642962656116,2.696387772682415,-0.1313770269606507,-0.04916549720834455,31.508058102838646,120.40198653015369,13.009360006079078
1573539864.505,31.508053899999997,120.4019876,12.9712,-0.34355912641834735,1.8528467357299794,167.36215447187286,-0.47012468672401225,0.07409560825983541,0.04580001811491918,-0.02006,-0.1711,-0.03647,2.5612890710670704,-4.834516000413712,0.08229833997402884,-0.04976534007224493,-0.36650597630214254,-0.05018420431078996,0.46131719838361873,-0.12507619907864306,-0.06941001811491919,-0.34355912641836117,-1.8528467357299778,1.4503386972028791,2.7481281720004977,-0.1300468968851223,-0.04645874371693519,31.50805807845147,120.40198614153192,13.00414000544697
1573539864.605,31.50805144,120.40198808999999,12.9755,-0.4067104422079968,1.7426619751632202,167.7070490731389,-0.742885707918679,0.12064285264842362,0.04150004467197882,-0.0251,-0.20945,-0.04472,2.6292984054962885,-4.584520154637859,-0.6708098712167063,-0.06265825383879714,-0.4116013983349555,-0.06156200707077557,0.7379261913841867,-0.13233468614828459,-0.06511004467197884,-0.40671044220801067,-1.7426619751632186,1.1054440959368337,2.783311866565366,-0.14594499078561343,-0.042298027152642054,31.508058055936203,120.40198573520132,12.995890006422997
1573539864.705,31.508048940000002,120.40198854,12.9795,-0.44395030618128695,1.7165598765286612,168.09891065962503,-1.0200818675432233,0.16339032572810644,0.037500083234649095,-0.02933,-0.24315,-0.07843,3.1255975089397894,-4.737826574288209,-1.7092457159223717,-0.08654162377201435,-0.4564282894443189,-0.12308332848049028,1.0181488106785528,-0.14418124687698242,-0.061110083234649115,-0.4439503061813008,-1.7165598765286598,0.713582509450712,2.821314837502518,-0.16217483741439273,-0.047291540445969636,31.508058034391265,120.40198537854519,12.962180007249117
1573539864.805,31.508046389999997,120.40198898,12.9836,-0.47520278465679916,1.7490190280253275,168.52480656402665,-1.3028219504893865,0.20518785671905393,0.03340013696400146,-0.03656,-0.2933,-0.07056,2.7965481892548825,-4.4393281443442785,-2.392487023876699,-0.09843457282991663,-0.5183342719337409,-0.07580481390195803,1.3036256966104613,-0.158035332915496,-0.057010136964001486,-0.47520278465681304,-1.7490190280253262,0.287686605049097,2.877312188301302,-0.16342615779062156,-0.04579729252439915,31.50805801060383,120.40198484588421,12.970050007104874
1573539864.905,31.50804406,120.40198937,12.9875,-0.5012579221399226,1.7244312815321383,168.9156649320756,-1.561168771384079,0.2422356693772934,0.029500196559410052,-0.05524,-0.35333,-0.0767,2.639974834988035,-4.108467368456797,-3.330717186853477,-0.10978896011950028,-0.5787067717881436,-0.07112555041912981,1.5642513113382124,-0.17181608895194525,-0.053110196559410086,-0.5012579221399365,-1.7244312815321368,-0.10317176299986493,2.9196623855983184,-0.16083212473931766,-0.04558861452350939,31.50805807083179,120.4019841878075,12.963910010643303
1573539865.004,31.508040900000005,120.40198987,12.9925,-0.5724820073325917,1.7077954387939724,169.42102593874802,-1.911544716637514,0.2897328684825013,0.02450029487701022,-0.06601,-0.41943,-0.08558,2.768749417621124,-3.7475956042680174,-4.243142805499061,-0.11098408413777186,-0.633575870374299,-0.07442234172309845,1.9171846602232812,-0.19320155550865517,-0.048110294877010254,-0.5724820073326057,-1.7077954387939713,-0.6085327696722806,2.9536305558355505,-0.15360313574342777,-0.05168439149649235,31.508058050454423,120.40198348320217,12.95503001473844
1573539865.104,31.50803852,120.40199023000001,12.9962,-0.6205238676898505,1.6704361074125096,169.8231116946942,-2.1754354611212303,0.32393085639853064,0.020800380439239374,-0.09343,-0.47262,-0.1443,3.239747314342613,-4.1027013129843874,-5.348698916703167,-0.15780724086632092,-0.6634432748121197,-0.16602202846830072,2.1826959257590786,-0.2108536170102012,-0.04441038043923941,-0.6205238676898642,-1.6704361074125083,-1.010618525618479,2.94725781510896,-0.1584839543526525,-0.042250059075796584,31.508058199978514,120.40198287791048,12.896310015581548,-0.0881,-0.47768,-0.11381,31.508058143967094,120.40198283654262,12.926800017245114,0.05410219877956642,-0.06808890094697935,-0.09023526628631967
1573539865.304,31.50803354,120.40199087999999,13.0035,-0.6169867643181118,1.6398159265290655,170.65232577375943,-2.727610213013049,0.385677226909125,0.013500598278744391,-0.14489,-0.61955,-0.15426,3.026093043424692,-3.5392681316043704,-7.02934839371039,-0.2693127417941175,-0.7993956608005326,-0.13031433536113673,2.7363580269594063,-0.2574137780114354,-0.03711059827874444,-0.6169867643181258,-1.6398159265290644,-1.8398326046837066,2.8926139398970583,-0.18324374236361993,-0.055374141959883875,31.508058398165776,120.40198125547474,12.886350027285516
1573539865.404,31.50803069,120.40199121000002,13.0068,-0.6250712731085429,1.6871725130036324,171.13449397264736,-3.0436138361969256,0.41702539156583196,0.010200742075179514,-0.17116,-0.70057,-0.17175,3.357708794879082,-3.340482267411272,-7.930469815976345,-0.31236319607697544,-0.857730236287137,-0.13501808025367942,3.0524389713984004,-0.28797247325902775,-0.03381074207517956,-0.625071273108557,-1.6871725130036315,-2.3220008035716218,2.875026383789189,-0.1676390726623472,-0.057604286585010774,31.508058488816943,120.40198036513418,12.86886003613472,-0.22222,-0.68004,-0.1765,31.508058976494812,120.40198047285834,12.864110034890473,0.035165171262736196,-0.05565650357783804,-0.1411088516879805
1573539865.504,31.5080288,120.40199128,12.8794,-0.6693236736870658,1.7429657833323007,171.52380133771192,-3.2531740676605265,0.4236749982324163,0.1376008467499974,-0.27656,-0.75757,-0.19856,2.0402031745169658,-3.0469220195275293,-9.026749973904671,-0.4611452671914856,-0.8796736174662318,-0.17409194547929804,3.259307190953062,-0.32210819674898256,-0.16121084674999744,-0.6693236736870798,-1.7429657833322998,-2.7113081686361804,2.8482389093122897,-0.1643611020513499,-0.06628577231957948,31.508059321602342,120.40197956122731,12.842050043866038
1573539865.604,31.50802623,120.40199153,12.8816,-0.6893727295912955,1.801175196566593,171.9714421127905,-3.5381317145462043,0.4474236091879783,0.13540100142398304,-0.26678,-0.87785,-0.23018,3.322972376133337,-3.1236882091648686,-9.840106441497174,-0.3893033859284139,-0.9734261462022781,-0.1860448478041072,3.543457641901251,-0.35409848069399075,-0.15901100142398308,-0.6893727295913095,-1.8011751965665923,-3.158948943714765,2.8760989989534864,-0.17189856514678128,-0.07791072788285434,31.508059024601987,120.40197833908258,12.810430056415498
1573539865.704,31.508023610000002,120.40199177,12.8832,-0.7217390686832758,1.8817804265929854,172.430133652294,-3.828633284116096,0.47022227703739583,0.13380117119817703,-0.34413,-0.95861,-0.25554,3.1322332195651374,-3.302041836475889,-10.82761000350374,-0.4250242780278502,-1.0340194836696142,-0.19374378719982,3.8328623586642907,-0.38809629082322084,-0.15741117119817707,-0.7217390686832896,-1.8817804265929847,-3.6176404832182483,2.9436923497584915,-0.16435789108828305,-0.08048207011714886,31.50805956763854,120.40197734709899,12.78507007099688
1573539865.804,31.508020930000004,120.401992,12.886,-0.7481931930892047,1.8825474579449941,172.91153621335448,-4.125787561731613,0.49207100348205146,0.13100135800700685,-0.37364,-1.06921,-0.29993,3.7559532218882534,-3.32452976930567,-11.777090698882505,-0.3208257352736451,-1.1060908452517213,-0.22013279886572545,4.128609057222386,-0.4243167525049898,-0.1546113580070069,-0.7481931930892187,-1.8825474579449932,-4.099043044278747,2.995528846002019,-0.165031540289139,-0.05489347392546462,31.508059635195067,120.40197614467108,12.740680089220405,-0.42272,-1.04328,-0.28023,31.508060114804067,120.4019763122046,12.760380086489022,0.04136991823438798,-0.04890960531572473,-0.20782590781185123
1573539865.904,31.50801824,120.4019922,12.8914,-0.8004510065064608,1.732973386342308,173.3828420559826,-4.424050627763474,0.5110698993193388,0.12560156021485058,-0.48292,-1.1423,-0.30813,2.3858652232539526,-2.6271150754380805,-12.887532535886766,-0.37617919854334053,-1.1372099056339349,-0.2190661407231772,4.424890549003929,-0.46354801847316907,-0.14921156021485063,-0.8004510065064747,-1.7329733863423071,-4.570348886906855,2.98530161864784,-0.16831477677391637,-0.035349846083611365,31.508060474153694,120.40197516667963,12.7324801068753
1573539866.004,31.50801556,120.40199237000002,12.8953,-0.8090101906544982,1.597549151516023,173.84266901470156,-4.721204906693874,0.5272189643377655,0.12170177614793509,-0.48763,-1.28854,-0.34662,3.5337380197580712,-2.4091362403380674,-13.745755581552524,-0.3039378647548193,-1.2440420885848824,-0.22853978012075865,4.719531397963819,-0.5053598339301694,-0.14531177614793517,-0.8090101906545122,-1.5975491515160223,-5.030175845625824,2.966882263420617,-0.17566513206611314,-0.06872624226853849,31.50806025992753,120.40197364685348,12.693990132771432
1573539866.103,31.508012860000004,120.40199251999998,12.896,-0.8420934953244251,1.7020908373701564,174.3004539541229,-5.020576753776037,0.5414681381540463,0.12100200594469834,-0.58209,-1.39794,-0.37935,3.299940546715063,-2.333794829981562,-14.779917912957334,-0.3761704899478884,-1.3189810587861979,-0.2488490770640027,5.01597905795127,-0.5494656914526932,-0.14461200594469842,-0.842093495324439,-1.7020908373701555,-5.487960785047166,3.0333572260652475,-0.1728726310741888,-0.08638595084406947,31.50806090422915,120.40197232416112,12.66126016061753,-0.58209,-1.39794,-0.37935,31.50806090422915,120.40197232416112,12.66126016061753,0.05759482766023959,-0.04073240384919953,-0.25795823075559415
1573539866.203,31.50801036,120.40199263,12.8977,-0.8613042177264435,1.7614397053433632,174.72438977663717,-5.2977729093499875,0.5519175398963694,0.11930223319341726,-0.6493,-1.51773,-0.41363,3.2948045387388722,-2.2377022669118882,-15.739188436039667,-0.3084708259441267,-1.3820129780925874,-0.25583475159760155,5.289935186861434,-0.5929965781230594,-0.14291223319341734,-0.8613042177264575,-1.7614397053433626,-5.911896607561441,3.1061876995802544,-0.1733268777324676,-0.0649204777542704,31.508061289255377,120.40197094982878,12.626980192959309
1573539866.303,31.50800724,120.40199276000001,12.9023,-0.8972577455558802,1.717597396012283,175.24042621514448,-5.6437137129993316,0.5642668336505505,0.11470253118398999,-0.74124,-1.63223,-0.4444,2.685142151626525,-1.8736260671819043,-16.78789669430689,-0.27441192145868765,-1.4395214937406131,-0.2673125083495824,5.631698260495661,-0.6480015432250111,-0.13831253118399006,-0.8972577455558941,-1.7175973960122826,-6.427933046068732,3.175048136567006,-0.1630009233682541,-0.05374857638561584,31.508061902337037,120.40196957961614,12.59621022734791
1573539866.403,31.50800433,120.40199284999998,12.9055,-0.9594951191346565,1.7183230867704493,175.6751197984015,-5.966370039881275,0.5728163469377614,0.11150282650470089,-0.72908,-1.79276,-0.50358,3.7966391958643557,-1.776363635893381,-17.609791049453495,-0.07873572562732618,-1.5005815437122276,-0.29089339573143486,5.949882085874364,-0.7022164186907939,-0.13511282650470097,-0.9594951191346703,-1.7183230867704489,-6.862626629325777,3.2628208346371474,-0.1674296180569987,-0.07678635331251711,31.50806151384809,120.40196794667443,12.537030268460512,-0.67509,-1.7998,-0.51516,31.508061023852484,120.40196798424454,12.525450265035033,0.08663009866636921,-0.0320863892007129,-0.3075510400892932
1573539866.503,31.508001410000002,120.40199294999998,12.9552,-0.9775213563614655,1.7085658364243916,175.97314725278898,-6.290135196628752,0.5823158113635465,0.06180313936924353,-0.7155,-1.94323,-0.55689,4.905479368149081,-1.5877284363517634,-18.555157285046228,0.10194790377523683,-1.5535280620240273,-0.2989394460751308,6.269337980511207,-0.755714530151569,-0.08541313936924361,-0.9775213563614795,-1.7085658364243912,-7.160654083713244,3.3589080565219263,-0.1798593017655619,-0.07876166199682036,31.50806113039916,120.40196642052162,12.483720308169723
1573539866.603,31.50799833,120.40199301,12.9577,-0.9943822993849443,1.723047535245501,176.397351350614,-6.631640863623684,0.588015498351439,0.05930348740031022,-0.90055,-2.04376,-0.59844,3.088197385490207,-1.6871692571918888,-19.510680849793996,-0.013628952254643976,-1.6138402954089266,-0.3607939461449836,6.605460036532543,-0.8163822355425182,-0.08291348740031029,-0.9943822993849581,-1.7230475352455006,-7.58485818153826,3.464437937218631,-0.1704350013721,-0.07887381991264192,31.50806259171718,120.40196500440372,12.442170361056924
1573539866.703,31.50799515,120.40199304,12.9609,-1.010295674474016,1.6915002253368079,176.79866901007247,-6.984234378056428,0.5908653496345275,0.05610386564059722,-0.84739,-2.25679,-0.64322,4.088794199794495,-1.2683566013495984,-20.526763977297275,0.2861739032533678,-1.6916774644353318,-0.349378102946335,6.951906316583406,-0.8819968917657208,-0.07971386564059729,-1.01029567447403,-1.6915002253368074,-7.9861758409967205,3.577959368470028,-0.16703031110374386,-0.073601377365818,31.508061748613425,120.40196291303984,12.397390420548618,-0.77298,-2.25405,-0.64933,31.508061095065326,120.40196309331378,12.39128041267395,0.09190149182341567,-0.015982591232077365,-0.35647351857804527
1573539866.803,31.507991870000005,120.40199307,12.9637,-1.0724544009846932,1.635495205864287,177.15343935446717,-7.3479157372656125,0.5937152044666398,0.05330427745696342,-0.78832,-2.42382,-0.69685,5.245603812165684,-0.6394985774205457,-21.311449695449912,0.5266870899295848,-1.6960014482021504,-0.33788683193891045,7.309229745154118,-0.9497628131663398,-0.0769142774569635,-1.0724544009847072,-1.6354952058642869,-8.340946185391442,3.6824083550773388,-0.16304218574949608,-0.0857996044433427,31.508060933713995,120.40196130878427,12.343760472722352
1573539866.903,31.507988489999995,120.40199308,12.9663,-1.112840790566114,1.614843229198631,177.4970743511496,-7.722684945277699,0.5946651702121122,0.0507047215612082,-0.7942,-2.60141,-0.74676,5.17099743606348,-0.3637813238282815,-22.15622033676343,0.6722947966619046,-1.7327337369996743,-0.3589812212978154,7.677061708166061,-1.021543790421492,-0.07431472156120827,-1.1128407905661277,-1.6148432291986305,-8.684581182073844,3.7964301233137734,-0.154535144887976,-0.08053296089314434,31.508060674981422,120.40195946281985,12.293850541114807
1573539867.003,31.50798502,120.40199308,12.9693,-1.1766731645893733,1.582114602501515,177.7946643346968,-8.107433214375726,0.5946651920186163,0.0477051999632625,-0.55987,-2.63032,-0.76255,6.217551569461063,2.475362802726908,-22.99101455905806,1.0537129007366388,-1.4469867675719459,-0.2855669445031577,8.054498796445595,-1.0961928022367569,-0.07131519996326258,-1.1766731645893873,-1.5821146025015147,-8.982171165621057,3.903134965349154,-0.17255191507684053,-0.08465618035425101,31.508058551157873,120.40195964287504,12.278060528449714
1573539867.103,31.507981440000002,120.40199305,12.9721,-1.161032176937057,1.55056377822913,178.05875316039288,-8.504378113458516,0.5918153835038886,0.044905719997889726,-0.51403,-2.80423,-0.81171,6.098715212739903,2.7571176662052537,-23.782937503989338,1.2124792660142678,-1.4721080954418446,-0.28729541802835545,8.443347822688299,-1.1760038860943107,-0.0685157199978898,-1.161032176937071,-1.5505637782291297,-9.246259991317139,4.015754923367717,-0.17089090004463012,-0.08387219879005282,31.508057841271846,120.4019579405489,12.22890059556812,-0.49342,-2.73845,-0.78879,31.50805777402998,120.40195866194739,12.251820566132665,0.10544973196094201,0.0650318105742683,-0.4149061482616995
1573539867.203,31.50797776,120.40199301,12.9751,-1.192002011772911,1.5294048258216888,178.28774774163392,-8.912410860466933,0.588015628582423,0.04190627896606447,-0.43334,-2.91193,-0.83627,5.9831423738240765,4.000166210625687,-24.525928976982648,1.3752334693422614,-1.3699751569410978,-0.24555452401668693,8.84288969082008,-1.2588981342570378,-0.06551627896606455,-1.1920020117729249,-1.5294048258216886,-9.475254572558194,4.130708373224881,-0.16492393508684958,-0.0832258433741277,31.508056938907927,120.40195699314626,12.204340635798872
1573539867.303,31.507973980000003,120.40199296,12.9782,-1.234835530106359,1.4964425317505479,178.47105055159406,-9.331531453512088,0.5832659295227942,0.03880688042759051,-0.14502,-2.83705,-0.81091,5.822475508191897,7.122475954147768,-25.333245451135195,1.676801982055184,-0.9147198476049193,-0.11638689562592575,9.253124399428094,-1.344875544132989,-0.062416880427590575,-1.234835530106373,-1.4964425317505476,-9.658557382518318,4.237586042460893,-0.1483209365427304,-0.08600861889204874,31.508054519024657,120.40195835530244,12.229700590483844
1573539867.402,31.50797011,120.40199292,12.9809,-1.3019392464354176,1.5317146698404502,178.63020826429164,-9.760631107570319,0.5794661755583581,0.036107524588061324,-0.04389,-2.9537,-0.845,5.4231195365259905,7.719252549650759,-26.02917724862383,1.8102167532468185,-0.831245617265485,-0.10553855286799024,9.673332850562023,-1.43185720219208,-0.05971752458806139,-1.3019392464354311,-1.53171466984045,-9.817715095215906,4.343989691806237,-0.15017575070807837,-0.09558583252980367,31.50805342015659,120.40195735722158,12.195610640570521
1573539867.502,31.507966350000004,120.40199188,12.9568,-1.3575741216416863,1.590355747742236,178.8006701875492,-10.17753409230251,0.4806719595607887,0.060208170771524294,0.0867,-3.10784,-0.88799,5.227831046611928,7.924216699088153,-26.69025953154503,1.980759596178072,-0.7974352669756317,-0.09366084364335142,10.063145531277616,-1.6096617852221775,-0.08381817077152434,-1.3575741216417003,-1.5903557477422359,-9.988177018473454,4.4400852363066985,-0.17040865733166774,-0.11133725269517149,31.50805199503915,120.40195603215558,12.152620712295175,0.0491,-3.22268,-0.92008,31.508052126752375,120.40195476941807,12.120530766434968,0.09959070850555658,0.12543131871718705,-0.46649058706103147
1573539867.602,31.50796229,120.40199179,12.9588,-1.4016325584800724,1.637671041214029,178.9599250948913,-10.62770065224449,0.4721224782995792,0.05820890750417984,0.18843,-3.39991,-0.96892,5.54360844584033,7.36621738538476,-27.39638479054114,2.184070346314627,-0.9528353211739455,-0.12800117957444518,10.503099019845491,-1.7053903244191688,-0.08181890750417989,-1.4016325584800864,-1.6376710412140287,-10.147431925815575,4.55811973152353,-0.17164249007340554,-0.11024063995306976,31.508050583903643,120.40195322375484,12.071690858341753
1573539867.702,31.507958120000005,120.40199168,12.9616,-1.4458192701025694,1.696434402382025,179.10754061428776,-11.09006384430474,0.4616731083183261,0.055409695425281846,0.37923,-3.23002,-0.91716,3.7301144910702893,9.291319596029233,-28.01812858881833,2.19642010123981,-0.4703303622141677,-0.010897520323124299,10.954648756568659,-1.8053490457514576,-0.0790196954252819,-1.4458192701025832,-1.6964344023820248,-10.29504744521201,4.667923790646606,-0.19278865159811362,-0.10773314499450322,31.508049193082265,120.40195536789093,12.123450781218708
1573539867.802,31.507953859999997,120.40199155000002,12.9651,-1.4436255373139784,1.6982973326273243,179.25654084147288,-11.562406099328076,0.449323850043172,0.05191053720416772,0.52488,-3.50864,-0.98731,4.043016050422553,9.080080629408949,-28.728852695141562,2.4205738507214973,-0.604997280357366,-0.0060675830025436195,11.41561931176745,-1.9091076950304156,-0.07552053720416776,-1.4436255373139923,-1.6982973326273243,-10.444047672397154,4.7785502108781115,-0.19061818928449717,-0.11420629593262824,31.508047416899867,120.40195278809135,12.053300934843719,0.5215,-3.42282,-0.95981,31.508047596976677,120.40195366744271,12.080800889991224,0.06260042567325473,0.1662424092541611,-0.5011470175412513
1573539867.902,31.507949939999996,120.40199142,12.9678,-1.464689018025666,1.6997544319353912,179.38228155681446,-11.997049675321316,0.4369745864924952,0.04921134272527539,0.70931,-3.57986,-1.00033,3.45250897178069,9.706901873888352,-29.363182034535217,2.53183412205284,-0.43247467605839324,0.0336103745458346,11.839607556655208,-2.0055520347266125,-0.07282134272527543,-1.4646890180256797,-1.6997544319353912,-10.569788387738727,4.87368431451729,-0.1956879115328789,-0.123057115633441,31.50804566053044,120.40195242929751,12.040280992165208
1573539868.002,31.507945040000003,120.40199124,12.9711,-1.4507787198283828,1.7249047591586366,179.55408750696364,-12.540354145873184,0.41987560273416813,0.04591239094912769,0.9087,-3.91857,-1.08942,4.092061403070626,9.269786562973858,-30.02699939479752,2.8236897512020107,-0.5826392333276996,0.00239053216567342,12.369270322876439,-2.1277382739112536,-0.06952239094912774,-1.4507787198283963,-1.7249047591586366,-10.741594337887916,4.9905556183516415,-0.19511793441853303,-0.11844873071125539,31.508043303734496,120.40194933871543,11.951191211119294
1573539868.102,31.507940489999996,120.40199107,12.975,-1.4377897145853062,1.6802459004703658,179.64653372860505,-13.044851156772097,0.4037265593427044,0.04201340556336941,1.11717,-4.11443,-1.15279,3.982660245998829,9.24849974200713,-30.719678464747965,2.995836314515682,-0.5261960848019798,-0.005573102202833913,12.861047376668276,-2.2414631831097998,-0.06562340556336946,-1.4377897145853202,-1.6802459004703658,-10.83404055952932,5.101076586625863,-0.19116502494300622,-0.11455169407725688,31.508041116569423,120.40194774187678,11.887821366079152
1573539868.202,31.50793631,120.40199092999998,12.9785,-1.4946229747926727,1.6345310983315506,179.66921932280383,-13.508323134877791,0.39042734866158924,0.038514374204465796,1.35071,-4.29939,-1.20676,3.765526391882048,9.474239016624061,-31.357875413146335,3.168220715257709,-0.4249278252849404,0.000404487998535652,13.313131902330896,-2.344432718169207,-0.06212437420446584,-1.494622974792687,-1.6345310983315506,-10.856726153728081,5.194249472160436,-0.16512145173688159,-0.11235024315654212,31.508038726670794,120.40194630880558,11.833851530216634,1.358,-4.31381,-1.21061,31.50803863693963,120.40194617478105,11.830001541413367,0.06771635809792659,0.16495529987235105,-0.547507643789652
1573539868.302,31.507931580000005,120.40199079000001,12.9828,-1.6084938476233912,1.5430128807991015,179.70326379797686,-14.032778268855733,0.3771281424548971,0.034215508635952574,1.61249,-4.51558,-1.2673,3.699230112593214,9.710581907292003,-31.90156958439776,3.3642755413531598,-0.3310575135694772,0.01195644855725575,13.825040751352981,-2.459234228326664,-0.05782550863595262,-1.6084938476234052,-1.5430128807991015,-10.890770628901128,5.284606962768851,-0.15835051571882514,-0.10642449542548184,31.508036032270724,120.40194461090391,11.773311737924814
1573539868.402,31.507926290000004,120.40199061,12.9866,-1.6768558558096431,1.5662720698612609,179.73638722738,-14.619325341629107,0.3600291531969111,0.03041683049116095,1.87746,-4.71736,-1.32528,3.3968631107799174,9.922039702601275,-32.44387186306523,3.529826847214569,-0.26224636069292306,0.03195691453463012,14.397124400498203,-2.589810422149827,-0.054026830491161,-1.6768558558096571,-1.5662720698612609,-10.92389405830426,5.373298126264916,-0.1881379012024645,-0.12207062058117246,31.508033334862404,120.40194306832838,11.715331953018904
1573539868.502,31.507922660000002,120.40199017,12.9513,-1.7350800561683293,1.611131283696736,179.6776055361959,-15.021814075478979,0.3182315838903169,0.06571776774793392,2.12628,-4.72049,-1.33549,2.1827877624726097,10.521971804446176,-33.009288508792224,3.504782214636954,-0.002665690891804958,0.10250384654515621,14.78385525253396,-2.708904778689964,-0.08932776774793397,-1.7350800561683433,-1.611131283696736,-10.865112367120174,5.4206412781400335,-0.19692168744531197,-0.11486401846569708,31.508031127949483,120.40194354420643,11.705122034996748,2.13237,-4.79197,-1.35888,31.50803094898868,120.40194281847795,11.68173208925873,0.04229831566743027,0.17841633484475072,-0.5763787168733447
1573539868.602,31.507917740000003,120.40198999,12.9555,-1.7122999729447261,1.7145169392572444,179.6878425372609,-15.567336115527283,0.3011325893907175,0.06151908067837031,2.43127,-4.99347,-1.41659,2.2412860076570085,10.35155636325377,-33.535282039174604,3.7326996164780826,-0.0023929479868113057,0.09863097862390025,15.315693446768284,-2.8315212822485596,-0.08512908067837034,-1.71229997294474,-1.7145169392572444,-10.875349368185175,5.493056364113071,-0.19625878619857234,-0.13272991191413014,31.508027951874425,120.40194134809424,11.62402234878391
1573539868.702,31.507912739999995,120.40198982,12.9587,-1.7809802558465175,1.806398576275614,179.70831022626493,-16.121728430487646,0.2849835371890954,0.05832046191565432,2.74033,-5.22999,-1.48616,2.1558916691601597,10.22914543783667,-34.10257272858821,3.909193655738278,0.0502534143642665,0.09039491623054552,15.856417666610154,-2.9549269095534885,-0.08193046191565435,-1.7809802558465315,-1.806398576275614,-10.89581705718918,5.578654835165759,-0.1823495826269116,-0.152866673272791,31.50802480358956,120.40193953681371,11.554452661424875,2.74035,-5.2812,-1.49816,31.508024713802616,120.40193900801395,11.542452703230083,0.04097315082987946,0.17624671264903496,-0.5952007012598762
1573539868.802,31.507908180000005,120.40198966,12.9614,-1.8266120730343955,1.8639668199857518,179.74102897426488,-16.627334219663588,0.26978442882896125,0.05562176454985668,3.07162,-5.50275,-1.56232,2.1497563204258205,10.17191916361153,-34.64698008846231,4.124237772770699,0.09027728028248189,0.07153077321113976,16.349466735926804,-3.067935060538969,-0.07923176454985671,-1.8266120730344098,-1.8639668199857518,-10.928535805189137,5.654050926079618,-0.18161272541882723,-0.15515390186568792,31.50802139520991,120.40193739668999,11.478293038904667
1573539868.902,31.50790251,120.40198948,12.9661,-1.9297452845854046,1.8522987016303474,179.73954805853649,-17.256015106893813,0.25268543040001834,0.0509234414903359,3.42794,-5.91775,-1.67386,2.686104208161321,9.898468388096903,-35.204095853936344,4.447795343394373,-0.0003841638206362463,0.031285643632369076,16.962883549276032,-3.206686085098541,-0.07453344149033592,-1.929745284585419,-1.8522987016303474,-10.927054889460754,5.758971115708102,-0.1849588516081635,-0.14352909688129242,31.50801751647786,120.40193383879041,11.366753586567938
1573539869.002,31.507897289999995,120.40198929999998,12.9717,-1.9864712087224057,1.7608894059102382,179.76314079303697,-17.834800690570674,0.23558642937693364,0.04532503871121474,3.83742,-6.24603,-1.76488,2.856840796747537,10.059878351023187,-35.69486063122811,4.728496159789593,0.051869490933423,0.051998454451853915,17.527353194860993,-3.3357564028378994,-0.06893503871121476,-1.9864712087224206,-1.7608894059102382,-10.950647623961235,5.82941669142426,-0.1976757961738565,-0.12250945821148299,31.508013319159648,120.40193128501626,11.275734129361808,3.84905,-6.22569,-1.76324,31.508013251855193,120.40193151881904,11.277374116703868,0.04921715044789428,0.1767550511432521,-0.6229051811527219
1573539869.101,31.507892530000003,120.40198912000001,12.9776,-1.9977200376733468,1.6691819431802137,179.76456665113767,-18.362582181395936,0.21848742703598578,0.039426541594343334,4.24076,-6.49471,-1.84058,2.643876492277433,10.382439302568603,-36.22747516392792,4.904443996628748,0.16360500622819,0.10131932722487247,18.0417879534172,-3.454930884703825,-0.06303654159434335,-1.9977200376733615,-1.6691819431802137,-10.952073482061923,5.874843240802058,-0.21751236083803577,-0.1137225082603535,31.508009315453364,120.4019295407229,11.200034629553556
1573539869.201,31.50788723,120.40198891999998,12.9841,-1.9855925306178268,1.532032201942337,179.77860711636856,-18.95023804607573,0.19948852989226573,0.03292826650563896,4.68195,-6.82844,-1.9322,2.743006952163985,10.608887865280495,-36.71892429014903,5.134817586520572,0.2125966215012977,0.12830706444031437,18.614590703645764,-3.587586011690404,-0.056538266505638986,-1.985592530617841,-1.532032201942337,-10.966113947292822,5.870094538223518,-0.21051844401750783,-0.09792704961791704,31.508004828043763,120.40192699543344,11.108415286056697,4.69944,-6.85412,-1.93655,31.508004628364645,120.40192676596105,11.10406532511115,0.04895822066712175,0.18435034814774537,-0.6407282032394812
1573539869.301,31.507881419999997,120.4019887,12.9904,-1.9851124851863289,1.3717828472712055,179.79285065602926,-19.594441925121927,0.17858974402747219,0.026630220591949083,5.12667,-7.14507,-2.01891,2.6888643434721344,10.895357774905257,-37.22877572398259,5.275864778830193,0.30649583022840976,0.1565542920256141,19.24249829643715,-3.733076396058974,-0.0502402205919491,-1.9851124851863433,-1.3717828472712055,-10.98035748695352,5.830744358418028,-0.19185460091915627,-0.10522427895923654,31.508000339324834,120.40192463394398,11.021705971099436
1573539869.401,31.5078767,120.40198855,12.9932,-2.0767881016839858,1.3716361280305558,179.79175621835276,-20.117788269220306,0.16434057116495904,0.023831855320208817,5.58313,-7.48761,-2.11417,2.699866264426613,11.120904263985468,-37.71669052127022,5.41022232742061,0.38986034630669925,0.16801222859406273,19.753135112416572,-3.8485946932019153,-0.04744185532020884,-2.076788101684,-1.3716361280305558,-10.979263049277034,5.796887164022443,-0.1748267034825422,-0.11760634056569565,31.507995701397245,120.40192202886301,10.926446745172143
1573539869.501,31.50787104,120.40199457999998,12.3166,-2.169451257642357,1.4621590616565314,179.74305988441617,-20.74535812554425,0.7371576700293154,0.7004339140231863,6.0509,-7.8339,-2.20873,2.539954021051879,11.207040509899427,-38.21844890544529,5.5490032951638675,0.47163725865741024,0.18449935259145578,20.479917795281263,-3.408423947688505,-0.7240439140231865,-2.1694512576423715,-1.4621590616565314,-10.93056671534044,5.759429059181552,-0.13936487771651102,-0.1524946002787211,31.507990956842235,120.40191940815646,10.831887583248317,6.01725,-7.7694,-2.19536,31.50799136742648,120.40192000551308,10.845257475040853,0.03868080219414355,0.19534320152450846,-0.6676335106181841
1573539869.601,31.50786637,120.40199446999999,12.3168,-2.204156657916078,1.5306279538333494,179.72983762158432,-21.263160484582706,0.7267083073804272,0.7002356257673004,6.47725,-8.06557,-2.28071,2.038943741408357,11.29155988891505,-38.76983581930453,5.565135925166864,0.6047367696896019,0.2219986445961949,20.985853216760724,-3.519138994082221,-0.7238456257673005,-2.2041566579160916,-1.5306279538333494,-10.917344452508596,5.75164718213224,-0.14083812986818334,-0.15071407845817328,31.507986779319207,120.401917886521,10.759908291511238
1573539869.701,31.50786066,120.40199433,12.3174,-2.22719863167581,1.5188976460884782,179.71829538631275,-21.89627643230615,0.7134091127782041,0.6996377736709665,6.95127,-8.36276,-2.36518,1.8547502052742975,11.41860520192883,-39.2539091874664,5.6799209999701326,0.7124673979264847,0.2504281836977481,21.604358052953486,-3.655022913090246,-0.7232477736709666,-2.227198631675824,-1.5188976460884782,-10.905802217236998,5.7384717795039615,-0.13512514973448617,-0.15703088787202557,31.50798206538492,120.40191578563075,10.675439171493053,6.94908,-8.35729,-2.36161,31.507982094332696,120.40191583764594,10.679009162820876,0.03198309559802435,0.19926674506900302,-0.6847990101172371
1573539869.801,31.507855489999997,120.40199421,12.3173,-2.2505728315448885,1.5181731730036108,179.68361232919835,-22.46951801358219,0.7020098064732379,0.699739774369867,7.4355,-8.65818,-2.44786,1.6799115196904602,11.586232537133323,-39.74035851412489,5.785715930803061,0.8390720441525163,0.2686380227618378,22.16449490347807,-3.777426194796647,-0.7233497743698671,-2.250572831544903,-1.5181731730036108,-10.871119160122614,5.719740908838197,-0.14054352872760645,-0.16203793474240388,31.5079772642147,120.4019137238727,10.592760110273957
1573539869.901,31.50785034,120.40199408999999,12.317,-2.262261445025609,1.4947735100631456,179.66099446439895,-23.04054202539611,0.6906104957690431,0.7000418188129309,7.99196,-9.03079,-2.55092,1.8004967929867088,11.781985081241642,-40.181933702290515,6.0027549940365645,0.9335295220268095,0.29489460299146764,22.72245632308565,-3.8993992269885442,-0.7236518188129311,-2.262261445025623,-1.4947735100631456,-10.848501295323215,5.691960057558752,-0.13093289957326695,-0.1459090777337397,31.507971688917486,120.40191101250754,10.489701298065484,8.02514,-9.06716,-2.56097,31.507971331714916,120.40191070468666,10.479651391506195,0.03378881279687269,0.20509953118880073,-0.7014724027713296
1573539870.001,31.507845739999997,120.40199400000002,12.3186,-2.2854456984039953,1.4021241224686678,179.61669004633276,-23.550582896541925,0.6820610201869739,0.6984436882583065,8.54939,-9.38552,-2.65358,1.7922946057248963,11.931656356753871,-40.670151852131994,6.172115051467024,1.0557202264894605,0.32464633793600295,23.22114636141661,-4.006744601557622,-0.7220536882583066,-2.2854456984040095,-1.4021241224686678,-10.80419687725702,5.645076109819678,-0.1292740533672984,-0.1255217649219191,31.507966136325365,120.40190848776865,10.387042532674968,8.56358,-9.39455,-2.65581,31.507965994978047,120.40190842349911,10.384812565520406,0.0324537120962475,0.2084533005251994,-0.7095701740611323
1573539870.101,31.50784016,120.4019939,12.3193,-2.3434867825512975,1.412236439490617,179.55846105719468,-24.16928464370592,0.6725616013210542,0.697746010685151,9.1025,-9.71476,-2.74839,1.7076771239404576,12.208307985457633,-41.11601925887695,6.276145212242721,1.183106468239689,0.3740464740539402,23.826248137330463,-4.136104300415018,-0.7213560106851511,-2.3434867825513117,-1.412236439490617,-10.745967888118928,5.612802557931992,-0.1203013091118863,-0.15092100814019577,31.507960666558155,120.40190621743923,10.292233791202307
1573539870.301,31.50783097,120.40199374999999,12.3162,-2.4260053881632135,1.6160457726010193,179.44996851444984,-25.188257575313422,0.6583124787156773,0.7008499681890257,10.24083,-10.39676,-2.94302,1.4633610263109853,12.38301076884188,-42.02418191423912,6.610435647745937,1.4263456790062254,0.4023601595461751,24.823093398526826,-4.347784242956033,-0.7244599681890258,-2.4260053881632277,-1.6160457726010193,-10.637475345374106,5.689510599137673,-0.13524290786044169,-0.17069645038345327,31.507949401773036,120.40190149947543,10.097606590948999,10.27314,-10.45942,-2.95484,31.50794900626398,120.40190091838366,10.085786744952202,0.029313170433981208,0.2163306769516957,-0.7331216488144587
1573539870.401,31.50782477,120.40199364,12.3154,-2.404528606321742,1.613992622188306,179.3471538240236,-25.875703952897865,0.647863118054202,0.7016527301920217,10.86772,-10.80432,-3.05575,1.5441660290346182,12.528887143774423,-42.442705995090705,6.881606645519882,1.5128870341428984,0.4454983629138224,25.49544917580087,-4.491413696615151,-0.7252627301920218,-2.4045286063217564,-1.613992622188306,-10.534660654947844,5.764325232339663,-0.13506663379986608,-0.1732422299736724,31.50794314218721,120.40189857103599,9.984878307208419
1573539870.501,31.50781987,120.40199397,12.3066,-2.4063673378971884,1.6228174006657066,179.22085902793017,-26.41900831186556,0.6792113681287297,0.7104549690471238,11.47481,-11.15101,-3.15692,1.4270550028906748,12.674210829019472,-42.87584494871224,7.0817779390125875,1.6560901436287996,0.47389418037170983,26.034511586781175,-4.566073299642044,-0.7340649690471239,-2.4063673378972026,-1.6228174006657066,-10.408365858854427,5.789529342080862,-0.12913898819031452,-0.15337450542356174,31.507937164295658,120.40189623075445,9.88370996620506,11.58964,-11.32788,-3.19525,31.5079358388388,120.40189463877095,9.845380483195186,0.03638839029986974,0.22061932615029506,-0.7470595359321917
1573539870.6,31.5078146,120.40199392000001,12.3067,-2.430546073268534,1.59757093237839,179.11789425658762,-27.00333773363084,0.6744616760797175,0.710357425331976,12.23967,-11.71234,-3.3064,1.968513033125601,12.855475793270474,-43.23924770977986,7.544564519212598,1.7166821454339756,0.5058803708255306,26.606815742097115,-4.684104594319421,-0.7339674253319761,-2.4305460732685487,-1.5975709323783898,-10.305401087511871,5.864844334947733,-0.12207091156613721,-0.17881263764308353,31.507929414942755,120.40189199614564,9.734232394956052
1573539870.7,31.507809279999996,120.40199389,12.3058,-2.478295652258539,1.640934798669113,179.0244953560362,-27.593211073925296,0.671611875495401,0.711259959760838,12.78683,-11.94535,-3.38632,1.3397203831342366,12.980835350923392,-43.7356829090924,7.53815815092774,1.9109738688196372,0.5248853025092046,27.184927085344352,-4.801347733830379,-0.7348699597608381,-2.4782956522585535,-1.6409347986691127,-10.212002186960461,5.948248605848463,-0.11553789616679205,-0.18507570767438303,31.507924166205797,120.40189070742193,9.65431390143931,12.81129,-11.98945,-3.39544,31.507923872626936,120.40189030196422,9.645194032229483,0.02552307759144505,0.22621539280491876,-0.7634737985484823
1573539870.8,31.507803869999996,120.40199386,12.3047,-2.5254857350931927,1.6617200264378051,178.94312188171887,-28.193063472403388,0.6687620769897942,0.7123625931175503,13.49695,-12.37922,-3.51228,1.2994312699919306,13.098404623245115,-44.159646010294324,7.834208081019669,2.040154268624725,0.5507978116318442,27.77282785996807,-4.920527012684844,-0.7359725931175505,-2.525485735093207,-1.661720026437805,-10.130628712643118,6.042798774826699,-0.1269332711400796,-0.191188445337657,31.50791712420187,120.40188767727597,9.528356194496155
1573539870.9,31.507798929999996,120.40199384,12.3047,-2.5497853133042,1.682661384701209,178.86206486698086,-28.740803004279336,0.666862218329662,0.7123650480346164,14.27939,-12.88096,-3.65711,1.4270749545472277,13.223599609041532,-44.59641344996605,8.221616646218958,2.158462588513508,0.5860459251653358,28.30979035131737,-5.028663440989847,-0.7359750480346166,-2.5497853133042145,-1.6826613847012089,-10.049571697905112,6.120342662999947,-0.137575953061807,-0.17718579119621172,31.507909323582695,120.40188409395398,9.383528891950846,14.3621,-13.00012,-3.68324,31.507908383291856,120.40188303233244,9.357399320229888,0.03188588945879826,0.23148582703010867,-0.7778834724429464
1573539871.0,31.507792809999998,120.40199382,12.306,-2.5631180131889333,1.7146396071463288,178.75799140704567,-29.419379109667897,0.6649623710538553,0.7110681534878296,15.11501,-13.4405,-3.81358,1.6698982504249713,13.401831415022523,-44.98866669461414,8.646325231537704,2.272454277063339,0.6400932635413648,28.975103194337162,-5.162184829302376,-0.7346781534878297,-2.563118013188948,-1.7146396071463286,-9.945498237969918,6.194253301939395,-0.13238663547860366,-0.18102196043451216,31.507900951310624,120.40188002235556,9.227061974816024,15.10649,-13.45673,-3.81404,31.50790099829117,120.40187983734849,9.226601988077164,0.030398150748985536,0.23382612142736967,-0.7850171434278814
1573539871.1,31.50778776,120.40199382,12.3066,-2.5873517177367424,1.7240609831315188,178.67718012259647,-29.979315273533317,0.6649624067321982,0.7104707712461966,15.88316,-13.91168,-3.94764,1.6284172190123134,13.541100815434838,-45.38977200602502,8.894466455566658,2.4059899078836096,0.6756921503626601,29.524399169343212,-5.270823862096646,-0.7340807712461968,-2.587351717736757,-1.7240609831315188,-9.86468695352073,6.25551683696337,-0.13438985055000152,-0.19184976032550108,31.50789333059728,120.40187672543776,9.093004855327308,15.92546,-13.97336,-3.96037,31.50789284841619,120.40187617487075,9.080275094136596,0.031716880724258815,0.23605422616810562,-0.7921101430370464
1573539871.2,31.50778151,120.40199383,12.3062,-2.6114773667232902,1.710271717991547,178.58543468727743,-30.67230556859691,0.6659123959545497,0.7108740786469294,16.73118,-14.44671,-4.1008,1.6540053983118272,13.69534534786108,-45.80948351496222,9.222724839734036,2.5434360527244406,0.6986661167927839,30.20440522273795,-5.404346215574865,-0.7344840786469296,-2.611477366723305,-1.7102717179915468,-9.772941518201694,6.31968966912425,-0.12957124166481218,-0.19500425456297793,31.507884891504208,120.40187293227878,8.939848216250539
1573539871.3,31.50777579,120.40199385,12.307,-2.6593981502727075,1.7300912385079341,178.48094724425098,-31.30653029187054,0.6678123291728948,0.7100771734550726,17.6541,-15.05952,-4.27603,1.9006148679099841,13.904091413191336,-46.21680205060666,9.621425316196786,2.6991422910009537,0.7395920897208415,30.826946706610947,-5.52553495356215,-0.7336871734550727,-2.6593981502727218,-1.730091238507934,-9.66845407517526,6.366942093460921,-0.13208792292419821,-0.18433398800282708,31.507875653627714,120.40186848887416,8.764622122980654,17.68086,-15.12091,-4.2865,31.50787530944431,120.40186790956238,8.754152342677116,0.0371833314060893,0.24199972943941586,-0.8062672215281312
1573539871.4,31.50777002,120.40199389,12.3087,-2.7064230705697425,1.7158949472109184,178.38887085168687,-31.9462989412359,0.6716121563470283,0.7083803579481973,18.54828,-15.63785,-4.43945,1.9595412298633306,14.030214233143411,-46.60165271405593,9.929727946028532,2.829150633502938,0.7932498815063755,31.455295386317413,-5.64593553540655,-0.7319903579481974,-2.7064230705697567,-1.7158949472109182,-9.576377682611144,6.4216120893532995,-0.12205679792165883,-0.17451937414702176,31.507866730363393,120.40186434284139,8.601206058636308,18.55265,-15.66428,-4.44104,31.507866645450964,120.40186407882729,8.599616134539247,0.03597719994503161,0.24500711612407,-0.8130651592418537
1573539871.5,31.5077648,120.40199414999998,12.2969,-2.742640492318844,1.712435025627869,178.26232475050645,-32.52508437377806,0.6963108006869749,0.7201832971557032,19.4449,-16.19637,-4.5974,1.8902467390385536,14.204816307568121,-46.99298884459959,10.189839485386248,2.983711461295104,0.8454504325503358,32.02787448169969,-5.734002438874638,-0.7437932971557033,-2.742640492318858,-1.7124350256278689,-9.449831581430729,6.421943204658008,-0.13818259535513042,-0.19142180254023575,31.50785782017543,120.40186040636847,8.443260127678514,19.41832,-16.18105,-4.58857,31.50785808215029,120.40186051028819,8.452090007252991,0.03262605961914261,0.2478948357937072,-0.8202017593977132
1573539871.6,31.50775957,120.4019942,12.2968,-2.7217257413580884,1.7095414445813424,178.1251613746987,-33.10497865080511,0.7010605748747825,0.7202862931825056,20.33133,-16.72255,-4.74812,1.7150555753455328,14.41377666402207,-47.3839032411695,10.370411109989492,3.126288738653569,0.8988221802861622,32.59767086192147,-5.841854272283824,-0.7438962931825057,-2.721725741358103,-1.7095414445813422,-9.312668205622982,6.464682938912395,-0.1468538381993472,-0.19984351263205957,31.507849056733697,120.40185678305508,8.292544255033135,20.28829,-16.69948,-4.73698,31.507849477900045,120.40185693338944,8.303684057667851,0.02930111262346939,0.2510372163509595,-0.8268618797139269
1573539871.7,31.50775312,120.40199429000002,12.2976,-2.677401617419162,1.6253004512698528,177.92148383103978,-33.820144636735456,0.709610143276759,0.7194900614362343,21.21939,-17.24947,-4.90002,1.6093824837682131,14.553368779582048,-47.71981437350566,10.545813586982558,3.2729298699560228,0.9402456199651796,33.300905686057675,-5.972223995278509,-0.7431000614362344,-2.6774016174191764,-1.6253004512698526,-9.10899066196403,6.518359203781186,-0.13449569193189412,-0.18513708254392566,31.507840277575063,120.40185315542949,8.140648557804525,21.28886,-17.34113,-4.92178,31.5078395025458,120.40185235075603,8.118889038451016,0.03201518468062783,0.25477110258369545,-0.832464552392245
1573539871.8,31.507747230000003,120.40199441,12.2981,-2.6454858446805334,1.5509936540248328,177.65981954044858,-34.47321869058996,0.7210095470627325,0.7189935727604109,22.2539,-17.91363,-5.09222,1.7775026872456716,14.843345118763605,-48.00649985907035,10.922517771289895,3.4448425948430583,0.9993859768434652,33.94378140738653,-6.087750932182999,-0.742603572760411,-2.6454858446805476,-1.5509936540248326,-8.847326371372855,6.537279788865537,-0.12669520083885863,-0.17493826961123124,31.5078299625461,120.40184840965922,7.948453923687339,22.24772,-17.93373,-5.09184,31.50782998205152,120.40184818946655,7.948833957314491,0.031748940080471896,0.258645730426571,-0.837623865624731
1573539871.9,31.50774133,120.40199459,12.2988,-2.6392159724964457,1.5540933476823222,177.28163841471283,-35.12740152794504,0.7381086344751999,0.7182971599711383,23.23799,-18.51717,-5.26559,1.7825822515932355,15.04862715113867,-48.21980879446781,11.146160291461628,3.604437308739479,1.0770159474264547,34.58885069773542,-6.197901620465296,-0.7419071599711384,-2.6392159724964603,-1.5540933476823218,-8.469145245637097,6.560566617327614,-0.10712631174128084,-0.18412124521415393,31.507820199684947,120.40184418692525,7.7750891642645,23.2339,-18.5209,-5.26326,31.507820229344365,120.40184414005242,7.777419161051512,0.031332731973861855,0.2613793270978287,-0.8418817362665862
1573539872.0,31.507735400000005,120.40199484,12.2975,-2.678767646863404,1.4962327576637626,176.80087939319782,-35.78491070753782,0.761857350978798,0.7196008314682967,24.25063,-19.11064,-5.43943,1.7349667425375708,15.144540511945262,-48.34887327462538,11.363456404529451,3.7947444133636274,1.1089331087600274,35.238473285495346,-6.302174417763699,-0.7432108314682968,-2.6787676468634176,-1.4962327576637622,-7.988386224122076,6.597373751398205,-0.08812120590947922,-0.19366010800121444,31.507810201847846,120.40184012649561,7.601254696026444,24.27278,-19.1374,-5.44684,31.507809959048963,120.40183989538845,7.59384486079216,0.03180858211848246,0.26527132414137394,-0.8438117603016787
1573539872.1,31.50773004,120.40199512000001,12.2953,-2.7301646541622175,1.4607502731300017,176.3305813064585,-36.37921916652144,0.7884559075154529,0.7218042105675551,25.32128,-19.73671,-5.63015,1.7552684686230486,15.377166847899474,-48.35834431206621,11.656481919493675,3.9800912918832303,1.1530638082050417,35.8266490525882,-6.391389296758407,-0.7454142105675552,-2.730164654162232,-1.4607502731300013,-7.5180881373827475,6.603062711315732,-0.07892390971897784,-0.19556977503288,31.50779963371992,120.4018358478926,7.41054077539593,25.38733,-19.85576,-5.65229,31.507798841020062,120.40183475338101,7.388401406817138,0.03601138509987715,0.2680192758310676,-0.8434182214122229
1573539872.199,31.507723479999996,120.40199555000001,12.2934,-2.795140329203149,1.4318319016119796,175.68807886092492,-37.10658176016587,0.829303680470507,0.7237084233690503,26.47177,-20.47643,-5.84339,2.001996944547537,15.542518092645695,-48.272910014493526,12.057584644162576,4.101775439040567,1.2061020672971061,36.54811523046527,-6.492440953686941,-0.7473184233690504,-2.795140329203164,-1.431831901611979,-6.875585691849191,6.636431220080843,-0.09147623108131939,-0.1667381788417091,31.507788160333345,120.40183055870936,7.197307789698243,26.45619,-20.42453,-5.83835,31.507788388995582,120.40183106285308,7.202347560785711,0.03272768210660624,0.273230055788304,-0.8427632669318404
1573539872.299,31.507717500000002,120.401996,12.2938,-2.754264771127565,1.3494644318753233,175.0482031295399,-37.76963486687701,0.8720513482415946,0.7233123358679805,27.5681,-21.04636,-6.03183,1.8317170251228043,15.84317033685006,-48.19078027951285,12.25151949637276,4.265177354585615,1.3265281891193317,37.20686258189999,-6.579151462836094,-0.7469223358679806,-2.7542647711275796,-1.3494644318753226,-6.2357099604641535,6.649665087970112,-0.1127582994896178,-0.17026307211974676,31.507777463237105,120.40182691230899,7.008874303661287,27.53247,-21.01937,-6.02072,31.50777782570311,120.40182711825912,7.019984060898423,0.031271885602689814,0.2749748621811041,-0.841507758203145
1573539872.399,31.507712119999997,120.40199647,12.2913,-2.691918787632528,1.327027014078316,174.45294898724703,-38.36616088859548,0.9166989095470282,0.7258159162536018,28.66745,-21.64669,-6.21453,1.8476475865146853,15.982625928694487,-48.05287247473395,12.443309572393865,4.372344090115671,1.3821058800619146,37.8007156485264,-6.651090566084607,-0.7494259162536019,-2.691918787632542,-1.3270270140783154,-5.640455818171278,6.650366815331357,-0.09511926654678829,-0.20205854763181094,31.507766686225043,120.40182295814057,6.82618117518723,28.64934,-21.61968,-6.20836,31.507766893717523,120.40182320008083,6.832351000979543,0.030974638238941567,0.27880599869753875,-0.8390708848197441
1573539872.499,31.50770679,120.40199722000001,12.2866,-2.6785014306999653,1.3214414756409019,173.6730304206874,-38.95714297015547,0.9879449948245522,0.7305195234405417,29.8099,-22.24931,-6.407,1.888389900776357,16.1428796310067,-47.88128618588792,12.639564511194036,4.5422585967147455,1.4086208437103396,38.39429078145723,-6.695860946454863,-0.7541295234405418,-2.6785014306999795,-1.3214414756409012,-4.8605372516116825,6.623856473353218,-0.0710209289683555,-0.19243520484866802,31.507755523876945,120.40181906835372,6.633718503639102,30.00946,-22.66074,-6.47508,31.50775303831845,120.40181522715747,6.565640885382891,0.05049265210992067,0.2785665071553407,-0.8335017626556627
1573539872.599,31.507700249999996,120.40199803999998,12.2832,-2.6649722365194366,1.2779473718940657,172.73251831966567,-39.68228797685353,1.0658407288990777,0.7339240223347367,31.22418,-23.34275,-6.68652,2.957204434311642,16.10683750468869,-47.44169714132328,13.43856859891303,4.52094524167754,1.4309120809685951,39.120769574293504,-6.76013838950675,-0.7575340223347369,-2.664972236519451,-1.2779473718940648,-3.9200251505899337,6.642400682605757,-0.061363466630645805,-0.17903294859226393,31.507741097637066,120.40181066512876,6.354209194891155,31.15629,-23.09103,-6.65719,31.507742138771693,120.40181312594822,6.383537950925529,0.040217225770560874,0.2852729832781612,-0.829888394470324
1573539872.699,31.507694880000003,120.40199882,12.2804,-2.6661514533058503,1.1441031523111873,171.89687767810383,-40.277705204560846,1.1399366752753188,0.7367277832507035,32.39555,-23.74737,-6.86867,2.405306404251121,16.53040694681126,-47.15076525661587,13.434784575058732,4.798452508782791,1.5555690056439566,39.71924850577655,-6.802973572370445,-0.7603377832507037,-2.6661514533058637,-1.1441031523111864,-3.0843845090280992,6.666031626725417,-0.0773398094521063,-0.1718179716164897,31.507730025890645,120.40180887913276,6.172066554427147,32.50589,-23.97395,-6.90493,31.50772865317029,120.40180676463311,6.135807962156832,0.05092091918026183,0.2874969932815696,-0.822130771604898
1573539872.799,31.50768893,120.40199978,12.2758,-2.6125632298082717,1.0449427223545278,170.87723280124195,-40.93743191447297,1.2311316862604489,0.7413320173019429,33.79056,-24.66255,-7.12517,3.045217274764697,16.726022859350156,-46.62383033262107,14.014080385205542,4.801890079410369,1.633286337895973,40.38413244576492,-6.841511970697183,-0.764942017301943,-2.6125632298082855,-1.0449427223545265,-2.0647396321662175,6.646657877865101,-0.07339381981593142,-0.17226552709876902,31.50771608207155,120.40180227742138,5.915577286854386,33.80245,-24.6816,-7.12828,31.507715943539566,120.40180210497915,5.912467423826456,0.05328070462533504,0.29187590626108084,-0.8140558235861097
1573539872.899,31.507682430000003,120.40200099999998,12.2713,-2.563253059919663,1.114813588404857,169.6681831621711,-41.6581417646772,1.3470253468525364,0.7458367256877487,35.11996,-25.37491,-7.35177,3.2530457935389925,16.908039395373322,-46.06040465400035,14.294528464355533,4.888898580349203,1.7332846377006317,41.113632736129475,-6.867653032360095,-0.7694467256877489,-2.5632530599196772,-1.1148135884048558,-0.85568999309535,6.62130711361436,-0.051574359716829145,-0.16542663818040249,31.50770307364547,120.40179763620287,5.688987287692726,35.15777,-25.48064,-7.36558,31.507702554107073,120.40179662156757,5.675177917815745,0.06146991142184338,0.29365173310073506,-0.8035104777900569
1573539872.999,31.507676559999997,120.40200226,12.268,-2.548682759577018,1.2866138099483941,168.4783393691551,-42.30899819946541,1.4667188060962086,0.7491410542894492,36.51104,-26.18711,-7.58988,3.729461237480468,16.845738159943014,-45.39777606588194,14.68300569181817,4.921701438374512,1.7857678416965204,41.77534424035893,-6.876513509848704,-0.7727510542894495,-2.548682759577032,-1.2866138099483926,0.3341537999206362,6.612067356506622,-0.047993824441609115,-0.1806236026520106,31.507689344796557,120.40179208992886,5.450888407416642,36.56901,-26.22294,-7.60462,31.507688769207828,120.40179183831775,5.436148889362812,0.06544132094793338,0.2963112018750895,-0.7926249888684649
1573539873.099,31.507670719999997,120.40200367,12.2631,-2.5215045560450586,1.5048484137467164,167.19409289831444,-42.9565282654239,1.6006614889685036,0.7540454313798293,37.96258,-26.93449,-7.83099,3.96424016883572,16.906472047068785,-44.68343551758893,15.057308563914301,5.002725223859729,1.860802283487061,42.436557225948725,-6.870750151220353,-0.7776554313798295,-2.521504556045073,-1.5048484137467149,1.6184002707612923,6.617142617646601,-0.04892687185251189,-0.2319325956734165,31.507675194452013,120.40178733653043,5.209790024906397,38.00215,-27.04177,-7.84281,31.507674656629643,120.40178630948353,5.19797071442008,0.07298620779937913,0.2943679971308703,-0.7795226653450076
1573539873.199,31.507665470000003,120.40200508,12.2588,-2.520890388166378,1.6309154126095404,166.01407581876768,-43.538640048593614,1.7346041771821952,0.758349429317569,39.43363,-27.76672,-8.07365,4.441225874912202,16.73620840561767,-43.83857911467826,15.502610465123233,4.962351744738554,1.8463090457022377,43.033595041736135,-6.852294302534126,-0.7819594293175692,-2.520890388166392,-1.6309154126095387,2.7984173503080507,6.646988442458209,-0.02410615223799745,-0.22454796648216824,31.50766072301495,120.4017817467466,4.967142551206052,39.45888,-27.79349,-8.08071,31.507660452770924,120.40178152186812,4.96008282341063,0.07826861980265373,0.2928264102154664,-0.765176276554856
1573539873.299,31.507659640000004,120.40200682000001,12.2576,-2.5437515375884323,1.54251995841469,164.65224414065293,-44.18506134332279,1.8998951657171688,0.7595539395477218,40.92907,-28.52308,-8.31668,4.7275868021136125,16.72666530609875,-42.972855492652414,15.902584281574313,4.984550046693143,1.8878768394248948,43.69980253798414,-6.81556321062023,-0.783163939547722,-2.543751537588446,-1.5425199584146883,4.160249028422825,6.68897254747797,-0.03415575861191705,-0.181018378182224,31.507646168548124,120.40177699027885,4.724125343374908,40.86403,-28.40761,-8.29422,31.50764694604887,120.4017780498815,4.746584411710501,0.07825091252447235,0.2925327394311474,-0.7506551021121248
1573539873.399,31.50765383,120.40200873,12.2572,-2.5309962169330964,1.3769363663140846,163.25548847058744,-44.8292650686115,2.0813352827000546,0.7599585083050933,42.36402,-29.12646,-8.53058,4.725665761610868,16.922294868897925,-42.0698442707416,16.10030908339272,5.01196304746477,2.00363039782029,44.366967865396276,-6.7625596105004195,-0.7835685083050935,-2.5309962169331097,-1.3769363663140828,5.557004698488302,6.6873220639022835,-0.03502783966292665,-0.17446164075305073,31.507632416962633,120.40177369006882,4.510237478651106,42.37725,-29.14705,-8.53318,31.50763226388011,120.40177350446028,4.5076376600191,0.08319873377001036,0.2955495516599555,-0.7343176227014652
1573539873.498,31.507648049999997,120.40201119000001,12.2858,-2.4526204854505176,1.3100113917512481,161.62207290378663,-45.47014263222652,2.3150225549395884,0.7313631437531427,43.91388,-29.86967,-8.77254,5.055373097699378,17.150818822764077,-41.08634356774479,16.440770993031634,4.970060917631125,2.1324696444088733,45.04100725327074,-6.657656339122963,-0.7549731437531431,-2.452620485450532,-1.310011391751246,7.190420265289094,6.629286244808939,-0.03307863078133875,-0.16717083648956566,31.50761740402257,120.40176918055184,4.2682914370670915,43.94654,-29.95183,-8.78134,31.50761697129306,120.40176839880304,4.259492046199739,0.09061689003573069,0.2979999341824804,-0.7170586129614441
1573539873.598,31.507642380000004,120.40201345,12.2843,-2.4208455039689363,1.3329621639639497,160.12386249733103,-46.098823353014296,2.529710887451687,0.7328677548294458,45.51903,-30.68388,-9.02297,5.549255637719815,17.1865009669897,-40.06306306545416,16.839946950097016,4.873713822570987,2.2070159352616274,45.69939538613619,-6.569024542858774,-0.7564777548294461,-2.4208455039689505,-1.3329621639639473,8.688630671744699,6.638329832768408,-0.01930876945383158,-0.17574374184917776,31.50760177766094,120.40176405075582,4.017876597121358,45.43164,-30.55683,-8.99482,31.507602773167825,120.40176518429442,4.0460253627970815,0.0922599640033341,0.2993665559520055,-0.6997788016017703
1573539873.698,31.507637330000005,120.40201564000002,12.2817,-2.418519011478924,1.3304725628531247,158.74809411290212,-46.65875942674951,2.7377495940536836,0.7354719302598909,47.02776,-31.27171,-9.23564,5.611425950762373,17.19737440275263,-39.026131420584115,16.99580607847643,4.866760619293941,2.2583653992906645,46.289055029761535,-6.47357814536641,-0.7590819302598912,-2.418519011478938,-1.330472562853122,10.064399056173606,6.645600956557465,-0.00025910293641652455,-0.19514179221320813,31.507587400513103,120.40176106182355,3.8052204409614205,46.97457,-31.21131,-9.21782,31.50758797680568,120.40176157692835,3.8230397533625364,0.09603571383717714,0.29935456945570427,-0.681321910819927
1573539873.798,31.50763176,120.40201825999999,12.2772,-2.391667262059423,1.305982448641251,157.16180190396452,-47.27635226133266,2.986636094534841,0.7399766076472396,48.59935,-31.91595,-9.46002,5.811201003576876,17.176180267970143,-37.9209993407629,17.24088961586562,4.81192236814391,2.2918887633986964,46.94320111817332,-6.349246755662242,-0.76358660764724,-2.391667262059437,-1.3059824486412484,11.650691265111218,6.6560656257757,-0.009133660064547732,-0.19360312916108705,31.507572368498547,120.40175761874222,3.580855461768806,48.60398,-31.87811,-9.46024,31.5075723937496,120.40175801896714,3.5806353064253926,0.10004801376523707,0.30141131330258125,-0.6622496681441142
1573539873.898,31.507625700000002,120.40202135000001,12.2735,-2.3838888637746285,1.1917338630046888,155.33656990626133,-47.94827551715764,3.280170196760549,0.7436817868378895,50.26389,-32.57646,-9.70607,6.086599365366651,17.31440958777991,-36.77479878428754,17.56242124559953,4.742502384789073,2.3953031903464925,47.659307761027094,-6.191657393874737,-0.76729178683789,-2.383888863774642,-1.1917338630046856,13.475923262814412,6.668774017864177,-0.005163784629225943,-0.16138765128719315,31.507556485634396,120.40175419748924,3.3348217541351914,50.27126,-32.58844,-9.7066,31.507556399464754,120.40175408882638,3.334291871637106,0.10643937859789662,0.3017964991011414,-0.6420486550764153
1573539873.998,31.50762027,120.40202438,12.2706,-2.395728585518129,1.1346050719416303,153.66916170628645,-48.55034535188909,3.568004623666381,0.7465865136644609,51.96781,-33.2855,-9.95447,6.436341683475252,17.39251789653375,-35.551766440416166,17.922149177143364,4.621437879892092,2.5131558938549308,48.30578251993921,-6.026106406878925,-0.7701965136644614,-2.3957285855181425,-1.1346050719416272,15.143331462789293,6.665172522452236,0.010378988786506789,-0.16311984103558413,31.50754016943244,120.40175035550664,3.086439123377204,52.01181,-33.38441,-9.96587,31.507539607061297,120.40174942394492,3.0750400004908442,0.11522626442345925,0.3018981276348224,-0.6203102231217926
